~VERSION INFORMATION
 VERS.                 2.0:   CWLS LOG ASCII STANDARD - VERSION 2.0
 WRAP.                  NO:   SINGLE LINE PER DEPTH STEP
 CREA.                 9/20/2016 5:41:23 PM
#CREATED USING IP VERSION 4.3.2015.327 BY MAP5249 ON 9/20/2016 5:41:23 PM
~WELL INFORMATION
#MNEM.UNIT       DATA                          DESCRIPTION MNEMONIC
#---------      ---------------------------   --------------------------
 STRT    .FT        9400.0000                 : START DEPTH
 STOP    .FT        10400.0000                : STOP DEPTH
 STEP    .FT        0.2500                    : STEP VALUE
 NULL    .      -999.0000                     : NULL VALUE
 DATE    .      9/20/2016                     : LAS file Creation Date
 WELL .      Chevron2009 : Well Name
 COMP .                  : Company
 FLD  .                  : Field
 UWI  .                  : Unique Well Identifier (UWI)
 LOC  .                  : Location
 LATI .      0           : Latitude/Northing
 LONG .      0           : Longitude/Easting
 RWS  .      -999        : Def_Rw
 WST  .      -999        : Def_Rwt
 PROV .                  : Province
 SRVC .                  : Contractor
~CURVE INFORMATION
#MNEM                   UNIT       API CODE   Curve Type Comments
#----------       --------------- ----------  ---------- -----------
 DEPTH           .FT                        : Depth       
 AT10            .OHMM                      : ShalRes     1       Array Induction Two Foot Resistivity A10
 AT20            .OHMM                      : MedRes      2       Array Induction Two Foot Resistivity A20
 AT30            .OHMM                      : MedRes      3       Array Induction Two Foot Resistivity A30
 AT60            .OHMM                      : MedRes      4       Array Induction Two Foot Resistivity A60
 AT90            .OHMM                      : DeepRes     5       Array Induction Two Foot Resistivity A90
 CALI            .IN                        : Caliper     "copied from HCAL_1 in WIRE set"
 CORE_FLAG       .                          :             Created using text_insert
 COREPERM        .MD                        :             
 COREPOR         .V/V                       :             COREPOR/100
 CORERHOB        .G/C3                      :             ((CORERHOG*(1-(COREPOR)))+COREPOR)
 CORERHOB_2SMT   .                          :             Output log
 CORERHOB_3SMT   .                          :             Output log
 CORERHOG        .G/C3                      :             
 CORESO          .V/V                       :             CORESO/100
 CORESW          .V/V                       :             CORESW/100
 DEPTH           .FT                        : Depth       
 DEPTH_ORIG      .Ft                        :             
 DPAA_TOH_72H_1D .DEG                       :             
 DPAP_72H_1D     .DEG                       :             
 DRHO            .G/C3                      : Drho        "copied from DRHO_1 in WIRE set"
 EHGR            .GAPI                      :             HiRes Gamma-Ray
 FPRESS          .PSI                       :             Formation/hydrostatic pressure
 FTEMP           .DEGF                      :             burnside gradient
 GR              .GAPI                      : GammaRay    "copied from GR_1 in WIRE set"
 GR_CORE         .GAPI                      :             
 GR_SM           .GAPI                      : GammaRay    
 HAZI            .DEG                       : Azimuth     Hole Azimuth
 HCGR            .GAPI                      :             HNGS Computed Gamma Ray
 HSGR            .GAPI                      :             HNGS Standard Gamma Ray
 HTHO            .PPM                       :             HNGS Formation Thorium Concentration
 HURA            .PPM                       :             HNGS Formation Uranium Concentration
 MSFT_72H_ALL_R  .                          :             
 MSFT_72H_ALL_X  .                          :             
 PE              .B/E                       : PEF         "copied from PE_1 in WIRE set"
 PHID_SS         .dec                       : Phi         
 POTA            .%                         : Spectral    POTA*100
 RH72H_1D        .OHM.M                     :             
 RH72H_1D_FLT    .OHM.M                     :             
 RHO8            .G/C3                      : Density     HRDD High Resolution Formation Density
 RHOZ            .G/C3                      : Density     HRDD Standard Resolution Formation Density
 RV72H_1D        .OHM.M                     :             
 RV72H_1D_FLT    .OHM.M                     :             
 SDEV            .DEG                       :             Sonde Deviation
 TENS            .LBF                       : Tension     Cable Tension
 TNPH            .V/V                       : Neutron     Thermal Neutron Porosity
~A  DEPTH    AT10      AT20      AT30      AT60      AT90      CALI   CORE_FLA~  COREPERM  COREPOR   CORERHOB CORERHOB~ CORERHOB~  CORERHOG   CORESO    CORESW    DEPTH   DEPTH_OR~ DPAA_TOH~ DPAP_72H~    DRHO      EHGR     FPRESS    FTEMP       GR     GR_CORE    GR_SM      HAZI      HCGR      HSGR      HTHO      HURA   MSFT_72H~ MSFT_72H~     PE     PHID_SS     POTA    RH72H_1D RH72H_1D~    RHO8      RHOZ    RV72H_1D RV72H_1D~    SDEV      TENS      TNPH   
# ...
9467.5000    1.0180    0.8392    0.7817    0.7221    0.7002   12.6970 -999.0000 -999.0000 -999.0000 -999.0000 -999.0000 -999.0000 -999.0000 -999.0000 -999.0000 9467.5000 -999.0000 -999.0000 -999.0000    0.0061  127.4638 4302.8159  225.4785  104.5480 -999.0000 -999.0000    8.6077   86.4092  119.9516   17.4868    4.5136 -999.0000 -999.0000    3.4833    0.1970    1.7400 -999.0000 -999.0000    2.3348    2.3249 -999.0000 -999.0000   53.1603 4231.0000    0.4860 
9467.7500    1.0085    0.8341    0.7788    0.7199    0.6994   12.7133 -999.0000 -999.0000 -999.0000 -999.0000 -999.0000 -999.0000 -999.0000 -999.0000 -999.0000 9467.7500 -999.0000 -999.0000 -999.0000    0.0068  123.0307 4302.8906  225.4818  105.3738 -999.0000 -999.0000    8.6122   86.0299  119.4069   17.2791    4.4835 -999.0000 -999.0000    3.5347    0.1992    1.7550 -999.0000 -999.0000    2.3194    2.3213 -999.0000 -999.0000   53.1513 4203.0000    0.4930 
9468.0000    0.9989    0.8290    0.7758    0.7176    0.6986   12.7297 -999.0000 -999.0000 -999.0000 -999.0000 -999.0000 -999.0000 -999.0000 -999.0000 -999.0000 9468.0000 -999.0000 -999.0000 -999.0000    0.0075  127.2510 4302.9658  225.4850  106.1996 -999.0000 -999.0000    8.6167   85.6506  118.8622   17.0714    4.4534 -999.0000 -999.0000    3.5861    0.2014    1.7700 -999.0000 -999.0000    2.3039    2.3177 -999.0000 -999.0000   53.1423 4175.0000    0.5001 
9468.2500    1.0025    0.8339    0.7804    0.7218    0.7043   12.7625 -999.0000 -999.0000 -999.0000 -999.0000 -999.0000 -999.0000 -999.0000 -999.0000 -999.0000 9468.2500 -999.0000 -999.0000 -999.0000    0.0077  132.7803 4303.0410  225.4883  104.3534 -999.0000 -999.0000    8.6200   84.8081  117.0512   16.9584    4.3274 -999.0000 -999.0000    3.5816    0.2015    1.7450 -999.0000 -999.0000    2.3111    2.3176 -999.0000 -999.0000   53.1444 4177.5000    0.4894 
9468.5000    1.0061    0.8389    0.7850    0.7260    0.7100   12.7952 -999.0000 -999.0000 -999.0000 -999.0000 -999.0000 -999.0000 -999.0000 -999.0000 -999.0000 9468.5000 -999.0000 -999.0000 -999.0000    0.0079  130.3344 4303.1162  225.4915  102.5071 -999.0000 -999.0000    8.6232   83.9655  115.2402   16.8454    4.2015 -999.0000 -999.0000    3.5771    0.2015    1.7200 -999.0000 -999.0000    2.3183    2.3176 -999.0000 -999.0000   53.1465 4180.0000    0.4788 
9468.7500    1.0223    0.8484    0.7923    0.7321    0.7192   12.8388 -999.0000 -999.0000 -999.0000 -999.0000 -999.0000 -999.0000 -999.0000 -999.0000 -999.0000 9468.7500 -999.0000 -999.0000 -999.0000    0.0081  121.3620 4303.1914  225.4948  102.2691 -999.0000 -999.0000    8.6216   83.4139  114.3828   16.6443    4.1688 -999.0000 -999.0000    3.5787    0.2007    1.7250 -999.0000 -999.0000    2.3174    2.3189 -999.0000 -999.0000   53.1345 4152.5000    0.4913 
9469.0000    1.0385    0.8579    0.7995    0.7381    0.7283   12.8824 -999.0000 -999.0000 -999.0000 -999.0000 -999.0000 -999.0000 -999.0000 -999.0000 -999.0000 9469.0000 -999.0000 -999.0000 -999.0000    0.0084  116.0317 4303.2666  225.4980  102.0310 -999.0000 -999.0000    8.6199   82.8623  113.5253   16.4433    4.1360 -999.0000 -999.0000    3.5803    0.1999    1.7300 -999.0000 -999.0000    2.3165    2.3202 -999.0000 -999.0000   53.1225 4125.0000    0.5038 
9469.2500    1.0574    0.8717    0.8113    0.7478    0.7362   12.8933 -999.0000 -999.0000 -999.0000 -999.0000 -999.0000 -999.0000 -999.0000 -999.0000 -999.0000 9469.2500 -999.0000 -999.0000 -999.0000    0.0085  119.5096 4303.3418  225.5013  101.3426 -999.0000 -999.0000    8.6195   84.0527  112.8017   16.6991    3.8535 -999.0000 -999.0000    3.5742    0.1964    1.7500 -999.0000 -999.0000    2.3244    2.3259 -999.0000 -999.0000   53.1221 4139.0000    0.4912 
9469.5000    1.0764    0.8856    0.8231    0.7574    0.7442   12.9042 -999.0000 -999.0000 -999.0000 -999.0000 -999.0000 -999.0000 -999.0000 -999.0000 -999.0000 9469.5000 -999.0000 -999.0000 -999.0000    0.0086  125.4938 4303.4170  225.5045  100.6541 -999.0000 -999.0000    8.6190   85.2431  112.0780   16.9548    3.5710 -999.0000 -999.0000    3.5681    0.1930    1.7700 -999.0000 -999.0000    2.3323    2.3316 -999.0000 -999.0000   53.1216 4153.0000    0.4787 
9469.7500    1.0751    0.8822    0.8201    0.7566    0.7435   12.8715 -999.0000 -999.0000 -999.0000 -999.0000 -999.0000 -999.0000 -999.0000 -999.0000 -999.0000 9469.7500 -999.0000 -999.0000 -999.0000    0.0084  124.9071 4303.4917  225.5078  101.1003 -999.0000 -999.0000    8.6186   84.5747  111.3256   16.7213    3.5616 -999.0000 -999.0000    3.5794    0.1893    1.7700 -999.0000 -999.0000    2.3358    2.3376 -999.0000 -999.0000   53.1196 4176.0000    0.4729 
9470.0000    1.0738    0.8788    0.8172    0.7558    0.7428   12.8388 -999.0000 -999.0000 -999.0000 -999.0000 -999.0000 -999.0000 -999.0000 -999.0000 -999.0000 9470.0000 -999.0000 -999.0000 -999.0000    0.0082  125.0847 4303.5669  225.5110  101.5465 -999.0000 -999.0000    8.6181   83.9062  110.5732   16.4877    3.5523 -999.0000 -999.0000    3.5907    0.1857    1.7700 -999.0000 -999.0000    2.3393    2.3436 -999.0000 -999.0000   53.1175 4199.0000    0.4671 
9470.2500    1.0626    0.8742    0.8135    0.7527    0.7399   12.8279 -999.0000 -999.0000 -999.0000 -999.0000 -999.0000 -999.0000 -999.0000 -999.0000 -999.0000 9470.2500 -999.0000 -999.0000 -999.0000    0.0073  122.3785 4303.6421  225.5143   99.6942 -999.0000 -999.0000    8.6189   82.6569  109.7881   16.3814    3.6295 -999.0000 -999.0000    3.5740    0.1840    1.7200 -999.0000 -999.0000    2.3538    2.3464 -999.0000 -999.0000   53.1178 4209.0000    0.4539 
9470.5000    1.0515    0.8696    0.8098    0.7495    0.7370   12.8170 -999.0000 -999.0000 -999.0000 -999.0000 -999.0000 -999.0000 -999.0000 -999.0000 -999.0000 9470.5000 -999.0000 -999.0000 -999.0000    0.0063  117.5604 4303.7173  225.5175   97.8418 -999.0000 -999.0000    8.6198   81.4075  109.0031   16.2750    3.7067 -999.0000 -999.0000    3.5574    0.1823    1.6700 -999.0000 -999.0000    2.3683    2.3492 -999.0000 -999.0000   53.1182 4219.0000    0.4408 
9470.7500    1.0504    0.8697    0.8112    0.7520    0.7380   12.8334 -999.0000 -999.0000 -999.0000 -999.0000 -999.0000 -999.0000 -999.0000 -999.0000 -999.0000 9470.7500 -999.0000 -999.0000 -999.0000    0.0054  115.9653 4303.7925  225.5208   97.7721 -999.0000 -999.0000    8.6255   81.3144  108.4308   16.3600    3.6415 -999.0000 -999.0000    3.5232    0.1834    1.6550 -999.0000 -999.0000    2.3536    2.3474 -999.0000 -999.0000   53.1245 4167.0000    0.4407 
9471.0000    1.0493    0.8699    0.8127    0.7545    0.7390   12.8497 -999.0000 -999.0000 -999.0000 -999.0000 -999.0000 -999.0000 -999.0000 -999.0000 -999.0000 9471.0000 -999.0000 -999.0000 -999.0000    0.0044  111.5932 4303.8677  225.5240   97.7024 -999.0000 -999.0000    8.6313   81.2212  107.8586   16.4450    3.5763 -999.0000 -999.0000    3.4890    0.1845    1.6400 -999.0000 -999.0000    2.3388    2.3455 -999.0000 -999.0000   53.1309 4115.0000    0.4406 
9471.2500    1.0493    0.8723    0.8139    0.7561    0.7395   12.9060 -999.0000 -999.0000 -999.0000 -999.0000 -999.0000 -999.0000 -999.0000 -999.0000 -999.0000 9471.2500 -999.0000 -999.0000 -999.0000    0.0031  116.2116 4303.9429  225.5273   97.8512 -999.0000 -999.0000    8.6323   82.7268  108.4535   16.6835    3.4740 -999.0000 -999.0000    3.4453    0.1879    1.6800 -999.0000 -999.0000    2.3412    2.3400 -999.0000 -999.0000   53.1222 4149.5000    0.4234 
9471.5000    1.0493    0.8747    0.8152    0.7577    0.7401   12.9624 -999.0000 -999.0000 -999.0000 -999.0000 -999.0000 -999.0000 -999.0000 -999.0000 -999.0000 9471.5000 -999.0000 -999.0000 -999.0000    0.0018  124.9943 4304.0181  225.5305   98.0001 -999.0000 -999.0000    8.6333   84.2325  109.0484   16.9219    3.3716 -999.0000 -999.0000    3.4016    0.1913    1.7200 -999.0000 -999.0000    2.3436    2.3344 -999.0000 -999.0000   53.1135 4184.0000    0.4062 
9471.7500    1.0470    0.8758    0.8165    0.7597    0.7411   12.9915 -999.0000 -999.0000 -999.0000 -999.0000 -999.0000 -999.0000 -999.0000 -999.0000 -999.0000 9471.7500 -999.0000 -999.0000 -999.0000    0.0006  124.7175 4304.0933  225.5338  100.1630 -999.0000 -999.0000    8.6338   85.2530  109.9282   17.2935    3.2958 -999.0000 -999.0000    3.4365    0.1935    1.7100 -999.0000 -999.0000    2.3344    2.3308 -999.0000 -999.0000   53.1118 4217.5000    0.4086 
