~VERSION INFORMATION
 VERS.                 2.0:   CWLS LOG ASCII STANDARD - VERSION 2.0
 WRAP.                  NO:   SINGLE LINE PER DEPTH STEP
 CREA.                 9/20/2016 5:41:23 PM
#CREATED USING IP VERSION 4.3.2015.327 BY MAP5249 ON 9/20/2016 5:41:23 PM
~WELL INFORMATION
#MNEM.UNIT       DATA                          DESCRIPTION MNEMONIC
#---------      ---------------------------   --------------------------
 STRT    .FT        9400.0000                 : START DEPTH
 STOP    .FT        10400.0000                : STOP DEPTH
 STEP    .FT        0.2500                    : STEP VALUE
 NULL    .      -999.0000                     : NULL VALUE
 DATE    .      9/20/2016                     : LAS file Creation Date
 WELL .      Chevron2009 : Well Name
 COMP .                  : Company
 FLD  .                  : Field
 UWI  .                  : Unique Well Identifier (UWI)
 LOC  .                  : Location
 LATI .      0           : Latitude/Northing
 LONG .      0           : Longitude/Easting
 RWS  .      -999        : Def_Rw
 WST  .      -999        : Def_Rwt
 PROV .                  : Province
 SRVC .                  : Contractor
~CURVE INFORMATION
#MNEM                   UNIT       API CODE   Curve Type Comments
#----------       --------------- ----------  ---------- -----------
 DEPTH           .FT                        : Depth       
 AT10            .OHMM                      : ShalRes     1       Array Induction Two Foot Resistivity A10
 AT20            .OHMM                      : MedRes      2       Array Induction Two Foot Resistivity A20
 AT30            .OHMM                      : MedRes      3       Array Induction Two Foot Resistivity A30
 AT60            .OHMM                      : MedRes      4       Array Induction Two Foot Resistivity A60
 AT90            .OHMM                      : DeepRes     5       Array Induction Two Foot Resistivity A90
 CALI            .IN                        : Caliper     "copied from HCAL_1 in WIRE set"
 CORE_FLAG       .                          :             Created using text_insert
 COREPERM        .MD                        :             
 COREPOR         .V/V                       :             COREPOR/100
 CORERHOB        .G/C3                      :             ((CORERHOG*(1-(COREPOR)))+COREPOR)
 CORERHOB_2SMT   .                          :             Output log
 CORERHOB_3SMT   .                          :             Output log
 CORERHOG        .G/C3                      :             
 CORESO          .V/V                       :             CORESO/100
 CORESW          .V/V                       :             CORESW/100
 DEPTH           .FT                        : Depth       
 DEPTH_ORIG      .Ft                        :             
 DPAA_TOH_72H_1D .DEG                       :             
 DPAP_72H_1D     .DEG                       :             
 DRHO            .G/C3                      : Drho        "copied from DRHO_1 in WIRE set"
 EHGR            .GAPI                      :             HiRes Gamma-Ray
 FPRESS          .PSI                       :             Formation/hydrostatic pressure
 FTEMP           .DEGF                      :             burnside gradient
 GR              .GAPI                      : GammaRay    "copied from GR_1 in WIRE set"
 GR_CORE         .GAPI                      :             
 GR_SM           .GAPI                      : GammaRay    
 HAZI            .DEG                       : Azimuth     Hole Azimuth
 HCGR            .GAPI                      :             HNGS Computed Gamma Ray
 HSGR            .GAPI                      :             HNGS Standard Gamma Ray
 HTHO            .PPM                       :             HNGS Formation Thorium Concentration
 HURA            .PPM                       :             HNGS Formation Uranium Concentration
 MSFT_72H_ALL_R  .                          :             
 MSFT_72H_ALL_X  .                          :             
 PE              .B/E                       : PEF         "copied from PE_1 in WIRE set"
 PHID_SS         .dec                       : Phi         
 POTA            .%                         : Spectral    POTA*100
 RH72H_1D        .OHM.M                     :             
 RH72H_1D_FLT    .OHM.M                     :             
 RHO8            .G/C3                      : Density     HRDD High Resolution Formation Density
 RHOZ            .G/C3                      : Density     HRDD Standard Resolution Formation Density
 RV72H_1D        .OHM.M                     :             
 RV72H_1D_FLT    .OHM.M                     :             
 SDEV            .DEG                       :             Sonde Deviation
 TENS            .LBF                       : Tension     Cable Tension
 TNPH            .V/V                       : Neutron     Thermal Neutron Porosity
~A  DEPTH    AT10      AT20      AT30      AT60      AT90      CALI   CORE_FLA~  COREPERM  COREPOR   CORERHOB CORERHOB~ CORERHOB~  CORERHOG   CORESO    CORESW    DEPTH   DEPTH_OR~ DPAA_TOH~ DPAP_72H~    DRHO      EHGR     FPRESS    FTEMP       GR     GR_CORE    GR_SM      HAZI      HCGR      HSGR      HTHO      HURA   MSFT_72H~ MSFT_72H~     PE     PHID_SS     POTA    RH72H_1D RH72H_1D~    RHO8      RHOZ    RV72H_1D RV72H_1D~    SDEV      TENS      TNPH   
# ...
9530.5000    1.0384    0.8612    0.8048    0.7481    0.7499   12.9406 -999.0000 -999.0000 -999.0000 -999.0000 -999.0000 -999.0000 -999.0000 -999.0000 -999.0000 9530.5000 -999.0000 -999.0000 -999.0000   -0.0028  111.2216 4321.8286  226.3020   95.7264 -999.0000 -999.0000    8.7199   83.9034  107.0512   18.2889    3.3692 -999.0000 -999.0000    3.4235    0.1864    1.4700 -999.0000 -999.0000    2.3352    2.3424 -999.0000 -999.0000   52.8013 4230.0000    0.5186 
9530.7500    1.0386    0.8632    0.8055    0.7489    0.7486   12.9661 -999.0000 -999.0000 -999.0000 -999.0000 -999.0000 -999.0000 -999.0000 -999.0000 -999.0000 9530.7500 -999.0000 -999.0000 -999.0000   -0.0038  118.5598 4321.9043  226.3055   96.9545 -999.0000 -999.0000    8.7170   86.1401  107.4192   18.7142    3.1325 -999.0000 -999.0000    3.4118    0.1849    1.5200 -999.0000 -999.0000    2.3428    2.3449 -999.0000 -999.0000   52.7947 4241.0000    0.4994 
9531.0000    1.0388    0.8651    0.8062    0.7497    0.7473   12.9915 -999.0000 -999.0000 -999.0000 -999.0000 -999.0000 -999.0000 -999.0000 -999.0000 -999.0000 9531.0000 -999.0000 -999.0000 -999.0000   -0.0049  129.0113 4321.9800  226.3090   98.1826 -999.0000 -999.0000    8.7141   88.3768  107.7872   19.1394    2.8958 -999.0000 -999.0000    3.4000    0.1833    1.5700 -999.0000 -999.0000    2.3504    2.3475 -999.0000 -999.0000   52.7880 4252.0000    0.4802 
9531.2500    1.0407    0.8660    0.8049    0.7476    0.7441   12.9406 -999.0000 -999.0000 -999.0000 -999.0000 -999.0000 -999.0000 -999.0000 -999.0000 -999.0000 9531.2500 -999.0000 -999.0000 -999.0000   -0.0045  122.2889 4322.0557  226.3123   97.3972 -999.0000 -999.0000    8.7120   88.2428  106.6290   18.9503    2.7784 -999.0000 -999.0000    3.4063    0.1833    1.5950 -999.0000 -999.0000    2.3571    2.3475 -999.0000 -999.0000   52.7878 4296.0000    0.4594 
9531.5000    1.0426    0.8669    0.8036    0.7455    0.7408   12.8897 -999.0000 -999.0000 -999.0000 -999.0000 -999.0000 -999.0000 -999.0000 -999.0000 -999.0000 9531.5000 -999.0000 -999.0000 -999.0000   -0.0041  116.5775 4322.1313  226.3155   96.6118 -999.0000 -999.0000    8.7099   88.1087  105.4707   18.7611    2.6611 -999.0000 -999.0000    3.4125    0.1833    1.6200 -999.0000 -999.0000    2.3638    2.3475 -999.0000 -999.0000   52.7877 4340.0000    0.4386 
9531.7500    1.0373    0.8663    0.8036    0.7452    0.7382   12.7661 -999.0000 -999.0000 -999.0000 -999.0000 -999.0000 -999.0000 -999.0000 -999.0000 -999.0000 9531.7500 -999.0000 -999.0000 -999.0000   -0.0023  113.6071 4322.2070  226.3188   94.3815 -999.0000 -999.0000    8.7087   86.7108  105.2405   18.2466    2.7916 -999.0000 -999.0000    3.3670    0.1862    1.6300 -999.0000 -999.0000    2.3516    2.3428 -999.0000 -999.0000   52.7808 4368.5000    0.4232 
9532.0000    1.0320    0.8658    0.8037    0.7448    0.7355   12.6425 -999.0000 -999.0000 -999.0000 -999.0000 -999.0000 -999.0000 -999.0000 -999.0000 -999.0000 9532.0000 -999.0000 -999.0000 -999.0000   -0.0006  104.5068 4322.2827  226.3220   92.1512 -999.0000 -999.0000    8.7074   85.3128  105.0103   17.7321    2.9222 -999.0000 -999.0000    3.3215    0.1891    1.6400 -999.0000 -999.0000    2.3395    2.3380 -999.0000 -999.0000   52.7738 4397.0000    0.4079 
9532.2500    1.0251    0.8644    0.8020    0.7432    0.7315   12.6353 -999.0000 -999.0000 -999.0000 -999.0000 -999.0000 -999.0000 -999.0000 -999.0000 -999.0000 9532.2500 -999.0000 -999.0000 -999.0000    0.0011  108.8676 4322.3584  226.3253   92.8467 -999.0000 -999.0000    8.7099   87.6284  107.5516   18.1606    2.9389 -999.0000 -999.0000    3.3751    0.1930    1.6950 -999.0000 -999.0000    2.3300    2.3316 -999.0000 -999.0000   52.7745 4354.0000    0.4258 
9532.5000    1.0183    0.8630    0.8002    0.7415    0.7274   12.6280 -999.0000 -999.0000 -999.0000 -999.0000 -999.0000 -999.0000 -999.0000 -999.0000 -999.0000 9532.5000 -999.0000 -999.0000 -999.0000    0.0027  110.7155 4322.4346  226.3285   93.5422 -999.0000 -999.0000    8.7124   89.9441  110.0929   18.5891    2.9556 -999.0000 -999.0000    3.4287    0.1968    1.7500 -999.0000 -999.0000    2.3206    2.3253 -999.0000 -999.0000   52.7752 4311.0000    0.4438 
9532.7500    1.0086    0.8611    0.7993    0.7406    0.7242   12.7079 -999.0000 -999.0000 -999.0000 -999.0000 -999.0000 -999.0000 -999.0000 -999.0000 -999.0000 9532.7500 -999.0000 -999.0000 -999.0000    0.0038  109.7960 4322.5103  226.3318   94.7682 -999.0000 -999.0000    8.7170   89.4516  110.1225   18.4764    2.9879 -999.0000 -999.0000    3.4751    0.1976    1.7400 -999.0000 -999.0000    2.3165    2.3239 -999.0000 -999.0000   52.7880 4306.0000    0.4450 
9533.0000    0.9990    0.8593    0.7984    0.7397    0.7210   12.7879 -999.0000 -999.0000 -999.0000 -999.0000 -999.0000 -999.0000 -999.0000 -999.0000 -999.0000 9533.0000 -999.0000 -999.0000 -999.0000    0.0049  120.8808 4322.5859  226.3350   95.9941 -999.0000 -999.0000    8.7217   88.9591  110.1520   18.3637    3.0202 -999.0000 -999.0000    3.5215    0.1984    1.7300 -999.0000 -999.0000    2.3124    2.3226 -999.0000 -999.0000   52.8008 4301.0000    0.4462 
9533.2500    1.0049    0.8596    0.7983    0.7397    0.7192   12.8787 -999.0000 -999.0000 -999.0000 -999.0000 -999.0000 -999.0000 -999.0000 -999.0000 -999.0000 9533.2500 -999.0000 -999.0000 -999.0000    0.0042  120.7588 4322.6616  226.3383   96.8038 -999.0000 -999.0000    8.7148   90.4470  110.7325   18.9301    2.8931 -999.0000 -999.0000    3.5250    0.1962    1.7150 -999.0000 -999.0000    2.3228    2.3263 -999.0000 -999.0000   52.7845 4309.0000    0.4581 
9533.5000    1.0108    0.8599    0.7982    0.7396    0.7175   12.9696 -999.0000 -999.0000 -999.0000 -999.0000 -999.0000 -999.0000 -999.0000 -999.0000 -999.0000 9533.5000 -999.0000 -999.0000 -999.0000    0.0035  114.5274 4322.7378  226.3415   97.6136 -999.0000 -999.0000    8.7079   91.9350  111.3130   19.4964    2.7659 -999.0000 -999.0000    3.5285    0.1939    1.7000 -999.0000 -999.0000    2.3331    2.3301 -999.0000 -999.0000   52.7683 4317.0000    0.4701 
9533.7500    1.0195    0.8608    0.7994    0.7429    0.7171   12.9532 -999.0000 -999.0000 -999.0000 -999.0000 -999.0000 -999.0000 -999.0000 -999.0000 -999.0000 9533.7500 -999.0000 -999.0000 -999.0000    0.0030  113.4950 4322.8135  226.3448   95.8727 -999.0000 -999.0000    8.7074   90.2714  108.8688   19.2053    2.6515 -999.0000 -999.0000    3.5185    0.1906    1.6600 -999.0000 -999.0000    2.3317    2.3355 -999.0000 -999.0000   52.7801 4277.5000    0.4615 
9534.0000    1.0283    0.8616    0.8006    0.7462    0.7166   12.9369 -999.0000 -999.0000 -999.0000 -999.0000 -999.0000 -999.0000 -999.0000 -999.0000 -999.0000 9534.0000 -999.0000 -999.0000 -999.0000    0.0024  119.6598 4322.8896  226.3480   94.1319 -999.0000 -999.0000    8.7068   88.6078  106.4246   18.9141    2.5370 -999.0000 -999.0000    3.5084    0.1873    1.6200 -999.0000 -999.0000    2.3302    2.3410 -999.0000 -999.0000   52.7920 4238.0000    0.4529 
9534.2500    1.0392    0.8679    0.8062    0.7486    0.7212   12.8442 -999.0000 -999.0000 -999.0000 -999.0000 -999.0000 -999.0000 -999.0000 -999.0000 -999.0000 9534.2500 -999.0000 -999.0000 -999.0000    0.0019  115.4894 4322.9653  226.3513   94.0612 -999.0000 -999.0000    8.7038   88.8800  106.9186   18.8630    2.4942 -999.0000 -999.0000    3.4847    0.1860    1.6400 -999.0000 -999.0000    2.3418    2.3431 -999.0000 -999.0000   52.7793 4275.0000    0.4409 
9534.5000    1.0502    0.8741    0.8117    0.7510    0.7257   12.7515 -999.0000 -999.0000 -999.0000 -999.0000 -999.0000 -999.0000 -999.0000 -999.0000 -999.0000 9534.5000 -999.0000 -999.0000 -999.0000    0.0014  108.2438 4323.0410  226.3545   93.9905 -999.0000 -999.0000    8.7007   89.1521  107.4126   18.8119    2.4514 -999.0000 -999.0000    3.4610    0.1847    1.6600 -999.0000 -999.0000    2.3534    2.3453 -999.0000 -999.0000   52.7665 4312.0000    0.4289 
9534.7500    1.0646    0.8792    0.8173    0.7554    0.7328   12.6861 -999.0000 -999.0000 -999.0000 -999.0000 -999.0000 -999.0000 -999.0000 -999.0000 -999.0000 9534.7500 -999.0000 -999.0000 -999.0000    0.0014  112.5315 4323.1167  226.3577   93.1257 -999.0000 -999.0000    8.7001   87.5084  107.0993   18.3093    2.6018 -999.0000 -999.0000    3.4320    0.1862    1.6600 -999.0000 -999.0000    2.3544    2.3428 -999.0000 -999.0000   52.7666 4327.5000    0.4234 
