~VERSION INFORMATION
 VERS.                 2.0:   CWLS LOG ASCII STANDARD - VERSION 2.0
 WRAP.                  NO:   SINGLE LINE PER DEPTH STEP
 CREA.                 9/20/2016 5:41:23 PM
#CREATED USING IP VERSION 4.3.2015.327 BY MAP5249 ON 9/20/2016 5:41:23 PM
~WELL INFORMATION
#MNEM.UNIT       DATA                          DESCRIPTION MNEMONIC
#---------      ---------------------------   --------------------------
 STRT    .FT        9400.0000                 : START DEPTH
 STOP    .FT        10400.0000                : STOP DEPTH
 STEP    .FT        0.2500                    : STEP VALUE
 NULL    .      -999.0000                     : NULL VALUE
 DATE    .      9/20/2016                     : LAS file Creation Date
 WELL .      Chevron2009 : Well Name
 COMP .                  : Company
 FLD  .                  : Field
 UWI  .                  : Unique Well Identifier (UWI)
 LOC  .                  : Location
 LATI .      0           : Latitude/Northing
 LONG .      0           : Longitude/Easting
 RWS  .      -999        : Def_Rw
 WST  .      -999        : Def_Rwt
 PROV .                  : Province
 SRVC .                  : Contractor
~CURVE INFORMATION
#MNEM                   UNIT       API CODE   Curve Type Comments
#----------       --------------- ----------  ---------- -----------
 DEPTH           .FT                        : Depth       
 AT10            .OHMM                      : ShalRes     1       Array Induction Two Foot Resistivity A10
 AT20            .OHMM                      : MedRes      2       Array Induction Two Foot Resistivity A20
 AT30            .OHMM                      : MedRes      3       Array Induction Two Foot Resistivity A30
 AT60            .OHMM                      : MedRes      4       Array Induction Two Foot Resistivity A60
 AT90            .OHMM                      : DeepRes     5       Array Induction Two Foot Resistivity A90
 CALI            .IN                        : Caliper     "copied from HCAL_1 in WIRE set"
 CORE_FLAG       .                          :             Created using text_insert
 COREPERM        .MD                        :             
 COREPOR         .V/V                       :             COREPOR/100
 CORERHOB        .G/C3                      :             ((CORERHOG*(1-(COREPOR)))+COREPOR)
 CORERHOB_2SMT   .                          :             Output log
 CORERHOB_3SMT   .                          :             Output log
 CORERHOG        .G/C3                      :             
 CORESO          .V/V                       :             CORESO/100
 CORESW          .V/V                       :             CORESW/100
 DEPTH           .FT                        : Depth       
 DEPTH_ORIG      .Ft                        :             
 DPAA_TOH_72H_1D .DEG                       :             
 DPAP_72H_1D     .DEG                       :             
 DRHO            .G/C3                      : Drho        "copied from DRHO_1 in WIRE set"
 EHGR            .GAPI                      :             HiRes Gamma-Ray
 FPRESS          .PSI                       :             Formation/hydrostatic pressure
 FTEMP           .DEGF                      :             burnside gradient
 GR              .GAPI                      : GammaRay    "copied from GR_1 in WIRE set"
 GR_CORE         .GAPI                      :             
 GR_SM           .GAPI                      : GammaRay    
 HAZI            .DEG                       : Azimuth     Hole Azimuth
 HCGR            .GAPI                      :             HNGS Computed Gamma Ray
 HSGR            .GAPI                      :             HNGS Standard Gamma Ray
 HTHO            .PPM                       :             HNGS Formation Thorium Concentration
 HURA            .PPM                       :             HNGS Formation Uranium Concentration
 MSFT_72H_ALL_R  .                          :             
 MSFT_72H_ALL_X  .                          :             
 PE              .B/E                       : PEF         "copied from PE_1 in WIRE set"
 PHID_SS         .dec                       : Phi         
 POTA            .%                         : Spectral    POTA*100
 RH72H_1D        .OHM.M                     :             
 RH72H_1D_FLT    .OHM.M                     :             
 RHO8            .G/C3                      : Density     HRDD High Resolution Formation Density
 RHOZ            .G/C3                      : Density     HRDD Standard Resolution Formation Density
 RV72H_1D        .OHM.M                     :             
 RV72H_1D_FLT    .OHM.M                     :             
 SDEV            .DEG                       :             Sonde Deviation
 TENS            .LBF                       : Tension     Cable Tension
 TNPH            .V/V                       : Neutron     Thermal Neutron Porosity
~A  DEPTH    AT10      AT20      AT30      AT60      AT90      CALI   CORE_FLA~  COREPERM  COREPOR   CORERHOB CORERHOB~ CORERHOB~  CORERHOG   CORESO    CORESW    DEPTH   DEPTH_OR~ DPAA_TOH~ DPAP_72H~    DRHO      EHGR     FPRESS    FTEMP       GR     GR_CORE    GR_SM      HAZI      HCGR      HSGR      HTHO      HURA   MSFT_72H~ MSFT_72H~     PE     PHID_SS     POTA    RH72H_1D RH72H_1D~    RHO8      RHOZ    RV72H_1D RV72H_1D~    SDEV      TENS      TNPH   
9400.0000    1.2023    0.9867    0.9182    0.8440    0.8291   12.7734 -999.0000 -999.0000 -999.0000 -999.0000 -999.0000 -999.0000 -999.0000 -999.0000 -999.0000 9400.0000 -999.0000 -999.0000 -999.0000    0.0054  132.5190 4282.6226  224.6040  105.3959 -999.0000 -999.0000    8.5147   79.8772  110.4339   15.4310    3.6576 -999.0000 -999.0000    3.5001    0.1841    1.7300 -999.0000 -999.0000    2.3324    2.3462 -999.0000 -999.0000   53.5293 4195.0000    0.4451 
9400.2500    1.1962    0.9748    0.9078    0.8346    0.8203   12.8279 -999.0000 -999.0000 -999.0000 -999.0000 -999.0000 -999.0000 -999.0000 -999.0000 -999.0000 9400.2500 -999.0000 -999.0000 -999.0000    0.0049  122.7694 4282.6968  224.6073  104.8831 -999.0000 -999.0000    8.5153   78.8998  111.2689   15.1099    3.9362 -999.0000 -999.0000    3.5509    0.1841    1.7350 -999.0000 -999.0000    2.3366    2.3463 -999.0000 -999.0000   53.5289 4158.5000    0.4513 
9400.5000    1.1901    0.9629    0.8974    0.8252    0.8115   12.8824 -999.0000 -999.0000 -999.0000 -999.0000 -999.0000 -999.0000 -999.0000 -999.0000 -999.0000 9400.5000 -999.0000 -999.0000 -999.0000    0.0044  120.2015 4282.7715  224.6105  104.3703 -999.0000 -999.0000    8.5160   77.9224  112.1039   14.7888    4.2148 -999.0000 -999.0000    3.6018    0.1839    1.7400 -999.0000 -999.0000    2.3408    2.3465 -999.0000 -999.0000   53.5285 4122.0000    0.4574 
9400.7500    1.1925    0.9642    0.8978    0.8266    0.8103   12.8388 -999.0000 -999.0000 -999.0000 -999.0000 -999.0000 -999.0000 -999.0000 -999.0000 -999.0000 9400.7500 -999.0000 -999.0000 -999.0000    0.0026  124.4358 4282.8457  224.6138  103.6368 -999.0000 -999.0000    8.5153   78.3097  111.4769   14.9196    4.1009 -999.0000 -999.0000    3.5770    0.1836    1.7350 -999.0000 -999.0000    2.3487    2.3471 -999.0000 -999.0000   53.5430 4130.0000    0.4622 
9401.0000    1.1948    0.9656    0.8981    0.8280    0.8091   12.7952 -999.0000 -999.0000 -999.0000 -999.0000 -999.0000 -999.0000 -999.0000 -999.0000 -999.0000 9401.0000 -999.0000 -999.0000 -999.0000    0.0008  124.9083 4282.9204  224.6170  102.9034 -999.0000 -999.0000    8.5146   78.6970  110.8498   15.0504    3.9870 -999.0000 -999.0000    3.5521    0.1832    1.7300 -999.0000 -999.0000    2.3565    2.3477 -999.0000 -999.0000   53.5576 4138.0000    0.4670 
9401.2500    1.2043    0.9797    0.9099    0.8372    0.8163   12.7843 -999.0000 -999.0000 -999.0000 -999.0000 -999.0000 -999.0000 -999.0000 -999.0000 -999.0000 9401.2500 -999.0000 -999.0000 -999.0000    0.0004  125.4288 4282.9946  224.6203  103.1787 -999.0000 -999.0000    8.5125   80.4999  110.7938   15.1440    3.7033 -999.0000 -999.0000    3.4820    0.1834    1.8150 -999.0000 -999.0000    2.3564    2.3474 -999.0000 -999.0000   53.5538 4128.0000    0.4610 
9401.5000    1.2138    0.9938    0.9217    0.8464    0.8235   12.7734 -999.0000 -999.0000 -999.0000 -999.0000 -999.0000 -999.0000 -999.0000 -999.0000 -999.0000 9401.5000 -999.0000 -999.0000 -999.0000    0.0001  127.2232 4283.0693  224.6235  103.4541 -999.0000 -999.0000    8.5104   82.3029  110.7377   15.2377    3.4197 -999.0000 -999.0000    3.4120    0.1836    1.9000 -999.0000 -999.0000    2.3562    2.3471 -999.0000 -999.0000   53.5501 4118.0000    0.4550 
9401.7500    1.2344    1.0129    0.9385    0.8592    0.8337   12.7043 -999.0000 -999.0000 -999.0000 -999.0000 -999.0000 -999.0000 -999.0000 -999.0000 -999.0000 9401.7500 -999.0000 -999.0000 -999.0000    0.0003  119.8629 4283.1436  224.6268  104.2973 -999.0000 -999.0000    8.5114   83.9184  110.5797   15.5729    3.2230 -999.0000 -999.0000    3.4392    0.1827    1.9300 -999.0000 -999.0000    2.3564    2.3486 -999.0000 -999.0000   53.5490 4122.0000    0.4288 
9402.0000    1.2549    1.0320    0.9553    0.8720    0.8439   12.6352 -999.0000 -999.0000 -999.0000 -999.0000 -999.0000 -999.0000 -999.0000 -999.0000 -999.0000 9402.0000 -999.0000 -999.0000 -999.0000    0.0005  123.2161 4283.2183  224.6300  105.1405 -999.0000 -999.0000    8.5124   85.5339  110.4217   15.9082    3.0264 -999.0000 -999.0000    3.4665    0.1818    1.9600 -999.0000 -999.0000    2.3566    2.3501 -999.0000 -999.0000   53.5480 4126.0000    0.4027 
9402.2500    1.2524    1.0376    0.9620    0.8763    0.8456   12.6279 -999.0000 -999.0000 -999.0000 -999.0000 -999.0000 -999.0000 -999.0000 -999.0000 -999.0000 9402.2500 -999.0000 -999.0000 -999.0000    0.0016  130.3521 4283.2925  224.6333  104.5524 -999.0000 -999.0000    8.5127   86.0492  110.0811   15.9785    2.9126 -999.0000 -999.0000    3.4658    0.1813    1.9750 -999.0000 -999.0000    2.3537    2.3508 -999.0000 -999.0000   53.5375 4111.0000    0.3920 
9402.5000    1.2500    1.0433    0.9688    0.8807    0.8473   12.6207 -999.0000 -999.0000 -999.0000 -999.0000 -999.0000 -999.0000 -999.0000 -999.0000 -999.0000 9402.5000 -999.0000 -999.0000 -999.0000    0.0028  132.6877 4283.3672  224.6365  103.9642 -999.0000 -999.0000    8.5131   86.5646  109.7405   16.0488    2.7989 -999.0000 -999.0000    3.4651    0.1809    1.9900 -999.0000 -999.0000    2.3508    2.3515 -999.0000 -999.0000   53.5269 4096.0000    0.3813 
9402.7500    1.2268    1.0252    0.9536    0.8669    0.8342   12.6806 -999.0000 -999.0000 -999.0000 -999.0000 -999.0000 -999.0000 -999.0000 -999.0000 -999.0000 9402.7500 -999.0000 -999.0000 -999.0000    0.0033  129.6558 4283.4414  224.6398  102.3673 -999.0000 -999.0000    8.5136   87.0421  110.3474   15.9571    2.8048 -999.0000 -999.0000    3.4892    0.1795    2.0350 -999.0000 -999.0000    2.3522    2.3539 -999.0000 -999.0000   53.5205 4100.0000    0.3849 
9403.0000    1.2035    1.0070    0.9384    0.8531    0.8210   12.7406 -999.0000 -999.0000 -999.0000 -999.0000 -999.0000 -999.0000 -999.0000 -999.0000 -999.0000 9403.0000 -999.0000 -999.0000 -999.0000    0.0038  122.8392 4283.5161  224.6430  100.7704 -999.0000 -999.0000    8.5142   87.5196  110.9542   15.8655    2.8106 -999.0000 -999.0000    3.5132    0.1780    2.0800 -999.0000 -999.0000    2.3537    2.3563 -999.0000 -999.0000   53.5141 4104.0000    0.3885 
9403.2500    1.1901    0.9912    0.9252    0.8455    0.8170   12.8060 -999.0000 -999.0000 -999.0000 -999.0000 -999.0000 -999.0000 -999.0000 -999.0000 -999.0000 9403.2500 -999.0000 -999.0000 -999.0000    0.0047  114.9324 4283.5908  224.6463   98.9533 -999.0000 -999.0000    8.5131   88.4229  111.1817   16.0668    2.7437 -999.0000 -999.0000    3.4527    0.1764    2.0950 -999.0000 -999.0000    2.3603    2.3590 -999.0000 -999.0000   53.5080 4114.0000    0.3935 
9403.5000    1.1767    0.9754    0.9121    0.8379    0.8131   12.8715 -999.0000 -999.0000 -999.0000 -999.0000 -999.0000 -999.0000 -999.0000 -999.0000 -999.0000 9403.5000 -999.0000 -999.0000 -999.0000    0.0056  110.5790 4283.6655  224.6495   97.1361 -999.0000 -999.0000    8.5120   89.3261  111.4092   16.2681    2.6769 -999.0000 -999.0000    3.3922    0.1747    2.1100 -999.0000 -999.0000    2.3668    2.3618 -999.0000 -999.0000   53.5020 4124.0000    0.3985 
9403.7500    1.1793    0.9675    0.9053    0.8352    0.8086   12.8769 -999.0000 -999.0000 -999.0000 -999.0000 -999.0000 -999.0000 -999.0000 -999.0000 -999.0000 9403.7500 -999.0000 -999.0000 -999.0000    0.0058  116.5220 4283.7397  224.6528   97.1191 -999.0000 -999.0000    8.5100   89.1260  111.1816   16.2296    2.7196 -999.0000 -999.0000    3.4358    0.1742    2.1050 -999.0000 -999.0000    2.3636    2.3626 -999.0000 -999.0000   53.4977 4086.0000    0.4017 
9404.0000    1.1818    0.9596    0.8986    0.8325    0.8042   12.8824 -999.0000 -999.0000 -999.0000 -999.0000 -999.0000 -999.0000 -999.0000 -999.0000 -999.0000 9404.0000 -999.0000 -999.0000 -999.0000    0.0059  118.2048 4283.8145  224.6560   97.1021 -999.0000 -999.0000    8.5081   88.9258  110.9540   16.1912    2.7623 -999.0000 -999.0000    3.4794    0.1737    2.1000 -999.0000 -999.0000    2.3603    2.3634 -999.0000 -999.0000   53.4934 4048.0000    0.4049 
9404.2500    1.1801    0.9632    0.9017    0.8345    0.8088   12.8660 -999.0000 -999.0000 -999.0000 -999.0000 -999.0000 -999.0000 -999.0000 -999.0000 -999.0000 9404.2500 -999.0000 -999.0000 -999.0000    0.0051  118.4918 4283.8887  224.6590   97.5820 -999.0000 -999.0000    8.5092   87.7560  109.1939   16.1186    2.6960 -999.0000 -999.0000    3.4611    0.1753    2.0500 -999.0000 -999.0000    2.3567    2.3607 -999.0000 -999.0000   53.5005 4096.0000    0.4072 
