~VERSION INFORMATION
 VERS.                 2.0:   CWLS LOG ASCII STANDARD - VERSION 2.0
 WRAP.                  NO:   SINGLE LINE PER DEPTH STEP
 CREA.                 9/20/2016 5:41:23 PM
#CREATED USING IP VERSION 4.3.2015.327 BY MAP5249 ON 9/20/2016 5:41:23 PM
~WELL INFORMATION
#MNEM.UNIT       DATA                          DESCRIPTION MNEMONIC
#---------      ---------------------------   --------------------------
 STRT    .FT        9400.0000                 : START DEPTH
 STOP    .FT        10400.0000                : STOP DEPTH
 STEP    .FT        0.2500                    : STEP VALUE
 NULL    .      -999.0000                     : NULL VALUE
 DATE    .      9/20/2016                     : LAS file Creation Date
 WELL .      Chevron2009 : Well Name
 COMP .                  : Company
 FLD  .                  : Field
 UWI  .                  : Unique Well Identifier (UWI)
 LOC  .                  : Location
 LATI .      0           : Latitude/Northing
 LONG .      0           : Longitude/Easting
 RWS  .      -999        : Def_Rw
 WST  .      -999        : Def_Rwt
 PROV .                  : Province
 SRVC .                  : Contractor
~CURVE INFORMATION
#MNEM                   UNIT       API CODE   Curve Type Comments
#----------       --------------- ----------  ---------- -----------
 DEPTH           .FT                        : Depth       
 AT10            .OHMM                      : ShalRes     1       Array Induction Two Foot Resistivity A10
 AT20            .OHMM                      : MedRes      2       Array Induction Two Foot Resistivity A20
 AT30            .OHMM                      : MedRes      3       Array Induction Two Foot Resistivity A30
 AT60            .OHMM                      : MedRes      4       Array Induction Two Foot Resistivity A60
 AT90            .OHMM                      : DeepRes     5       Array Induction Two Foot Resistivity A90
 CALI            .IN                        : Caliper     "copied from HCAL_1 in WIRE set"
 CORE_FLAG       .                          :             Created using text_insert
 COREPERM        .MD                        :             
 COREPOR         .V/V                       :             COREPOR/100
 CORERHOB        .G/C3                      :             ((CORERHOG*(1-(COREPOR)))+COREPOR)
 CORERHOB_2SMT   .                          :             Output log
 CORERHOB_3SMT   .                          :             Output log
 CORERHOG        .G/C3                      :             
 CORESO          .V/V                       :             CORESO/100
 CORESW          .V/V                       :             CORESW/100
 DEPTH           .FT                        : Depth       
 DEPTH_ORIG      .Ft                        :             
 DPAA_TOH_72H_1D .DEG                       :             
 DPAP_72H_1D     .DEG                       :             
 DRHO            .G/C3                      : Drho        "copied from DRHO_1 in WIRE set"
 EHGR            .GAPI                      :             HiRes Gamma-Ray
 FPRESS          .PSI                       :             Formation/hydrostatic pressure
 FTEMP           .DEGF                      :             burnside gradient
 GR              .GAPI                      : GammaRay    "copied from GR_1 in WIRE set"
 GR_CORE         .GAPI                      :             
 GR_SM           .GAPI                      : GammaRay    
 HAZI            .DEG                       : Azimuth     Hole Azimuth
 HCGR            .GAPI                      :             HNGS Computed Gamma Ray
 HSGR            .GAPI                      :             HNGS Standard Gamma Ray
 HTHO            .PPM                       :             HNGS Formation Thorium Concentration
 HURA            .PPM                       :             HNGS Formation Uranium Concentration
 MSFT_72H_ALL_R  .                          :             
 MSFT_72H_ALL_X  .                          :             
 PE              .B/E                       : PEF         "copied from PE_1 in WIRE set"
 PHID_SS         .dec                       : Phi         
 POTA            .%                         : Spectral    POTA*100
 RH72H_1D        .OHM.M                     :             
 RH72H_1D_FLT    .OHM.M                     :             
 RHO8            .G/C3                      : Density     HRDD High Resolution Formation Density
 RHOZ            .G/C3                      : Density     HRDD Standard Resolution Formation Density
 RV72H_1D        .OHM.M                     :             
 RV72H_1D_FLT    .OHM.M                     :             
 SDEV            .DEG                       :             Sonde Deviation
 TENS            .LBF                       : Tension     Cable Tension
 TNPH            .V/V                       : Neutron     Thermal Neutron Porosity
~A  DEPTH    AT10      AT20      AT30      AT60      AT90      CALI   CORE_FLA~  COREPERM  COREPOR   CORERHOB CORERHOB~ CORERHOB~  CORERHOG   CORESO    CORESW    DEPTH   DEPTH_OR~ DPAA_TOH~ DPAP_72H~    DRHO      EHGR     FPRESS    FTEMP       GR     GR_CORE    GR_SM      HAZI      HCGR      HSGR      HTHO      HURA   MSFT_72H~ MSFT_72H~     PE     PHID_SS     POTA    RH72H_1D RH72H_1D~    RHO8      RHOZ    RV72H_1D RV72H_1D~    SDEV      TENS      TNPH   
# ...
10327.0000    1.0261    0.8907    0.8760    0.8295    0.8251   13.0133 -999.0000 -999.0000 -999.0000 -999.0000 -999.0000 -999.0000 -999.0000 -999.0000 -999.0000 10327.0000 -999.0000 -999.0000 -999.0000    0.0154  107.0639 4576.3955  237.3280   89.7635 -999.0000 -999.0000    8.4902   82.6037  103.8820   16.9845    2.6997 -999.0000 -999.0000    4.3237    0.1632    1.6200 -999.0000 -999.0000    2.3772    2.3808 -999.0000 -999.0000   47.3207 4750.0000    0.4732 
10327.2500    1.0120    0.8690    0.8534    0.8113    0.8096   13.0133 -999.0000 -999.0000 -999.0000 -999.0000 -999.0000 -999.0000 -999.0000 -999.0000 -999.0000 10327.2500 -999.0000 -999.0000 -999.0000    0.0178  108.5178 4576.4805  237.3318   92.1419 -999.0000 -999.0000    8.4941   83.7857  104.7439   17.2099    2.6391 -999.0000 -999.0000    4.1733    0.1613    1.6450 -999.0000 -999.0000    2.3787    2.3839 -999.0000 -999.0000   47.3236 4769.0000    0.5005 
10327.5000    0.9979    0.8473    0.8309    0.7931    0.7941   13.0133 -999.0000 -999.0000 -999.0000 -999.0000 -999.0000 -999.0000 -999.0000 -999.0000 -999.0000 10327.5000 -999.0000 -999.0000 -999.0000    0.0202  112.9671 4576.5654  237.3355   94.5203 -999.0000 -999.0000    8.4980   84.9678  105.6059   17.4354    2.5786 -999.0000 -999.0000    4.0228    0.1595    1.6700 -999.0000 -999.0000    2.3803    2.3869 -999.0000 -999.0000   47.3265 4788.0000    0.5278 
10327.7500    0.9767    0.8346    0.8164    0.7811    0.7872   12.9751 -999.0000 -999.0000 -999.0000 -999.0000 -999.0000 -999.0000 -999.0000 -999.0000 -999.0000 10327.7500 -999.0000 -999.0000 -999.0000    0.0211  123.6104 4576.6499  237.3392   95.5228 -999.0000 -999.0000    8.5003   86.8241  108.1992   17.7751    2.6917 -999.0000 -999.0000    3.9631    0.1608    1.7150 -999.0000 -999.0000    2.3885    2.3846 -999.0000 -999.0000   47.3250 4769.0000    0.5211 
10328.0000    0.9554    0.8220    0.8019    0.7691    0.7802   12.9369 -999.0000 -999.0000 -999.0000 -999.0000 -999.0000 -999.0000 -999.0000 -999.0000 -999.0000 10328.0000 -999.0000 -999.0000 -999.0000    0.0220  123.9210 4576.7349  237.3430   96.5253 -999.0000 -999.0000    8.5026   88.6805  110.7924   18.1147    2.8047 -999.0000 -999.0000    3.9034    0.1622    1.7600 -999.0000 -999.0000    2.3967    2.3823 -999.0000 -999.0000   47.3234 4750.0000    0.5144 
10328.2500    0.9354    0.8075    0.7870    0.7536    0.7658   12.8988 -999.0000 -999.0000 -999.0000 -999.0000 -999.0000 -999.0000 -999.0000 -999.0000 -999.0000 10328.2500 -999.0000 -999.0000 -999.0000    0.0193  116.0936 4576.8198  237.3465   97.3213 -999.0000 -999.0000    8.5066   87.4605  110.2851   18.0076    2.9921 -999.0000 -999.0000    3.9009    0.1675    1.7100 -999.0000 -999.0000    2.3773    2.3737 -999.0000 -999.0000   47.3268 4764.0000    0.5315 
10328.5000    0.9155    0.7931    0.7721    0.7382    0.7514   12.8606 -999.0000 -999.0000 -999.0000 -999.0000 -999.0000 -999.0000 -999.0000 -999.0000 -999.0000 10328.5000 -999.0000 -999.0000 -999.0000    0.0166  112.2717 4576.9048  237.3500   98.1173 -999.0000 -999.0000    8.5106   86.2405  109.7778   17.9004    3.1794 -999.0000 -999.0000    3.8985    0.1727    1.6600 -999.0000 -999.0000    2.3580    2.3651 -999.0000 -999.0000   47.3302 4778.0000    0.5487 
10328.7500    0.9023    0.7903    0.7686    0.7351    0.7469   12.8225 -999.0000 -999.0000 -999.0000 -999.0000 -999.0000 -999.0000 -999.0000 -999.0000 -999.0000 10328.7500 -999.0000 -999.0000 -999.0000    0.0154  113.9043 4576.9893  237.3535   96.1795 -999.0000 -999.0000    8.5064   86.0555  109.1149   17.9183    3.1192 -999.0000 -999.0000    3.9243    0.1758    1.6450 -999.0000 -999.0000    2.3507    2.3599 -999.0000 -999.0000   47.3202 4817.0000    0.5470 
10329.0000    0.8891    0.7875    0.7651    0.7320    0.7423   12.7843 -999.0000 -999.0000 -999.0000 -999.0000 -999.0000 -999.0000 -999.0000 -999.0000 -999.0000 10329.0000 -999.0000 -999.0000 -999.0000    0.0141  117.8358 4577.0742  237.3570   94.2416 -999.0000 -999.0000    8.5021   85.8704  108.4520   17.9363    3.0591 -999.0000 -999.0000    3.9501    0.1790    1.6300 -999.0000 -999.0000    2.3434    2.3547 -999.0000 -999.0000   47.3101 4856.0000    0.5453 
10329.2500    0.8773    0.7827    0.7563    0.7231    0.7335   12.7570 -999.0000 -999.0000 -999.0000 -999.0000 -999.0000 -999.0000 -999.0000 -999.0000 -999.0000 10329.2500 -999.0000 -999.0000 -999.0000    0.0152  112.5791 4577.1592  237.3607   92.8641 -999.0000 -999.0000    8.5033   86.1245  107.9997   18.0279    2.9302 -999.0000 -999.0000    3.9762    0.1787    1.6300 -999.0000 -999.0000    2.3506    2.3551 -999.0000 -999.0000   47.3108 4805.5000    0.5368 
10329.5000    0.8655    0.7779    0.7475    0.7141    0.7246   12.7297 -999.0000 -999.0000 -999.0000 -999.0000 -999.0000 -999.0000 -999.0000 -999.0000 -999.0000 10329.5000 -999.0000 -999.0000 -999.0000    0.0162  109.1265 4577.2441  237.3645   91.4866 -999.0000 -999.0000    8.5046   86.3787  107.5473   18.1195    2.8012 -999.0000 -999.0000    4.0024    0.1784    1.6300 -999.0000 -999.0000    2.3579    2.3556 -999.0000 -999.0000   47.3116 4755.0000    0.5283 
10329.7500    0.8565    0.7772    0.7480    0.7172    0.7287   12.7134 -999.0000 -999.0000 -999.0000 -999.0000 -999.0000 -999.0000 -999.0000 -999.0000 -999.0000 10329.7500 -999.0000 -999.0000 -999.0000    0.0172  107.5042 4577.3286  237.3682   92.5705 -999.0000 -999.0000    8.5072   86.6378  107.7577   18.3387    2.8340 -999.0000 -999.0000    3.9592    0.1787    1.6050 -999.0000 -999.0000    2.3562    2.3552 -999.0000 -999.0000   47.3039 4794.5000    0.5183 
10330.0000    0.8475    0.7766    0.7485    0.7202    0.7328   12.6970 -999.0000 -999.0000 -999.0000 -999.0000 -999.0000 -999.0000 -999.0000 -999.0000 -999.0000 10330.0000 -999.0000 -999.0000 -999.0000    0.0182  102.8013 4577.4136  237.3720   93.6545 -999.0000 -999.0000    8.5099   86.8969  107.9680   18.5579    2.8668 -999.0000 -999.0000    3.9160    0.1789    1.5800 -999.0000 -999.0000    2.3544    2.3548 -999.0000 -999.0000   47.2962 4834.0000    0.5084 
10330.2500    0.8352    0.7630    0.7326    0.7035    0.7118   12.6988 -999.0000 -999.0000 -999.0000 -999.0000 -999.0000 -999.0000 -999.0000 -999.0000 -999.0000 10330.2500 -999.0000 -999.0000 -999.0000    0.0174  115.6233 4577.4985  237.3757   95.4166 -999.0000 -999.0000    8.5092   85.5173  107.2499   18.2244    2.8992 -999.0000 -999.0000    3.8630    0.1824    1.5650 -999.0000 -999.0000    2.3515    2.3490 -999.0000 -999.0000   47.2950 4851.5000    0.4875 
10330.5000    0.8228    0.7495    0.7167    0.6867    0.6907   12.7007 -999.0000 -999.0000 -999.0000 -999.0000 -999.0000 -999.0000 -999.0000 -999.0000 -999.0000 10330.5000 -999.0000 -999.0000 -999.0000    0.0166  125.5526 4577.5835  237.3795   97.1787 -999.0000 -999.0000    8.5084   84.1376  106.5318   17.8908    2.9317 -999.0000 -999.0000    3.8099    0.1859    1.5500 -999.0000 -999.0000    2.3485    2.3432 -999.0000 -999.0000   47.2937 4869.0000    0.4666 
10330.7500    0.8073    0.7319    0.7007    0.6752    0.6747   12.6934 -999.0000 -999.0000 -999.0000 -999.0000 -999.0000 -999.0000 -999.0000 -999.0000 -999.0000 10330.7500 -999.0000 -999.0000 -999.0000    0.0161  121.1115 4577.6685  237.3832   99.8627 -999.0000 -999.0000    8.5058   84.1476  106.1787   17.8668    2.8559 -999.0000 -999.0000    3.7949    0.1901    1.5550 -999.0000 -999.0000    2.3384    2.3363 -999.0000 -999.0000   47.2947 4838.5000    0.4709 
10331.0000    0.7918    0.7144    0.6847    0.6637    0.6586   12.6861 -999.0000 -999.0000 -999.0000 -999.0000 -999.0000 -999.0000 -999.0000 -999.0000 -999.0000 10331.0000 -999.0000 -999.0000 -999.0000    0.0157  122.2274 4577.7534  237.3870  102.5467 -999.0000 -999.0000    8.5031   84.1575  105.8257   17.8428    2.7800 -999.0000 -999.0000    3.7799    0.1943    1.5600 -999.0000 -999.0000    2.3284    2.3294 -999.0000 -999.0000   47.2957 4808.0000    0.4752 
10331.2500    0.7810    0.6982    0.6714    0.6475    0.6457   12.7152 -999.0000 -999.0000 -999.0000 -999.0000 -999.0000 -999.0000 -999.0000 -999.0000 -999.0000 10331.2500 -999.0000 -999.0000 -999.0000    0.0162  118.3852 4577.8384  237.3905  100.5266 -999.0000 -999.0000    8.5065   83.6124  105.4954   17.7617    2.8230 -999.0000 -999.0000    3.7516    0.1956    1.5400 -999.0000 -999.0000    2.3271    2.3272 -999.0000 -999.0000   47.2969 4848.0000    0.4548 
