~VERSION INFORMATION
 VERS.                 2.0:   CWLS LOG ASCII STANDARD - VERSION 2.0
 WRAP.                  NO:   SINGLE LINE PER DEPTH STEP
 CREA.                 9/20/2016 5:41:23 PM
#CREATED USING IP VERSION 4.3.2015.327 BY MAP5249 ON 9/20/2016 5:41:23 PM
~WELL INFORMATION
#MNEM.UNIT       DATA                          DESCRIPTION MNEMONIC
#---------      ---------------------------   --------------------------
 STRT    .FT        9400.0000                 : START DEPTH
 STOP    .FT        10400.0000                : STOP DEPTH
 STEP    .FT        0.2500                    : STEP VALUE
 NULL    .      -999.0000                     : NULL VALUE
 DATE    .      9/20/2016                     : LAS file Creation Date
 WELL .      Chevron2009 : Well Name
 COMP .                  : Company
 FLD  .                  : Field
 UWI  .                  : Unique Well Identifier (UWI)
 LOC  .                  : Location
 LATI .      0           : Latitude/Northing
 LONG .      0           : Longitude/Easting
 RWS  .      -999        : Def_Rw
 WST  .      -999        : Def_Rwt
 PROV .                  : Province
 SRVC .                  : Contractor
~CURVE INFORMATION
#MNEM                   UNIT       API CODE   Curve Type Comments
#----------       --------------- ----------  ---------- -----------
 DEPTH           .FT                        : Depth       
 AT10            .OHMM                      : ShalRes     1       Array Induction Two Foot Resistivity A10
 AT20            .OHMM                      : MedRes      2       Array Induction Two Foot Resistivity A20
 AT30            .OHMM                      : MedRes      3       Array Induction Two Foot Resistivity A30
 AT60            .OHMM                      : MedRes      4       Array Induction Two Foot Resistivity A60
 AT90            .OHMM                      : DeepRes     5       Array Induction Two Foot Resistivity A90
 CALI            .IN                        : Caliper     "copied from HCAL_1 in WIRE set"
 CORE_FLAG       .                          :             Created using text_insert
 COREPERM        .MD                        :             
 COREPOR         .V/V                       :             COREPOR/100
 CORERHOB        .G/C3                      :             ((CORERHOG*(1-(COREPOR)))+COREPOR)
 CORERHOB_2SMT   .                          :             Output log
 CORERHOB_3SMT   .                          :             Output log
 CORERHOG        .G/C3                      :             
 CORESO          .V/V                       :             CORESO/100
 CORESW          .V/V                       :             CORESW/100
 DEPTH           .FT                        : Depth       
 DEPTH_ORIG      .Ft                        :             
 DPAA_TOH_72H_1D .DEG                       :             
 DPAP_72H_1D     .DEG                       :             
 DRHO            .G/C3                      : Drho        "copied from DRHO_1 in WIRE set"
 EHGR            .GAPI                      :             HiRes Gamma-Ray
 FPRESS          .PSI                       :             Formation/hydrostatic pressure
 FTEMP           .DEGF                      :             burnside gradient
 GR              .GAPI                      : GammaRay    "copied from GR_1 in WIRE set"
 GR_CORE         .GAPI                      :             
 GR_SM           .GAPI                      : GammaRay    
 HAZI            .DEG                       : Azimuth     Hole Azimuth
 HCGR            .GAPI                      :             HNGS Computed Gamma Ray
 HSGR            .GAPI                      :             HNGS Standard Gamma Ray
 HTHO            .PPM                       :             HNGS Formation Thorium Concentration
 HURA            .PPM                       :             HNGS Formation Uranium Concentration
 MSFT_72H_ALL_R  .                          :             
 MSFT_72H_ALL_X  .                          :             
 PE              .B/E                       : PEF         "copied from PE_1 in WIRE set"
 PHID_SS         .dec                       : Phi         
 POTA            .%                         : Spectral    POTA*100
 RH72H_1D        .OHM.M                     :             
 RH72H_1D_FLT    .OHM.M                     :             
 RHO8            .G/C3                      : Density     HRDD High Resolution Formation Density
 RHOZ            .G/C3                      : Density     HRDD Standard Resolution Formation Density
 RV72H_1D        .OHM.M                     :             
 RV72H_1D_FLT    .OHM.M                     :             
 SDEV            .DEG                       :             Sonde Deviation
 TENS            .LBF                       : Tension     Cable Tension
 TNPH            .V/V                       : Neutron     Thermal Neutron Porosity
~A  DEPTH    AT10      AT20      AT30      AT60      AT90      CALI   CORE_FLA~  COREPERM  COREPOR   CORERHOB CORERHOB~ CORERHOB~  CORERHOG   CORESO    CORESW    DEPTH   DEPTH_OR~ DPAA_TOH~ DPAP_72H~    DRHO      EHGR     FPRESS    FTEMP       GR     GR_CORE    GR_SM      HAZI      HCGR      HSGR      HTHO      HURA   MSFT_72H~ MSFT_72H~     PE     PHID_SS     POTA    RH72H_1D RH72H_1D~    RHO8      RHOZ    RV72H_1D RV72H_1D~    SDEV      TENS      TNPH   
# ...
9733.0000    2.5970    1.9505    1.8982    1.7160    1.6748   12.4244 -999.0000 -999.0000 -999.0000 -999.0000 -999.0000 -999.0000 -999.0000 -999.0000 -999.0000 9733.0000 -999.0000    0.0000   54.2324    0.0041   88.2637 4383.9478  228.9930   76.1352 -999.0000 -999.0000    9.0335   81.7078   94.5482   16.7598    1.7453    0.0188    0.0174    4.0024    0.3061    1.6100    1.5045    1.4199    2.1957    2.1450    5.2397    5.0316   51.6148 4482.0000    0.3343 
9733.2500    2.6046    2.0091    1.9153    1.7213    1.6807   12.4062 -999.0000 -999.0000 -999.0000 -999.0000 -999.0000 -999.0000 -999.0000 -999.0000 -999.0000 9733.2500 -999.0000    0.0000   54.2324    0.0037   90.7316 4384.0254  228.9962   77.6236 -999.0000 -999.0000    9.0351   79.4993   93.0900   16.4377    1.7942    0.0191    0.0174    4.0672    0.3158    1.5450    1.5045    1.4470    2.1524    2.1289    5.2397    5.1049   51.6123 4417.5000    0.3457 
9733.5000    2.6122    2.0677    1.9325    1.7266    1.6865   12.3880 -999.0000 -999.0000 -999.0000 -999.0000 -999.0000 -999.0000 -999.0000 -999.0000 -999.0000 9733.5000 -999.0000    0.0000   54.2324    0.0033   95.7952 4384.1035  228.9995   79.1120 -999.0000 -999.0000    9.0367   77.2907   91.6317   16.1156    1.8430    0.0195    0.0173    4.1321    0.3256    1.4800    1.5045    1.4686    2.1091    2.1128    5.2397    5.1726   51.6098 4353.0000    0.3572 
9733.7500    2.4907    2.0232    1.9030    1.6965    1.6602   12.2753 -999.0000 -999.0000 -999.0000 -999.0000 -999.0000 -999.0000 -999.0000 -999.0000 -999.0000 9733.7500 -999.0000    0.0000   54.2324    0.0046   96.3212 4384.1812  229.0027   80.7043 -999.0000 -999.0000    9.0316   77.9928   92.1526   16.4589    1.8414    0.0194    0.0173    3.9604    0.3275    1.4600    1.5045    1.4831    2.0791    2.1096    5.2397    5.2414   51.6004 4413.0000    0.3701 
9734.0000    2.3692    1.9788    1.8736    1.6664    1.6339   12.1627 -999.0000 -999.0000 -999.0000 -999.0000 -999.0000 -999.0000 -999.0000 -999.0000 -999.0000 9734.0000 -999.0000    0.0000   54.2324    0.0059   97.6448 4384.2588  229.0060   82.2966 -999.0000 -999.0000    9.0264   78.6949   92.6735   16.8023    1.8398    0.0192    0.0172    3.7886    0.3295    1.4400    1.5045    1.4904    2.0492    2.1064    5.2397    5.3280   51.5911 4473.0000    0.3831 
9734.2500    2.2160    1.8918    1.8050    1.6184    1.5872   12.2172 -999.0000 -999.0000 -999.0000 -999.0000 -999.0000 -999.0000 -999.0000 -999.0000 -999.0000 9734.2500 -999.0000    0.0000   54.2324    0.0100   97.2571 4384.3364  229.0095   83.1866 -999.0000 -999.0000    9.0247   76.6036   91.3115   16.3049    1.9055    0.0193    0.0172    3.8248    0.3152    1.4100    1.5045    1.4912    2.0912    2.1300    5.2397    5.4582   51.5801 4488.5000    0.3871 
9734.5000    2.0628    1.8048    1.7364    1.5704    1.5404   12.2717 -999.0000 -999.0000 -999.0000 -999.0000 -999.0000 -999.0000 -999.0000 -999.0000 -999.0000 9734.5000 -999.0000    0.0000   54.2324    0.0141   99.4757 4384.4146  229.0130   84.0766 -999.0000 -999.0000    9.0230   74.5123   89.9494   15.8075    1.9712    0.0195    0.0172    3.8610    0.3009    1.3800    1.5045    1.4865    2.1333    2.1535    5.2397    5.6623   51.5690 4504.0000    0.3911 
9734.7500    2.0099    1.8141    1.7415    1.5732    1.5399   12.3444 -999.0000 -999.0000 -999.0000 -999.0000 -999.0000 -999.0000 -999.0000 -999.0000 -999.0000 9734.7500 -999.0000    0.0000   54.2324    0.0156  101.7730 4384.4922  229.0165   83.6528 -999.0000 -999.0000    9.0245   74.2646   91.3167   15.7286    2.1695    0.0202    0.0171    4.0600    0.2858    1.3800    1.5045    1.4771    2.1823    2.1785    5.2397    5.9701   51.5747 4460.0000    0.3922 
9735.0000    1.9569    1.8233    1.7465    1.5760    1.5395   12.4171 -999.0000 -999.0000 -999.0000 -999.0000 -999.0000 -999.0000 -999.0000 -999.0000 -999.0000 9735.0000 -999.0000    0.0000   54.2324    0.0170  102.7232 4384.5703  229.0200   83.2290 -999.0000 -999.0000    9.0260   74.0169   92.6840   15.6497    2.3677    0.0209    0.0170    4.2590    0.2706    1.3800    1.5045    1.4644    2.2313    2.2035    5.2397    6.4019   51.5804 4416.0000    0.3933 
9735.2500    2.0975    1.8964    1.8024    1.6342    1.5924   12.4807 -999.0000 -999.0000 -999.0000 -999.0000 -999.0000 -999.0000 -999.0000 -999.0000 -999.0000 9735.2500 -999.0000    0.0000   54.2324    0.0157   98.6681 4384.6479  229.0233   83.4412 -999.0000 -999.0000    9.0250   72.1055   92.1348   15.3644    2.5203    0.0214    0.0173    4.2652    0.2633    1.3200    1.4517    1.4500    2.2387    2.2155    7.5942    6.9580   51.5827 4431.5000    0.3941 
9735.5000    2.2380    1.9696    1.8584    1.6924    1.6452   12.5443 -999.0000 -999.0000 -999.0000 -999.0000 -999.0000 -999.0000 -999.0000 -999.0000 -999.0000 9735.5000 -999.0000    0.0000   54.2324    0.0144   94.8169 4384.7261  229.0265   83.6535 -999.0000 -999.0000    9.0240   70.1940   91.5857   15.0791    2.6729    0.0218    0.0176    4.2714    0.2561    1.2600    1.3989    1.4359    2.2462    2.2275    9.9487    7.6047   51.5850 4447.0000    0.3949 
9735.7500    2.3703    2.0022    1.9058    1.7303    1.6711   12.5334 -999.0000 -999.0000 -999.0000 -999.0000 -999.0000 -999.0000 -999.0000 -999.0000 -999.0000 9735.7500 -999.0000    0.0000   54.2324    0.0114   99.3289 4384.8037  229.0298   80.5977 -999.0000 -999.0000    9.0246   70.3965   92.0934   15.2641    2.6784    0.0219    0.0179    4.0165    0.2573    1.2400    1.3989    1.4237    2.2171    2.2254    9.9487    8.2699   51.5723 4469.5000    0.4065 
9736.0000    2.5025    2.0348    1.9531    1.7682    1.6970   12.5225 -999.0000 -999.0000 -999.0000 -999.0000 -999.0000 -999.0000 -999.0000 -999.0000 -999.0000 9736.0000 -999.0000    0.0000   54.2324    0.0083  101.7026 4384.8813  229.0330   77.5418 -999.0000 -999.0000    9.0253   70.5991   92.6011   15.4491    2.6838    0.0219    0.0182    3.7616    0.2585    1.2200    1.3989    1.4149    2.1879    2.2234    9.9487    8.8587   51.5597 4492.0000    0.4182 
9736.2500    2.6019    2.0836    2.0156    1.8271    1.7434   12.4517 -999.0000 -999.0000 -999.0000 -999.0000 -999.0000 -999.0000 -999.0000 -999.0000 -999.0000 9736.2500 -999.0000    0.0000   54.2324    0.0067   96.1842 4384.9590  229.0363   77.5969 -999.0000 -999.0000    9.0262   69.2422   92.1307   14.9797    2.8397    0.0216    0.0186    3.8033    0.2624    1.2300    1.3989    1.4100    2.2084    2.2170    9.9487    9.2902   51.5696 4488.0000    0.4208 
9736.5000    2.7013    2.1323    2.0780    1.8861    1.7898   12.3808 -999.0000 -999.0000 -999.0000 -999.0000 -999.0000 -999.0000 -999.0000 -999.0000 -999.0000 9736.5000 -999.0000    0.0000   54.2324    0.0051   80.5324 4385.0371  229.0395   77.6520 -999.0000 -999.0000    9.0271   67.8854   91.6603   14.5103    2.9957    0.0213    0.0189    3.8450    0.2663    1.2400    1.3989    1.4097    2.2289    2.2106    9.9487    9.5268   51.5795 4484.0000    0.4234 
9736.7500    2.8230    2.1658    2.1439    1.9558    1.8187   12.3808 -999.0000 -999.0000 -999.0000 -999.0000 -999.0000 -999.0000 -999.0000 -999.0000 -999.0000 9736.7500 -999.0000    0.0000   54.2324    0.0040   84.8539 4385.1147  229.0428   75.2166 -999.0000 -999.0000    9.0216   67.1780   90.4195   14.4140    2.9280    0.0207    0.0194    3.9239    0.2735    1.2150    1.3989    1.4143    2.2194    2.1988    9.9487    9.5741   51.5829 4440.0000    0.4192 
9737.0000    2.9447    2.1993    2.2099    2.0256    1.8476   12.3808 -999.0000 -999.0000 -999.0000 -999.0000 -999.0000 -999.0000 -999.0000 -999.0000 -999.0000 9737.0000 -999.0000    0.0000   54.2324    0.0029   95.4790 4385.1924  229.0460   72.7811 -999.0000 -999.0000    9.0161   66.4706   89.1787   14.3176    2.8604    0.0202    0.0198    4.0028    0.2807    1.1900    1.3989    1.4245    2.2100    2.1869    9.9487    9.4612   51.5864 4396.0000    0.4150 
9737.2500    2.9801    2.1874    2.1825    2.0240    1.8834   12.3699 -999.0000 -999.0000 -999.0000 -999.0000 -999.0000 -999.0000 -999.0000 -999.0000 -999.0000 9737.2500 -999.0000    0.0000   54.2324    0.0024   89.6940 4385.2700  229.0495   74.3401 -999.0000 -999.0000    9.0091   64.4949   86.7370   13.6873    2.7847    0.0205    0.0206    3.9696    0.2880    1.1900    1.3989    1.4404    2.1806    2.1748    9.9487    9.2262   51.5782 4409.0000    0.4097 
