~VERSION INFORMATION
 VERS.                 2.0:   CWLS LOG ASCII STANDARD - VERSION 2.0
 WRAP.                  NO:   SINGLE LINE PER DEPTH STEP
 CREA.                 9/20/2016 5:41:23 PM
#CREATED USING IP VERSION 4.3.2015.327 BY MAP5249 ON 9/20/2016 5:41:23 PM
~WELL INFORMATION
#MNEM.UNIT       DATA                          DESCRIPTION MNEMONIC
#---------      ---------------------------   --------------------------
 STRT    .FT        9400.0000                 : START DEPTH
 STOP    .FT        10400.0000                : STOP DEPTH
 STEP    .FT        0.2500                    : STEP VALUE
 NULL    .      -999.0000                     : NULL VALUE
 DATE    .      9/20/2016                     : LAS file Creation Date
 WELL .      Chevron2009 : Well Name
 COMP .                  : Company
 FLD  .                  : Field
 UWI  .                  : Unique Well Identifier (UWI)
 LOC  .                  : Location
 LATI .      0           : Latitude/Northing
 LONG .      0           : Longitude/Easting
 RWS  .      -999        : Def_Rw
 WST  .      -999        : Def_Rwt
 PROV .                  : Province
 SRVC .                  : Contractor
~CURVE INFORMATION
#MNEM                   UNIT       API CODE   Curve Type Comments
#----------       --------------- ----------  ---------- -----------
 DEPTH           .FT                        : Depth       
 AT10            .OHMM                      : ShalRes     1       Array Induction Two Foot Resistivity A10
 AT20            .OHMM                      : MedRes      2       Array Induction Two Foot Resistivity A20
 AT30            .OHMM                      : MedRes      3       Array Induction Two Foot Resistivity A30
 AT60            .OHMM                      : MedRes      4       Array Induction Two Foot Resistivity A60
 AT90            .OHMM                      : DeepRes     5       Array Induction Two Foot Resistivity A90
 CALI            .IN                        : Caliper     "copied from HCAL_1 in WIRE set"
 CORE_FLAG       .                          :             Created using text_insert
 COREPERM        .MD                        :             
 COREPOR         .V/V                       :             COREPOR/100
 CORERHOB        .G/C3                      :             ((CORERHOG*(1-(COREPOR)))+COREPOR)
 CORERHOB_2SMT   .                          :             Output log
 CORERHOB_3SMT   .                          :             Output log
 CORERHOG        .G/C3                      :             
 CORESO          .V/V                       :             CORESO/100
 CORESW          .V/V                       :             CORESW/100
 DEPTH           .FT                        : Depth       
 DEPTH_ORIG      .Ft                        :             
 DPAA_TOH_72H_1D .DEG                       :             
 DPAP_72H_1D     .DEG                       :             
 DRHO            .G/C3                      : Drho        "copied from DRHO_1 in WIRE set"
 EHGR            .GAPI                      :             HiRes Gamma-Ray
 FPRESS          .PSI                       :             Formation/hydrostatic pressure
 FTEMP           .DEGF                      :             burnside gradient
 GR              .GAPI                      : GammaRay    "copied from GR_1 in WIRE set"
 GR_CORE         .GAPI                      :             
 GR_SM           .GAPI                      : GammaRay    
 HAZI            .DEG                       : Azimuth     Hole Azimuth
 HCGR            .GAPI                      :             HNGS Computed Gamma Ray
 HSGR            .GAPI                      :             HNGS Standard Gamma Ray
 HTHO            .PPM                       :             HNGS Formation Thorium Concentration
 HURA            .PPM                       :             HNGS Formation Uranium Concentration
 MSFT_72H_ALL_R  .                          :             
 MSFT_72H_ALL_X  .                          :             
 PE              .B/E                       : PEF         "copied from PE_1 in WIRE set"
 PHID_SS         .dec                       : Phi         
 POTA            .%                         : Spectral    POTA*100
 RH72H_1D        .OHM.M                     :             
 RH72H_1D_FLT    .OHM.M                     :             
 RHO8            .G/C3                      : Density     HRDD High Resolution Formation Density
 RHOZ            .G/C3                      : Density     HRDD Standard Resolution Formation Density
 RV72H_1D        .OHM.M                     :             
 RV72H_1D_FLT    .OHM.M                     :             
 SDEV            .DEG                       :             Sonde Deviation
 TENS            .LBF                       : Tension     Cable Tension
 TNPH            .V/V                       : Neutron     Thermal Neutron Porosity
~A  DEPTH    AT10      AT20      AT30      AT60      AT90      CALI   CORE_FLA~  COREPERM  COREPOR   CORERHOB CORERHOB~ CORERHOB~  CORERHOG   CORESO    CORESW    DEPTH   DEPTH_OR~ DPAA_TOH~ DPAP_72H~    DRHO      EHGR     FPRESS    FTEMP       GR     GR_CORE    GR_SM      HAZI      HCGR      HSGR      HTHO      HURA   MSFT_72H~ MSFT_72H~     PE     PHID_SS     POTA    RH72H_1D RH72H_1D~    RHO8      RHOZ    RV72H_1D RV72H_1D~    SDEV      TENS      TNPH   
# ...
9665.5000    1.1639    0.9460    0.9016    0.8357    0.8145   12.7624 -999.0000 -999.0000 -999.0000 -999.0000 -999.0000 -999.0000 -999.0000 -999.0000 -999.0000 9665.5000 -999.0000  357.1813   50.1317    0.0237  103.0099 4363.0552  228.0875   96.3455 -999.0000 -999.0000    8.9553   83.7145  103.7402   17.6130    2.5689    0.0150    0.0116    3.6279    0.1848    1.5700    0.6074    0.6219    2.3512    2.3451    4.0250    3.9053   52.0998 4428.0000    0.4753 
9665.7500    1.1682    0.9551    0.9046    0.8380    0.8196   12.7206 -999.0000 -999.0000 -999.0000 -999.0000 -999.0000 -999.0000 -999.0000 -999.0000 -999.0000 9665.7500 -999.0000  357.1813   50.1317    0.0247  118.6629 4363.1318  228.0907   97.7772 -999.0000 -999.0000    8.9570   84.3487  104.9774   17.7481    2.6087    0.0147    0.0118    3.7322    0.1872    1.5850    0.6282    0.6276    2.3421    2.3412    3.8676    3.8612   52.0932 4317.0000    0.4680 
9666.0000    1.1725    0.9641    0.9077    0.8403    0.8248   12.6788 -999.0000 -999.0000 -999.0000 -999.0000 -999.0000 -999.0000 -999.0000 -999.0000 -999.0000 9666.0000 -999.0000  357.1813   50.1317    0.0258  129.6739 4363.2090  228.0940   99.2089 -999.0000 -999.0000    8.9587   84.9829  106.2147   17.8831    2.6485    0.0145    0.0121    3.8366    0.1895    1.6000    0.6489    0.6333    2.3330    2.3374    3.7102    3.8165   52.0865 4206.0000    0.4606 
9666.2500    1.1712    0.9653    0.9090    0.8416    0.8255   12.6570 -999.0000 -999.0000 -999.0000 -999.0000 -999.0000 -999.0000 -999.0000 -999.0000 -999.0000 9666.2500 -999.0000  357.1813   50.1317    0.0264  126.3638 4363.2856  228.0975  101.7970 -999.0000 -999.0000    8.9593   86.4980  108.2761   18.1575    2.6974    0.0145    0.0123    3.8758    0.1899    1.6350    0.6489    0.6384    2.3322    2.3367    3.7102    3.7730   52.0807 4274.5000    0.4641 
9666.5000    1.1700    0.9666    0.9103    0.8429    0.8263   12.6352 -999.0000 -999.0000 -999.0000 -999.0000 -999.0000 -999.0000 -999.0000 -999.0000 -999.0000 9666.5000 -999.0000  357.1813   50.1317    0.0269  124.6114 4363.3628  228.1010  104.3851 -999.0000 -999.0000    8.9599   88.0132  110.3376   18.4318    2.7462    0.0144    0.0124    3.9149    0.1904    1.6700    0.6489    0.6424    2.3313    2.3359    3.7102    3.7273   52.0749 4343.0000    0.4675 
9666.7500    1.1676    0.9690    0.9144    0.8474    0.8331   12.6933 -999.0000 -999.0000 -999.0000 -999.0000 -999.0000 -999.0000 -999.0000 -999.0000 -999.0000 9666.7500 -999.0000  357.1813   50.1317    0.0258  117.8411 4363.4395  228.1045  101.0470 -999.0000 -999.0000    8.9613   88.8429  109.7655   18.6474    2.5778    0.0145    0.0127    3.9204    0.1911    1.6750    0.6489    0.6451    2.3323    2.3347    3.7102    3.6679   52.0740 4388.0000    0.4485 
9667.0000    1.1652    0.9715    0.9184    0.8519    0.8398   12.7515 -999.0000 -999.0000 -999.0000 -999.0000 -999.0000 -999.0000 -999.0000 -999.0000 -999.0000 9667.0000 -999.0000  357.1813   50.1317    0.0247  121.6892 4363.5166  228.1080   97.7089 -999.0000 -999.0000    8.9627   89.6727  109.1935   18.8629    2.4094    0.0147    0.0130    3.9260    0.1918    1.6800    0.6489    0.6466    2.3333    2.3335    3.7102    3.5750   52.0731 4433.0000    0.4294 
9667.2500    1.1707    0.9702    0.9159    0.8505    0.8399   12.8278 -999.0000 -999.0000 -999.0000 -999.0000 -999.0000 -999.0000 -999.0000 -999.0000 -999.0000 9667.2500 -999.0000  357.1813   50.1317    0.0260  119.4835 4363.5933  228.1113   96.0963 -999.0000 -999.0000    8.9645   90.0819  108.9392   19.0723    2.3968    0.0144    0.0133    3.9526    0.1902    1.6700    0.6489    0.6471    2.3332    2.3361    3.7102    3.4268   52.0791 4389.5000    0.4222 
9667.5000    1.1762    0.9690    0.9133    0.8490    0.8400   12.9042 -999.0000 -999.0000 -999.0000 -999.0000 -999.0000 -999.0000 -999.0000 -999.0000 -999.0000 9667.5000 -999.0000  357.1813   50.1317    0.0273  106.4805 4363.6704  228.1145   94.4836 -999.0000 -999.0000    8.9663   90.4911  108.6850   19.2816    2.3843    0.0141    0.0136    3.9792    0.1887    1.6600    0.6489    0.6468    2.3331    2.3386    3.7102    3.2131   52.0851 4346.0000    0.4151 
9667.7500    1.1868    0.9764    0.9184    0.8550    0.8422   12.9260 -999.0000 -999.0000 -999.0000 -999.0000 -999.0000 -999.0000 -999.0000 -999.0000 -999.0000 9667.7500 -999.0000  357.1813   50.1317    0.0274  108.8460 4363.7471  228.1178   94.2083 -999.0000 -999.0000    8.9653   88.3676  106.1461   18.9269    2.3450    0.0137    0.0139    3.9676    0.1884    1.6050    0.6489    0.6460    2.3385    2.3391    3.7102    2.9488   52.0830 4389.0000    0.4165 
9668.0000    1.1974    0.9839    0.9235    0.8610    0.8445   12.9478 -999.0000 -999.0000 -999.0000 -999.0000 -999.0000 -999.0000 -999.0000 -999.0000 -999.0000 9668.0000 -999.0000  357.1813   50.1317    0.0276  114.9399 4363.8242  228.1210   93.9330 -999.0000 -999.0000    8.9643   86.2440  103.6073   18.5723    2.3056    0.0132    0.0141    3.9561    0.1881    1.5500    0.6489    0.6450    2.3439    2.3396    3.7102    2.6719   52.0809 4432.0000    0.4179 
9668.2500    1.2031    0.9836    0.9271    0.8654    0.8468   12.9005 -999.0000 -999.0000 -999.0000 -999.0000 -999.0000 -999.0000 -999.0000 -999.0000 -999.0000 9668.2500 -999.0000  357.1813   50.1317    0.0259  118.6769 4363.9009  228.1243   94.9137 -999.0000 -999.0000    8.9650   85.6648  103.3605   18.4818    2.3669    0.0131    0.0143    3.9209    0.1876    1.5300    0.6425    0.6446    2.3394    2.3404    2.7026    2.4262   52.0796 4407.0000    0.4247 
9668.5000    1.2089    0.9833    0.9307    0.8697    0.8490   12.8533 -999.0000 -999.0000 -999.0000 -999.0000 -999.0000 -999.0000 -999.0000 -999.0000 -999.0000 9668.5000 -999.0000  357.1813   50.1317    0.0243  120.0905 4363.9785  228.1275   95.8943 -999.0000 -999.0000    8.9657   85.0855  103.1138   18.3913    2.4282    0.0130    0.0145    3.8857    0.1872    1.5100    0.6361    0.6455    2.3349    2.3412    1.6949    2.2444   52.0782 4382.0000    0.4315 
9668.7500    1.1929    0.9931    0.9358    0.8751    0.8520   12.7152 -999.0000 -999.0000 -999.0000 -999.0000 -999.0000 -999.0000 -999.0000 -999.0000 -999.0000 9668.7500 -999.0000  357.1813   50.1317    0.0234  118.5568 4364.0552  228.1308   95.5246 -999.0000 -999.0000    8.9657   84.4725  103.8876   18.0738    2.6043    0.0127    0.0148    3.9042    0.1830    1.5350    0.6361    0.6488    2.3441    2.3481    1.6949    2.1452   52.0770 4378.0000    0.4401 
9669.0000    1.1770    1.0029    0.9408    0.8806    0.8549   12.5771 -999.0000 -999.0000 -999.0000 -999.0000 -999.0000 -999.0000 -999.0000 -999.0000 -999.0000 9669.0000 -999.0000  357.1813   50.1317    0.0224  112.1556 4364.1323  228.1340   95.1548 -999.0000 -999.0000    8.9658   83.8596  104.6614   17.7563    2.7804    0.0124    0.0150    3.9227    0.1787    1.5600    0.6361    0.6556    2.3534    2.3551    1.6949    2.1389   52.0758 4374.0000    0.4487 
9669.2500    1.1601    1.0014    0.9362    0.8776    0.8534   12.5826 -999.0000 -999.0000 -999.0000 -999.0000 -999.0000 -999.0000 -999.0000 -999.0000 -999.0000 9669.2500 -999.0000  357.1813   50.1317    0.0219  105.9691 4364.2090  228.1375   95.9084 -999.0000 -999.0000    8.9683   87.6602  105.5644   18.7216    2.4014    0.0121    0.0154    3.9050    0.1747    1.6000    0.6361    0.6665    2.3628    2.3618    1.6949    2.2356   52.0753 4392.0000    0.4570 
9669.5000    1.1432    0.9999    0.9315    0.8747    0.8518   12.5880 -999.0000 -999.0000 -999.0000 -999.0000 -999.0000 -999.0000 -999.0000 -999.0000 -999.0000 9669.5000 -999.0000  357.1813   50.1317    0.0214  110.3117 4364.2866  228.1410   96.6621 -999.0000 -999.0000    8.9709   91.4609  106.4674   19.6868    2.0224    0.0118    0.0157    3.8872    0.1705    1.6400    0.6361    0.6815    2.3723    2.3686    1.6949    2.4481   52.0747 4410.0000    0.4654 
9669.7500    1.1341    1.0004    0.9343    0.8764    0.8533   12.6807 -999.0000 -999.0000 -999.0000 -999.0000 -999.0000 -999.0000 -999.0000 -999.0000 -999.0000 9669.7500 -999.0000  357.3473   49.0539    0.0220  117.2401 4364.3633  228.1445   96.4184 -999.0000 -999.0000    8.9725   92.5553  106.1478   19.9515    1.8492    0.0121    0.0139    3.8490    0.1698    1.6550    0.7050    0.6994    2.3739    2.3699    3.7505    2.7905   52.0793 4357.5000    0.4582 
