~VERSION INFORMATION
 VERS.                 2.0:   CWLS LOG ASCII STANDARD - VERSION 2.0
 WRAP.                  NO:   SINGLE LINE PER DEPTH STEP
 CREA.                 9/20/2016 5:41:23 PM
#CREATED USING IP VERSION 4.3.2015.327 BY MAP5249 ON 9/20/2016 5:41:23 PM
~WELL INFORMATION
#MNEM.UNIT       DATA                          DESCRIPTION MNEMONIC
#---------      ---------------------------   --------------------------
 STRT    .FT        9400.0000                 : START DEPTH
 STOP    .FT        10400.0000                : STOP DEPTH
 STEP    .FT        0.2500                    : STEP VALUE
 NULL    .      -999.0000                     : NULL VALUE
 DATE    .      9/20/2016                     : LAS file Creation Date
 WELL .      Chevron2009 : Well Name
 COMP .                  : Company
 FLD  .                  : Field
 UWI  .                  : Unique Well Identifier (UWI)
 LOC  .                  : Location
 LATI .      0           : Latitude/Northing
 LONG .      0           : Longitude/Easting
 RWS  .      -999        : Def_Rw
 WST  .      -999        : Def_Rwt
 PROV .                  : Province
 SRVC .                  : Contractor
~CURVE INFORMATION
#MNEM                   UNIT       API CODE   Curve Type Comments
#----------       --------------- ----------  ---------- -----------
 DEPTH           .FT                        : Depth       
 AT10            .OHMM                      : ShalRes     1       Array Induction Two Foot Resistivity A10
 AT20            .OHMM                      : MedRes      2       Array Induction Two Foot Resistivity A20
 AT30            .OHMM                      : MedRes      3       Array Induction Two Foot Resistivity A30
 AT60            .OHMM                      : MedRes      4       Array Induction Two Foot Resistivity A60
 AT90            .OHMM                      : DeepRes     5       Array Induction Two Foot Resistivity A90
 CALI            .IN                        : Caliper     "copied from HCAL_1 in WIRE set"
 CORE_FLAG       .                          :             Created using text_insert
 COREPERM        .MD                        :             
 COREPOR         .V/V                       :             COREPOR/100
 CORERHOB        .G/C3                      :             ((CORERHOG*(1-(COREPOR)))+COREPOR)
 CORERHOB_2SMT   .                          :             Output log
 CORERHOB_3SMT   .                          :             Output log
 CORERHOG        .G/C3                      :             
 CORESO          .V/V                       :             CORESO/100
 CORESW          .V/V                       :             CORESW/100
 DEPTH           .FT                        : Depth       
 DEPTH_ORIG      .Ft                        :             
 DPAA_TOH_72H_1D .DEG                       :             
 DPAP_72H_1D     .DEG                       :             
 DRHO            .G/C3                      : Drho        "copied from DRHO_1 in WIRE set"
 EHGR            .GAPI                      :             HiRes Gamma-Ray
 FPRESS          .PSI                       :             Formation/hydrostatic pressure
 FTEMP           .DEGF                      :             burnside gradient
 GR              .GAPI                      : GammaRay    "copied from GR_1 in WIRE set"
 GR_CORE         .GAPI                      :             
 GR_SM           .GAPI                      : GammaRay    
 HAZI            .DEG                       : Azimuth     Hole Azimuth
 HCGR            .GAPI                      :             HNGS Computed Gamma Ray
 HSGR            .GAPI                      :             HNGS Standard Gamma Ray
 HTHO            .PPM                       :             HNGS Formation Thorium Concentration
 HURA            .PPM                       :             HNGS Formation Uranium Concentration
 MSFT_72H_ALL_R  .                          :             
 MSFT_72H_ALL_X  .                          :             
 PE              .B/E                       : PEF         "copied from PE_1 in WIRE set"
 PHID_SS         .dec                       : Phi         
 POTA            .%                         : Spectral    POTA*100
 RH72H_1D        .OHM.M                     :             
 RH72H_1D_FLT    .OHM.M                     :             
 RHO8            .G/C3                      : Density     HRDD High Resolution Formation Density
 RHOZ            .G/C3                      : Density     HRDD Standard Resolution Formation Density
 RV72H_1D        .OHM.M                     :             
 RV72H_1D_FLT    .OHM.M                     :             
 SDEV            .DEG                       :             Sonde Deviation
 TENS            .LBF                       : Tension     Cable Tension
 TNPH            .V/V                       : Neutron     Thermal Neutron Porosity
~A  DEPTH    AT10      AT20      AT30      AT60      AT90      CALI   CORE_FLA~  COREPERM  COREPOR   CORERHOB CORERHOB~ CORERHOB~  CORERHOG   CORESO    CORESW    DEPTH   DEPTH_OR~ DPAA_TOH~ DPAP_72H~    DRHO      EHGR     FPRESS    FTEMP       GR     GR_CORE    GR_SM      HAZI      HCGR      HSGR      HTHO      HURA   MSFT_72H~ MSFT_72H~     PE     PHID_SS     POTA    RH72H_1D RH72H_1D~    RHO8      RHOZ    RV72H_1D RV72H_1D~    SDEV      TENS      TNPH   
# ...
10061.5000    0.7245    0.5791    0.5634    0.5671    0.5895   12.4898 -999.0000 -999.0000 -999.0000 -999.0000 -999.0000 -999.0000 -999.0000 -999.0000 -999.0000 10061.5000 -999.0000  356.2727   45.7608   -0.0001   78.8858 4488.1733  233.5070   67.0392 -999.0000 -999.0000    8.2287   56.1807   72.5219   10.6969    2.0910    0.0240    0.0151    3.0946    0.1879    1.2500    0.7001    0.6771    2.3622    2.3399    0.9795    0.9715   49.5705 4483.0000    0.2895 
10061.7500    0.6938    0.5647    0.5448    0.5397    0.5625   12.4426 -999.0000 -999.0000 -999.0000 -999.0000 -999.0000 -999.0000 -999.0000 -999.0000 -999.0000 10061.7500 -999.0000  356.2727   45.7608   -0.0016   75.1084 4488.2544  233.5105   65.0145 -999.0000 -999.0000    8.2309   53.5595   68.9372   10.3789    1.9772    0.0239    0.0156    3.1195    0.1981    1.1600    0.7001    0.6554    2.3490    2.3232    0.9795    0.9603   49.5718 4498.5000    0.2793 
10062.0000    0.6631    0.5503    0.5261    0.5122    0.5355   12.3953 -999.0000 -999.0000 -999.0000 -999.0000 -999.0000 -999.0000 -999.0000 -999.0000 -999.0000 10062.0000 -999.0000  356.2727   45.7608   -0.0031   69.1865 4488.3359  233.5140   62.9897 -999.0000 -999.0000    8.2331   50.9383   65.3526   10.0610    1.8634    0.0237    0.0160    3.1445    0.2082    1.0700    0.7001    0.6220    2.3358    2.3065    0.9795    0.9440   49.5730 4514.0000    0.2692 
10062.2500    0.6299    0.5352    0.5174    0.5019    0.5284   12.4207 -999.0000 -999.0000 -999.0000 -999.0000 -999.0000 -999.0000 -999.0000 -999.0000 -999.0000 10062.2500 -999.0000  356.2727   45.7608   -0.0049   74.6255 4488.4175  233.5175   59.3666 -999.0000 -999.0000    8.2326   49.2709   63.0577    9.7332    1.7982    0.0229    0.0166    3.0628    0.2275    1.0350    0.7001    0.5786    2.3126    2.2746    0.9795    0.9218   49.5656 4529.5000    0.2766 
10062.5000    0.5968    0.5201    0.5087    0.4915    0.5212   12.4462 -999.0000 -999.0000 -999.0000 -999.0000 -999.0000 -999.0000 -999.0000 -999.0000 -999.0000 10062.5000 -999.0000  356.2727   45.7608   -0.0068   75.5677 4488.4990  233.5210   55.7434 -999.0000 -999.0000    8.2321   47.6035   60.7628    9.4054    1.7330    0.0222    0.0171    2.9810    0.2468    1.0000    0.7001    0.5304    2.2895    2.2427    0.9795    0.8949   49.5582 4545.0000    0.2841 
10062.7500    0.5604    0.5036    0.4864    0.4667    0.4909   12.4844 -999.0000 -999.0000 -999.0000 -999.0000 -999.0000 -999.0000 -999.0000 -999.0000 -999.0000 10062.7500 -999.0000  356.2727   45.7608   -0.0095   61.5997 4488.5806  233.5245   53.6434 -999.0000 -999.0000    8.2353   46.0199   57.9004    9.0629    1.5224    0.0215    0.0176    2.8577    0.2691    0.9700    0.5310    0.4840    2.2233    2.2060    0.8766    0.8662   49.5527 4538.5000    0.2830 
10063.0000    0.5239    0.4871    0.4642    0.4419    0.4607   12.5225 -999.0000 -999.0000 -999.0000 -999.0000 -999.0000 -999.0000 -999.0000 -999.0000 -999.0000 10063.0000 -999.0000  356.2727   45.7608   -0.0123   54.5543 4488.6621  233.5280   51.5433 -999.0000 -999.0000    8.2385   44.4363   55.0380    8.7205    1.3119    0.0208    0.0181    2.7345    0.2913    0.9400    0.3618    0.4444    2.1571    2.1693    0.7737    0.8391   49.5473 4532.0000    0.2819 
10063.2500    0.5213    0.4766    0.4514    0.4289    0.4436   12.5425 -999.0000 -999.0000 -999.0000 -999.0000 -999.0000 -999.0000 -999.0000 -999.0000 -999.0000 10063.2500 -999.0000  356.2727   45.7608   -0.0139   56.2932 4488.7432  233.5315   46.2486 -999.0000 -999.0000    8.2354   42.2408   50.9938    8.3629    1.1059    0.0202    0.0182    2.6025    0.3029    0.8800    0.3618    0.4138    2.1199    2.1502    0.7737    0.8163   49.5386 4562.0000    0.2911 
10063.5000    0.5187    0.4660    0.4385    0.4159    0.4265   12.5625 -999.0000 -999.0000 -999.0000 -999.0000 -999.0000 -999.0000 -999.0000 -999.0000 -999.0000 10063.5000 -999.0000  356.2727   45.7608   -0.0155   54.4983 4488.8247  233.5350   40.9540 -999.0000 -999.0000    8.2324   40.0453   46.9496    8.0054    0.8999    0.0195    0.0184    2.4705    0.3145    0.8200    0.3618    0.3925    2.0827    2.1311    0.7737    0.7991   49.5299 4592.0000    0.3004 
10063.7500    0.5272    0.4685    0.4356    0.4112    0.4187   12.6243 -999.0000 -999.0000 -999.0000 -999.0000 -999.0000 -999.0000 -999.0000 -999.0000 -999.0000 10063.7500 -999.0000  356.2727   45.7608   -0.0155   44.6928 4488.9058  233.5385   38.8560 -999.0000 -999.0000    8.2349   36.1288   42.6005    7.1500    0.8284    0.0191    0.0184    2.4664    0.3112    0.7550    0.3618    0.3790    2.1006    2.1365    0.7737    0.7873   49.5438 4595.5000    0.2963 
10064.0000    0.5358    0.4710    0.4326    0.4066    0.4109   12.6861 -999.0000 -999.0000 -999.0000 -999.0000 -999.0000 -999.0000 -999.0000 -999.0000 -999.0000 10064.0000 -999.0000  356.2727   45.7608   -0.0156   38.0965 4488.9873  233.5420   36.7580 -999.0000 -999.0000    8.2374   32.2123   38.2514    6.2947    0.7570    0.0187    0.0183    2.4623    0.3080    0.6900    0.3618    0.3718    2.1186    2.1418    0.7737    0.7800   49.5577 4599.0000    0.2922 
10064.2500    0.5430    0.4742    0.4350    0.4077    0.4074   12.6861 -999.0000 -999.0000 -999.0000 -999.0000 -999.0000 -999.0000 -999.0000 -999.0000 -999.0000 10064.2500 -999.0000  356.2727   45.7608   -0.0132   40.2747 4489.0684  233.5455   34.0123 -999.0000 -999.0000    8.2355   30.6735   36.0737    6.0489    0.6620    0.0187    0.0184    2.5424    0.2982    0.6450    0.3618    0.3694    2.1599    2.1580    0.7737    0.7756   49.5454 4604.5000    0.2898 
10064.5000    0.5501    0.4773    0.4373    0.4087    0.4039   12.6861 -999.0000 -999.0000 -999.0000 -999.0000 -999.0000 -999.0000 -999.0000 -999.0000 -999.0000 10064.5000 -999.0000  356.2727   45.7608   -0.0108   39.6460 4489.1504  233.5490   31.2666 -999.0000 -999.0000    8.2337   29.1347   33.8959    5.8031    0.5670    0.0188    0.0184    2.6226    0.2884    0.6000    0.3618    0.3704    2.2012    2.1741    0.7737    0.7728   49.5330 4610.0000    0.2873 
10064.7500    0.5542    0.4799    0.4407    0.4103    0.4005   12.6607 -999.0000 -999.0000 -999.0000 -999.0000 -999.0000 -999.0000 -999.0000 -999.0000 -999.0000 10064.7500 -999.0000  356.2727   45.7608   -0.0107   38.6646 4489.2314  233.5525   31.1565 -999.0000 -999.0000    8.2343   29.0482   32.9398    5.7983    0.4827    0.0192    0.0186    2.6818    0.2820    0.5950    0.3618    0.3742    2.2204    2.1847    0.7737    0.7707   49.5324 4667.0000    0.2705 
10065.0000    0.5583    0.4824    0.4440    0.4118    0.3970   12.6352 -999.0000 -999.0000 -999.0000 -999.0000 -999.0000 -999.0000 -999.0000 -999.0000 -999.0000 10065.0000 -999.0000  356.2727   45.7608   -0.0105   34.8645 4489.3130  233.5560   31.0463 -999.0000 -999.0000    8.2349   28.9616   31.9837    5.7936    0.3983    0.0197    0.0187    2.7409    0.2756    0.5900    0.3618    0.3801    2.2396    2.1953    0.7737    0.7687   49.5317 4724.0000    0.2537 
10065.2500    0.5591    0.4759    0.4403    0.4069    0.3929   12.6497 -999.0000 -999.0000 -999.0000 -999.0000 -999.0000 -999.0000 -999.0000 -999.0000 -999.0000 10065.2500 -999.0000  356.2727   45.7608   -0.0100   31.2899 4489.3945  233.5595   30.0357 -999.0000 -999.0000    8.2349   28.1646   31.1783    5.5004    0.3569    0.0202    0.0189    2.7354    0.2729    0.6000    0.3887    0.3872    2.2275    2.1997    0.7667    0.7666   49.5357 4647.0000    0.2470 
10065.5000    0.5598    0.4694    0.4367    0.4019    0.3887   12.6643 -999.0000 -999.0000 -999.0000 -999.0000 -999.0000 -999.0000 -999.0000 -999.0000 -999.0000 10065.5000 -999.0000  356.2727   45.7608   -0.0095   37.2766 4489.4761  233.5630   29.0250 -999.0000 -999.0000    8.2348   27.3676   30.3728    5.2071    0.3156    0.0207    0.0191    2.7299    0.2702    0.6100    0.4156    0.3946    2.2154    2.2041    0.7596    0.7646   49.5398 4570.0000    0.2403 
10065.7500    0.5583    0.4645    0.4348    0.3996    0.3862   12.6134 -999.0000 -999.0000 -999.0000 -999.0000 -999.0000 -999.0000 -999.0000 -999.0000 -999.0000 10065.7500 -999.0000  356.2727   45.7608   -0.0098   37.2320 4489.5576  233.5665   28.2511 -999.0000 -999.0000    8.2355   26.0490   29.2163    4.9720    0.3122    0.0207    0.0189    2.7232    0.2687    0.5750    0.4156    0.4014    2.2017    2.2066    0.7596    0.7628   49.5378 4598.0000    0.2329 
