~VERSION INFORMATION
 VERS.                 2.0:   CWLS LOG ASCII STANDARD - VERSION 2.0
 WRAP.                  NO:   SINGLE LINE PER DEPTH STEP
 CREA.                 9/20/2016 5:41:23 PM
#CREATED USING IP VERSION 4.3.2015.327 BY MAP5249 ON 9/20/2016 5:41:23 PM
~WELL INFORMATION
#MNEM.UNIT       DATA                          DESCRIPTION MNEMONIC
#---------      ---------------------------   --------------------------
 STRT    .FT        9400.0000                 : START DEPTH
 STOP    .FT        10400.0000                : STOP DEPTH
 STEP    .FT        0.2500                    : STEP VALUE
 NULL    .      -999.0000                     : NULL VALUE
 DATE    .      9/20/2016                     : LAS file Creation Date
 WELL .      Chevron2009 : Well Name
 COMP .                  : Company
 FLD  .                  : Field
 UWI  .                  : Unique Well Identifier (UWI)
 LOC  .                  : Location
 LATI .      0           : Latitude/Northing
 LONG .      0           : Longitude/Easting
 RWS  .      -999        : Def_Rw
 WST  .      -999        : Def_Rwt
 PROV .                  : Province
 SRVC .                  : Contractor
~CURVE INFORMATION
#MNEM                   UNIT       API CODE   Curve Type Comments
#----------       --------------- ----------  ---------- -----------
 DEPTH           .FT                        : Depth       
 AT10            .OHMM                      : ShalRes     1       Array Induction Two Foot Resistivity A10
 AT20            .OHMM                      : MedRes      2       Array Induction Two Foot Resistivity A20
 AT30            .OHMM                      : MedRes      3       Array Induction Two Foot Resistivity A30
 AT60            .OHMM                      : MedRes      4       Array Induction Two Foot Resistivity A60
 AT90            .OHMM                      : DeepRes     5       Array Induction Two Foot Resistivity A90
 CALI            .IN                        : Caliper     "copied from HCAL_1 in WIRE set"
 CORE_FLAG       .                          :             Created using text_insert
 COREPERM        .MD                        :             
 COREPOR         .V/V                       :             COREPOR/100
 CORERHOB        .G/C3                      :             ((CORERHOG*(1-(COREPOR)))+COREPOR)
 CORERHOB_2SMT   .                          :             Output log
 CORERHOB_3SMT   .                          :             Output log
 CORERHOG        .G/C3                      :             
 CORESO          .V/V                       :             CORESO/100
 CORESW          .V/V                       :             CORESW/100
 DEPTH           .FT                        : Depth       
 DEPTH_ORIG      .Ft                        :             
 DPAA_TOH_72H_1D .DEG                       :             
 DPAP_72H_1D     .DEG                       :             
 DRHO            .G/C3                      : Drho        "copied from DRHO_1 in WIRE set"
 EHGR            .GAPI                      :             HiRes Gamma-Ray
 FPRESS          .PSI                       :             Formation/hydrostatic pressure
 FTEMP           .DEGF                      :             burnside gradient
 GR              .GAPI                      : GammaRay    "copied from GR_1 in WIRE set"
 GR_CORE         .GAPI                      :             
 GR_SM           .GAPI                      : GammaRay    
 HAZI            .DEG                       : Azimuth     Hole Azimuth
 HCGR            .GAPI                      :             HNGS Computed Gamma Ray
 HSGR            .GAPI                      :             HNGS Standard Gamma Ray
 HTHO            .PPM                       :             HNGS Formation Thorium Concentration
 HURA            .PPM                       :             HNGS Formation Uranium Concentration
 MSFT_72H_ALL_R  .                          :             
 MSFT_72H_ALL_X  .                          :             
 PE              .B/E                       : PEF         "copied from PE_1 in WIRE set"
 PHID_SS         .dec                       : Phi         
 POTA            .%                         : Spectral    POTA*100
 RH72H_1D        .OHM.M                     :             
 RH72H_1D_FLT    .OHM.M                     :             
 RHO8            .G/C3                      : Density     HRDD High Resolution Formation Density
 RHOZ            .G/C3                      : Density     HRDD Standard Resolution Formation Density
 RV72H_1D        .OHM.M                     :             
 RV72H_1D_FLT    .OHM.M                     :             
 SDEV            .DEG                       :             Sonde Deviation
 TENS            .LBF                       : Tension     Cable Tension
 TNPH            .V/V                       : Neutron     Thermal Neutron Porosity
~A  DEPTH    AT10      AT20      AT30      AT60      AT90      CALI   CORE_FLA~  COREPERM  COREPOR   CORERHOB CORERHOB~ CORERHOB~  CORERHOG   CORESO    CORESW    DEPTH   DEPTH_OR~ DPAA_TOH~ DPAP_72H~    DRHO      EHGR     FPRESS    FTEMP       GR     GR_CORE    GR_SM      HAZI      HCGR      HSGR      HTHO      HURA   MSFT_72H~ MSFT_72H~     PE     PHID_SS     POTA    RH72H_1D RH72H_1D~    RHO8      RHOZ    RV72H_1D RV72H_1D~    SDEV      TENS      TNPH   
# ...
9796.0000    3.0988    2.7537    2.8680    2.6646    3.0249   12.7297 -999.0000 -999.0000 -999.0000 -999.0000 -999.0000 -999.0000 -999.0000 -999.0000 -999.0000 9796.0000 -999.0000  357.5108   50.5153   -0.0141   64.6440 4403.5986  229.8440   55.3186 -999.0000 -999.0000    9.0351   47.8981   60.6345    9.3455    1.5674    0.0172    0.0217    2.8807    0.3361    1.0200    2.1779    1.9831    2.0559    2.0955   36.5634   33.1890   51.2735 4364.0000    0.3675 
9796.2500    3.4945    2.9306    2.9917    2.7338    3.2282   12.8770 -999.0000 -999.0000 -999.0000 -999.0000 -999.0000 -999.0000 -999.0000 -999.0000 -999.0000 9796.2500 -999.0000  357.5108   50.5153   -0.0184   67.4542 4403.6768  229.8472   55.7217 -999.0000 -999.0000    9.0377   45.9588   59.8568    8.7983    1.6964    0.0161    0.0226    3.0656    0.3449    1.0100    2.1779    2.0493    2.0782    2.0809   36.5634   32.5027   51.2708 4332.0000    0.3482 
9796.5000    3.9365    3.0757    3.0789    2.7808    3.3739   13.0242 -999.0000 -999.0000 -999.0000 -999.0000 -999.0000 -999.0000 -999.0000 -999.0000 -999.0000 9796.5000 -999.0000  357.5108   50.5153   -0.0227   67.9771 4403.7554  229.8505   56.1248 -999.0000 -999.0000    9.0403   44.0194   59.0790    8.2510    1.8255    0.0150    0.0235    3.2505    0.3538    1.0000    2.1779    2.0700    2.1004    2.0663   36.5634   29.8322   51.2680 4300.0000    0.3289 
9796.7500    4.5989    3.0703    2.9928    2.7227    3.2463   13.0732 -999.0000 -999.0000 -999.0000 -999.0000 -999.0000 -999.0000 -999.0000 -999.0000 -999.0000 9796.7500 -999.0000  357.5108   50.5153   -0.0245   71.3807 4403.8330  229.8537   56.1191 -999.0000 -999.0000    9.0410   41.9843   57.5987    7.9370    1.8898    0.0163    0.0245    3.1063    0.3582    0.9400    2.1779    2.0418    2.0482    2.0589   36.5634   25.2514   51.2657 4330.5000    0.3167 
9797.0000    5.2612    3.0649    2.9068    2.6646    3.1188   13.1223 -999.0000 -999.0000 -999.0000 -999.0000 -999.0000 -999.0000 -999.0000 -999.0000 -999.0000 9797.0000 -999.0000  357.5108   50.5153   -0.0263   71.6656 4403.9116  229.8570   56.1133 -999.0000 -999.0000    9.0418   39.9492   56.1183    7.6230    1.9541    0.0175    0.0256    2.9621    0.3627    0.8800    2.1779    1.9672    1.9959    2.0516   36.5634   19.8419   51.2633 4361.0000    0.3046 
9797.2500    5.1822    2.8804    2.8135    2.5757    2.9439   13.1077 -999.0000 -999.0000 -999.0000 -999.0000 -999.0000 -999.0000 -999.0000 -999.0000 -999.0000 9797.2500 -999.0000  357.5108   50.5153   -0.0239   65.3149 4403.9897  229.8605   55.6762 -999.0000 -999.0000    9.0396   39.1882   55.6353    7.5653    2.0179    0.0197    0.0263    3.1811    0.3540    0.8500    2.1779    1.8564    2.0522    2.0659   36.5634   14.9381   51.2569 4339.0000    0.3073 
9797.5000    5.1031    2.6958    2.7203    2.4868    2.7690   13.0932 -999.0000 -999.0000 -999.0000 -999.0000 -999.0000 -999.0000 -999.0000 -999.0000 -999.0000 9797.5000 -999.0000  357.5108   50.5153   -0.0214   65.8496 4404.0684  229.8640   55.2390 -999.0000 -999.0000    9.0374   38.4272   55.1523    7.5076    2.0816    0.0220    0.0271    3.4002    0.3453    0.8200    2.1779    1.7265    2.1085    2.0803   36.5634   11.2125   51.2505 4317.0000    0.3100 
9797.7500    4.2682    2.6403    2.6063    2.3913    2.5801   13.0751 -999.0000 -999.0000 -999.0000 -999.0000 -999.0000 -999.0000 -999.0000 -999.0000 -999.0000 9797.7500 -999.0000  357.5108   50.5153   -0.0164   64.2472 4404.1460  229.8675   55.4879 -999.0000 -999.0000    9.0338   38.0962   55.6879    7.5794    2.2221    0.0228    0.0272    3.5105    0.3256    0.7900    1.7090    1.5971    2.1203    2.1128   20.4907    8.6587   51.2538 4331.0000    0.3099 
9798.0000    3.3954    2.5912    2.4913    2.2954    2.3906   13.0569 -999.0000 -999.0000 -999.0000 -999.0000 -999.0000 -999.0000 -999.0000 -999.0000 -999.0000 9798.0000 -999.0000  357.5108   50.5153   -0.0113   64.6074 4404.2246  229.8710   55.7369 -999.0000 -999.0000    9.0301   37.7652   56.2234    7.6511    2.3626    0.0236    0.0273    3.6208    0.3059    0.7600    1.2400    1.4836    2.1322    2.1452    4.4179    7.0053   51.2571 4345.0000    0.3097 
9798.2500    3.1051    2.5512    2.4454    2.2627    2.2718   12.9915 -999.0000 -999.0000 -999.0000 -999.0000 -999.0000 -999.0000 -999.0000 -999.0000 -999.0000 9798.2500 -999.0000  357.5108   50.5153   -0.0084   72.7150 4404.3027  229.8743   59.9309 -999.0000 -999.0000    9.0324   40.0499   59.6760    8.0418    2.5039    0.0257    0.0269    3.7465    0.2876    0.8200    1.2400    1.3943    2.1816    2.1755    4.4179    5.9811   51.2753 4366.0000    0.3138 
9798.5000    2.8779    2.5119    2.4069    2.2369    2.1606   12.9260 -999.0000 -999.0000 -999.0000 -999.0000 -999.0000 -999.0000 -999.0000 -999.0000 -999.0000 9798.5000 -999.0000  357.5108   50.5153   -0.0054   73.0356 4404.3809  229.8775   64.1248 -999.0000 -999.0000    9.0348   42.3347   63.1287    8.4325    2.6452    0.0277    0.0265    3.8723    0.2692    0.8800    1.2400    1.3303    2.2311    2.2059    4.4179    5.3909   51.2935 4387.0000    0.3178 
9798.7500    2.5628    2.4686    2.3463    2.2037    2.0682   12.9587 -999.0000 -999.0000 -999.0000 -999.0000 -999.0000 -999.0000 -999.0000 -999.0000 -999.0000 9798.7500 -999.0000  357.5108   50.5153   -0.0027   84.6465 4404.4590  229.8808   68.5447 -999.0000 -999.0000    9.0267   47.5620   70.2117    9.6837    2.9136    0.0296    0.0263    4.0155    0.2561    0.9500    1.2400    1.2883    2.2600    2.2274    4.4179    5.1121   51.3001 4386.0000    0.3294 
9799.0000    2.2300    2.4245    2.2815    2.1690    1.9788   12.9915 -999.0000 -999.0000 -999.0000 -999.0000 -999.0000 -999.0000 -999.0000 -999.0000 -999.0000 9799.0000 -999.0000  357.5108   50.5153   -0.0001   95.7720 4404.5371  229.8840   72.9646 -999.0000 -999.0000    9.0185   52.7893   77.2948   10.9350    3.1820    0.0315    0.0260    4.1587    0.2431    1.0200    1.2400    1.2632    2.2888    2.2489    4.4179    5.0743   51.3068 4385.0000    0.3409 
9799.2500    2.1353    2.4376    2.2569    2.1435    1.9155   13.0242 -999.0000 -999.0000 -999.0000 -999.0000 -999.0000 -999.0000 -999.0000 -999.0000 -999.0000 9799.2500 -999.0000  357.5108   50.5153    0.0026   94.5260 4404.6152  229.8875   74.5538 -999.0000 -999.0000    9.0156   56.1943   82.1852   11.8951    3.3955    0.0318    0.0262    4.1648    0.2371    1.0450    1.2400    1.2493    2.2870    2.2588    4.4179    5.2408   51.3092 4344.0000    0.3673 
9799.5000    2.1004    2.4647    2.2423    2.1204    1.8584   13.0569 -999.0000 -999.0000 -999.0000 -999.0000 -999.0000 -999.0000 -999.0000 -999.0000 -999.0000 9799.5000 -999.0000  357.5108   50.5153    0.0053   97.2089 4404.6938  229.8910   76.1430 -999.0000 -999.0000    9.0127   59.5994   87.0756   12.8551    3.6090    0.0321    0.0264    4.1708    0.2312    1.0700    1.2400    1.2423    2.2853    2.2686    4.4179    5.5919   51.3115 4303.0000    0.3937 
9799.7500    2.1070    2.3762    2.1935    2.0334    1.8036   13.0078 -999.0000 -999.0000 -999.0000 -999.0000 -999.0000 -999.0000 -999.0000 -999.0000 -999.0000 9799.7500 -999.0000  356.5546   51.5789    0.0067   91.7226 4404.7715  229.8945   75.7576 -999.0000 -999.0000    9.0105   61.7570   88.8352   13.3728    3.5902    0.0338    0.0248    4.0381    0.2298    1.0950    1.2372    1.2389    2.2699    2.2709    6.8200    6.1073   51.3010 4356.0000    0.3933 
9800.0000    2.1226    2.2479    2.1324    1.9249    1.7490   12.9587 -999.0000 -999.0000 -999.0000 -999.0000 -999.0000 -999.0000 -999.0000 -999.0000 -999.0000 9800.0000 -999.0000  355.5985   52.6425    0.0082   84.9904 4404.8501  229.8980   75.3721 -999.0000 -999.0000    9.0082   63.9145   90.5948   13.8904    3.5714    0.0355    0.0232    3.9053    0.2284    1.1200    1.2344    1.2373    2.2545    2.2732    9.2221    6.7464   51.2905 4409.0000    0.3930 
9800.2500    2.1414    2.1298    2.0440    1.8491    1.6614   12.9133 -999.0000 -999.0000 -999.0000 -999.0000 -999.0000 -999.0000 -999.0000 -999.0000 -999.0000 9800.2500 -999.0000  355.5985   52.6425    0.0071   88.4827 4404.9282  229.9012   73.8664 -999.0000 -999.0000    9.0105   62.3763   88.4296   13.6304    3.5245    0.0346    0.0234    3.8407    0.2321    1.0850    1.2344    1.2372    2.2516    2.2670    9.2221    7.4373   51.2969 4474.0000    0.3889 
