~VERSION INFORMATION
 VERS.                 2.0:   CWLS LOG ASCII STANDARD - VERSION 2.0
 WRAP.                  NO:   SINGLE LINE PER DEPTH STEP
 CREA.                 9/20/2016 5:41:23 PM
#CREATED USING IP VERSION 4.3.2015.327 BY MAP5249 ON 9/20/2016 5:41:23 PM
~WELL INFORMATION
#MNEM.UNIT       DATA                          DESCRIPTION MNEMONIC
#---------      ---------------------------   --------------------------
 STRT    .FT        9400.0000                 : START DEPTH
 STOP    .FT        10400.0000                : STOP DEPTH
 STEP    .FT        0.2500                    : STEP VALUE
 NULL    .      -999.0000                     : NULL VALUE
 DATE    .      9/20/2016                     : LAS file Creation Date
 WELL .      Chevron2009 : Well Name
 COMP .                  : Company
 FLD  .                  : Field
 UWI  .                  : Unique Well Identifier (UWI)
 LOC  .                  : Location
 LATI .      0           : Latitude/Northing
 LONG .      0           : Longitude/Easting
 RWS  .      -999        : Def_Rw
 WST  .      -999        : Def_Rwt
 PROV .                  : Province
 SRVC .                  : Contractor
~CURVE INFORMATION
#MNEM                   UNIT       API CODE   Curve Type Comments
#----------       --------------- ----------  ---------- -----------
 DEPTH           .FT                        : Depth       
 AT10            .OHMM                      : ShalRes     1       Array Induction Two Foot Resistivity A10
 AT20            .OHMM                      : MedRes      2       Array Induction Two Foot Resistivity A20
 AT30            .OHMM                      : MedRes      3       Array Induction Two Foot Resistivity A30
 AT60            .OHMM                      : MedRes      4       Array Induction Two Foot Resistivity A60
 AT90            .OHMM                      : DeepRes     5       Array Induction Two Foot Resistivity A90
 CALI            .IN                        : Caliper     "copied from HCAL_1 in WIRE set"
 CORE_FLAG       .                          :             Created using text_insert
 COREPERM        .MD                        :             
 COREPOR         .V/V                       :             COREPOR/100
 CORERHOB        .G/C3                      :             ((CORERHOG*(1-(COREPOR)))+COREPOR)
 CORERHOB_2SMT   .                          :             Output log
 CORERHOB_3SMT   .                          :             Output log
 CORERHOG        .G/C3                      :             
 CORESO          .V/V                       :             CORESO/100
 CORESW          .V/V                       :             CORESW/100
 DEPTH           .FT                        : Depth       
 DEPTH_ORIG      .Ft                        :             
 DPAA_TOH_72H_1D .DEG                       :             
 DPAP_72H_1D     .DEG                       :             
 DRHO            .G/C3                      : Drho        "copied from DRHO_1 in WIRE set"
 EHGR            .GAPI                      :             HiRes Gamma-Ray
 FPRESS          .PSI                       :             Formation/hydrostatic pressure
 FTEMP           .DEGF                      :             burnside gradient
 GR              .GAPI                      : GammaRay    "copied from GR_1 in WIRE set"
 GR_CORE         .GAPI                      :             
 GR_SM           .GAPI                      : GammaRay    
 HAZI            .DEG                       : Azimuth     Hole Azimuth
 HCGR            .GAPI                      :             HNGS Computed Gamma Ray
 HSGR            .GAPI                      :             HNGS Standard Gamma Ray
 HTHO            .PPM                       :             HNGS Formation Thorium Concentration
 HURA            .PPM                       :             HNGS Formation Uranium Concentration
 MSFT_72H_ALL_R  .                          :             
 MSFT_72H_ALL_X  .                          :             
 PE              .B/E                       : PEF         "copied from PE_1 in WIRE set"
 PHID_SS         .dec                       : Phi         
 POTA            .%                         : Spectral    POTA*100
 RH72H_1D        .OHM.M                     :             
 RH72H_1D_FLT    .OHM.M                     :             
 RHO8            .G/C3                      : Density     HRDD High Resolution Formation Density
 RHOZ            .G/C3                      : Density     HRDD Standard Resolution Formation Density
 RV72H_1D        .OHM.M                     :             
 RV72H_1D_FLT    .OHM.M                     :             
 SDEV            .DEG                       :             Sonde Deviation
 TENS            .LBF                       : Tension     Cable Tension
 TNPH            .V/V                       : Neutron     Thermal Neutron Porosity
~A  DEPTH    AT10      AT20      AT30      AT60      AT90      CALI   CORE_FLA~  COREPERM  COREPOR   CORERHOB CORERHOB~ CORERHOB~  CORERHOG   CORESO    CORESW    DEPTH   DEPTH_OR~ DPAA_TOH~ DPAP_72H~    DRHO      EHGR     FPRESS    FTEMP       GR     GR_CORE    GR_SM      HAZI      HCGR      HSGR      HTHO      HURA   MSFT_72H~ MSFT_72H~     PE     PHID_SS     POTA    RH72H_1D RH72H_1D~    RHO8      RHOZ    RV72H_1D RV72H_1D~    SDEV      TENS      TNPH   
# ...
9998.5000    3.5647    3.1744    2.9712    2.7056    2.9113   12.7079 -999.0000 -999.0000 -999.0000 -999.0000 -999.0000 -999.0000 -999.0000 -999.0000 -999.0000 9998.5000 -999.0000    0.0000   55.4666   -0.0106   61.8743 4467.7603  232.6230   53.3503 -999.0000 -999.0000    8.3040   42.6864   58.3333    7.8887    2.0303    0.0424    0.0180    2.7155    0.3464    0.9900    2.1343    2.1371    2.0967    2.0785    6.9967    5.5380   50.0673 4593.0000    0.2992 
9998.7500    3.5839    2.9989    2.8918    2.6321    2.8447   12.7188 -999.0000 -999.0000 -999.0000 -999.0000 -999.0000 -999.0000 -999.0000 -999.0000 -999.0000 9998.7500 -999.0000    0.0000   55.4666   -0.0104   63.8603 4467.8408  232.6265   54.0111 -999.0000 -999.0000    8.3061   43.6586   59.4463    8.0392    2.0789    0.0398    0.0180    2.5823    0.3472    1.0150    2.1343    2.1527    2.0759    2.0772    6.9967    4.9070   50.0594 4564.5000    0.3013 
9999.0000    3.5949    2.8602    2.8264    2.5720    2.7903   12.7297 -999.0000 -999.0000 -999.0000 -999.0000 -999.0000 -999.0000 -999.0000 -999.0000 -999.0000 9999.0000 -999.0000    0.0000   55.4666   -0.0101   68.6349 4467.9214  232.6300   54.6719 -999.0000 -999.0000    8.3083   44.6307   60.5593    8.1897    2.1275    0.0371    0.0180    2.4490    0.3479    1.0400    2.1343    2.1843    2.0551    2.0759    6.9967    4.3202   50.0515 4536.0000    0.3034 
9999.2500    3.5788    2.8627    2.8180    2.5667    2.7856   12.6861 -999.0000 -999.0000 -999.0000 -999.0000 -999.0000 -999.0000 -999.0000 -999.0000 -999.0000 9999.2500 -999.0000    0.0000   55.4666   -0.0092   69.9841 4468.0020  232.6335   53.7945 -999.0000 -999.0000    8.3106   45.2281   60.4282    8.4746    2.0256    0.0339    0.0181    2.5456    0.3487    1.0250    2.0107    2.2349    2.0796    2.0747    4.4419    3.8562   50.0551 4582.5000    0.3008 
9999.5000    3.5773    2.8826    2.8297    2.5821    2.8001   12.6425 -999.0000 -999.0000 -999.0000 -999.0000 -999.0000 -999.0000 -999.0000 -999.0000 -999.0000 9999.5000 -999.0000    0.0000   55.4666   -0.0083   65.7829 4468.0825  232.6370   52.9170 -999.0000 -999.0000    8.3129   45.8255   60.2972    8.7595    1.9236    0.0308    0.0182    2.6423    0.3493    1.0100    1.8871    2.2986    2.1041    2.0736    1.8871    3.5469   50.0588 4629.0000    0.2982 
9999.7500    3.6325    2.9705    2.9186    2.6765    2.8852   12.6716 -999.0000 -999.0000 -999.0000 -999.0000 -999.0000 -999.0000 -999.0000 -999.0000 -999.0000 9999.7500 -999.0000  177.3753   53.9237   -0.0083   55.8962 4468.1631  232.6405   51.3419 -999.0000 -999.0000    8.3141   45.6361   60.2102    8.8137    1.9268    0.0237    0.0170    2.6759    0.3535    0.9900    2.5612    2.3559    2.0709    2.0668    2.6120    3.3921   50.0622 4550.5000    0.3000 
10000.0000    3.6742    3.0422    2.9854    2.7446    2.9381   12.7007 -999.0000 -999.0000 -999.0000 -999.0000 -999.0000 -999.0000 -999.0000 -999.0000 -999.0000 10000.0000 -999.0000  354.7506   52.3809   -0.0084   55.9727 4468.2437  232.6440   49.7669 -999.0000 -999.0000    8.3154   45.4466   60.1231    8.8679    1.9299    0.0167    0.0158    2.7095    0.3576    0.9700    3.2353    2.3754    2.0377    2.0599    3.3368    3.3784   50.0657 4472.0000    0.3017 
10000.2500    3.6466    3.0364    2.9492    2.6917    2.8422   12.7425 -999.0000 -999.0000 -999.0000 -999.0000 -999.0000 -999.0000 -999.0000 -999.0000 -999.0000 10000.2500 -999.0000  354.7506   52.3809   -0.0077   61.0936 4468.3242  232.6475   50.0577 -999.0000 -999.0000    8.3149   47.6664   61.7526    9.2864    1.8376    0.0153    0.0154    2.6592    0.3558    1.0200    3.2353    2.3297    2.0364    2.0629    3.3368    3.4881   50.0549 4529.5000    0.2973 
10000.5000    3.5904    3.0196    2.9102    2.6387    2.7471   12.7843 -999.0000 -999.0000 -999.0000 -999.0000 -999.0000 -999.0000 -999.0000 -999.0000 -999.0000 10000.5000 -999.0000  354.7506   52.3809   -0.0070   58.2161 4468.4048  232.6510   50.3486 -999.0000 -999.0000    8.3145   49.8862   63.3822    9.7049    1.7452    0.0139    0.0150    2.6088    0.3540    1.0700    3.2353    2.2173    2.0352    2.0659    3.3368    3.6994   50.0441 4587.0000    0.2929 
10000.7500    3.3905    2.9465    2.8565    2.5846    2.6562   12.7461 -999.0000 -999.0000 -999.0000 -999.0000 -999.0000 -999.0000 -999.0000 -999.0000 -999.0000 10000.7500 -999.0000  354.7506   52.3809   -0.0069   60.4350 4468.4854  232.6545   53.3522 -999.0000 -999.0000    8.3118   51.5124   65.7093   10.0154    1.8234    0.0131    0.0146    2.6377    0.3470    1.1050    2.3919    2.0665    2.0596    2.0775    4.3144    3.9829   50.0412 4583.5000    0.2983 
10001.0000    3.2116    2.8766    2.8030    2.5293    2.5653   12.7079 -999.0000 -999.0000 -999.0000 -999.0000 -999.0000 -999.0000 -999.0000 -999.0000 -999.0000 10001.0000 -999.0000  354.7506   52.3809   -0.0067   67.7444 4468.5659  232.6580   56.3559 -999.0000 -999.0000    8.3091   53.1387   68.0364   10.3260    1.9015    0.0123    0.0143    2.6667    0.3400    1.1400    1.5485    1.9152    2.0839    2.0890    5.2920    4.2973   50.0383 4580.0000    0.3037 
10001.2500    3.1519    2.8234    2.7487    2.4658    2.4730   12.6715 -999.0000 -999.0000 -999.0000 -999.0000 -999.0000 -999.0000 -999.0000 -999.0000 -999.0000 10001.2500 -999.0000  354.7506   52.3809   -0.0067   71.8188 4468.6465  232.6615   58.9782 -999.0000 -999.0000    8.3043   53.4744   68.6379   10.4178    1.9666    0.0119    0.0139    2.7654    0.3298    1.1450    1.5485    1.7903    2.1312    2.1059    5.2920    4.5923   50.0319 4529.0000    0.3107 
10001.5000    3.0752    2.7627    2.6855    2.3981    2.3773   12.6352 -999.0000 -999.0000 -999.0000 -999.0000 -999.0000 -999.0000 -999.0000 -999.0000 -999.0000 10001.5000 -999.0000  354.7506   52.3809   -0.0068   75.5396 4468.7271  232.6650   61.6006 -999.0000 -999.0000    8.2996   53.8102   69.2394   10.5095    2.0317    0.0115    0.0135    2.8641    0.3195    1.1500    1.5485    1.7031    2.1785    2.1228    5.2920    4.8189   50.0255 4478.0000    0.3178 
10001.7500    2.8860    2.6506    2.5620    2.3011    2.2588   12.7043 -999.0000 -999.0000 -999.0000 -999.0000 -999.0000 -999.0000 -999.0000 -999.0000 -999.0000 10001.7500 -999.0000  354.7506   52.3809   -0.0070   77.9887 4468.8076  232.6685   62.0238 -999.0000 -999.0000    8.2986   53.8209   69.3273   10.5696    2.0827    0.0114    0.0132    2.7078    0.3124    1.1400    1.5485    1.6542    2.1485    2.1345    5.2920    4.9442   50.0206 4553.5000    0.3177 
10002.0000    2.7113    2.5366    2.4385    2.2046    2.1426   12.7734 -999.0000 -999.0000 -999.0000 -999.0000 -999.0000 -999.0000 -999.0000 -999.0000 -999.0000 10002.0000 -999.0000  354.7506   52.3809   -0.0072   78.1535 4468.8882  232.6720   62.4470 -999.0000 -999.0000    8.2977   53.8316   69.4153   10.6297    2.1337    0.0113    0.0129    2.5515    0.3053    1.1300    1.5485    1.6394    2.1186    2.1462    5.2920    4.9606   50.0157 4629.0000    0.3176 
10002.2500    2.6558    2.4120    2.3204    2.1152    2.0485   12.6753 -999.0000 -999.0000 -999.0000 -999.0000 -999.0000 -999.0000 -999.0000 -999.0000 -999.0000 10002.2500 -999.0000  354.7506   52.3809   -0.0063   78.2933 4468.9688  232.6755   61.1466 -999.0000 -999.0000    8.2977   54.0752   68.4436   10.7123    1.9816    0.0112    0.0126    2.6070    0.3070    1.1300    1.5485    1.6530    2.1574    2.1434    5.2920    4.8841   50.0206 4590.0000    0.3149 
10002.5000    2.6183    2.3061    2.2205    2.0399    1.9675   12.5771 -999.0000 -999.0000 -999.0000 -999.0000 -999.0000 -999.0000 -999.0000 -999.0000 -999.0000 10002.5000 -999.0000  354.7506   52.3809   -0.0055   71.0008 4469.0498  232.6790   59.8462 -999.0000 -999.0000    8.2976   54.3189   67.4719   10.7950    1.8295    0.0112    0.0122    2.6625    0.3087    1.1300    1.5485    1.6887    2.1962    2.1407    5.2920    4.7470   50.0256 4551.0000    0.3122 
10002.7500    2.7510    2.3780    2.2947    2.0992    2.0130   12.5607 -999.0000 -999.0000 -999.0000 -999.0000 -999.0000 -999.0000 -999.0000 -999.0000 -999.0000 10002.7500 -999.0000  354.7506   52.3809   -0.0060   66.8277 4469.1304  232.6825   57.6805 -999.0000 -999.0000    8.3029   53.2360   66.1786   10.6665    1.8012    0.0112    0.0119    2.7193    0.3161    1.0900    1.7559    1.7398    2.1726    2.1285    4.6570    4.5873   50.0454 4573.5000    0.2950 
