~VERSION INFORMATION
 VERS.                 2.0:   CWLS LOG ASCII STANDARD - VERSION 2.0
 WRAP.                  NO:   SINGLE LINE PER DEPTH STEP
 CREA.                 9/20/2016 5:41:23 PM
#CREATED USING IP VERSION 4.3.2015.327 BY MAP5249 ON 9/20/2016 5:41:23 PM
~WELL INFORMATION
#MNEM.UNIT       DATA                          DESCRIPTION MNEMONIC
#---------      ---------------------------   --------------------------
 STRT    .FT        9400.0000                 : START DEPTH
 STOP    .FT        10400.0000                : STOP DEPTH
 STEP    .FT        0.2500                    : STEP VALUE
 NULL    .      -999.0000                     : NULL VALUE
 DATE    .      9/20/2016                     : LAS file Creation Date
 WELL .      Chevron2009 : Well Name
 COMP .                  : Company
 FLD  .                  : Field
 UWI  .                  : Unique Well Identifier (UWI)
 LOC  .                  : Location
 LATI .      0           : Latitude/Northing
 LONG .      0           : Longitude/Easting
 RWS  .      -999        : Def_Rw
 WST  .      -999        : Def_Rwt
 PROV .                  : Province
 SRVC .                  : Contractor
~CURVE INFORMATION
#MNEM                   UNIT       API CODE   Curve Type Comments
#----------       --------------- ----------  ---------- -----------
 DEPTH           .FT                        : Depth       
 AT10            .OHMM                      : ShalRes     1       Array Induction Two Foot Resistivity A10
 AT20            .OHMM                      : MedRes      2       Array Induction Two Foot Resistivity A20
 AT30            .OHMM                      : MedRes      3       Array Induction Two Foot Resistivity A30
 AT60            .OHMM                      : MedRes      4       Array Induction Two Foot Resistivity A60
 AT90            .OHMM                      : DeepRes     5       Array Induction Two Foot Resistivity A90
 CALI            .IN                        : Caliper     "copied from HCAL_1 in WIRE set"
 CORE_FLAG       .                          :             Created using text_insert
 COREPERM        .MD                        :             
 COREPOR         .V/V                       :             COREPOR/100
 CORERHOB        .G/C3                      :             ((CORERHOG*(1-(COREPOR)))+COREPOR)
 CORERHOB_2SMT   .                          :             Output log
 CORERHOB_3SMT   .                          :             Output log
 CORERHOG        .G/C3                      :             
 CORESO          .V/V                       :             CORESO/100
 CORESW          .V/V                       :             CORESW/100
 DEPTH           .FT                        : Depth       
 DEPTH_ORIG      .Ft                        :             
 DPAA_TOH_72H_1D .DEG                       :             
 DPAP_72H_1D     .DEG                       :             
 DRHO            .G/C3                      : Drho        "copied from DRHO_1 in WIRE set"
 EHGR            .GAPI                      :             HiRes Gamma-Ray
 FPRESS          .PSI                       :             Formation/hydrostatic pressure
 FTEMP           .DEGF                      :             burnside gradient
 GR              .GAPI                      : GammaRay    "copied from GR_1 in WIRE set"
 GR_CORE         .GAPI                      :             
 GR_SM           .GAPI                      : GammaRay    
 HAZI            .DEG                       : Azimuth     Hole Azimuth
 HCGR            .GAPI                      :             HNGS Computed Gamma Ray
 HSGR            .GAPI                      :             HNGS Standard Gamma Ray
 HTHO            .PPM                       :             HNGS Formation Thorium Concentration
 HURA            .PPM                       :             HNGS Formation Uranium Concentration
 MSFT_72H_ALL_R  .                          :             
 MSFT_72H_ALL_X  .                          :             
 PE              .B/E                       : PEF         "copied from PE_1 in WIRE set"
 PHID_SS         .dec                       : Phi         
 POTA            .%                         : Spectral    POTA*100
 RH72H_1D        .OHM.M                     :             
 RH72H_1D_FLT    .OHM.M                     :             
 RHO8            .G/C3                      : Density     HRDD High Resolution Formation Density
 RHOZ            .G/C3                      : Density     HRDD Standard Resolution Formation Density
 RV72H_1D        .OHM.M                     :             
 RV72H_1D_FLT    .OHM.M                     :             
 SDEV            .DEG                       :             Sonde Deviation
 TENS            .LBF                       : Tension     Cable Tension
 TNPH            .V/V                       : Neutron     Thermal Neutron Porosity
~A  DEPTH    AT10      AT20      AT30      AT60      AT90      CALI   CORE_FLA~  COREPERM  COREPOR   CORERHOB CORERHOB~ CORERHOB~  CORERHOG   CORESO    CORESW    DEPTH   DEPTH_OR~ DPAA_TOH~ DPAP_72H~    DRHO      EHGR     FPRESS    FTEMP       GR     GR_CORE    GR_SM      HAZI      HCGR      HSGR      HTHO      HURA   MSFT_72H~ MSFT_72H~     PE     PHID_SS     POTA    RH72H_1D RH72H_1D~    RHO8      RHOZ    RV72H_1D RV72H_1D~    SDEV      TENS      TNPH   
# ...
10264.0000    1.0528    0.8831    0.8308    0.7789    0.7667   12.5480 -999.0000 -999.0000 -999.0000 -999.0000 -999.0000 -999.0000 -999.0000 -999.0000 -999.0000 10264.0000 -999.0000 -999.0000 -999.0000    0.0170  118.0122 4555.1240  236.4070   94.9705 -999.0000 -999.0000    8.4342   93.9518  103.3724   18.1789    1.3908 -999.0000 -999.0000    4.0512    0.1504    2.0300 -999.0000 -999.0000    2.4090    2.4019 -999.0000 -999.0000   47.8916 4629.0000    0.3758 
10264.2500    1.0500    0.8825    0.8314    0.7795    0.7665   12.5407 -999.0000 -999.0000 -999.0000 -999.0000 -999.0000 -999.0000 -999.0000 -999.0000 -999.0000 10264.2500 -999.0000 -999.0000 -999.0000    0.0187  115.8988 4555.2080  236.4105   97.1731 -999.0000 -999.0000    8.4372   92.1954  103.4681   17.6889    1.6797 -999.0000 -999.0000    4.0178    0.1495    2.0200 -999.0000 -999.0000    2.4006    2.4034 -999.0000 -999.0000   47.8936 4654.5000    0.3828 
10264.5000    1.0471    0.8819    0.8320    0.7800    0.7662   12.5334 -999.0000 -999.0000 -999.0000 -999.0000 -999.0000 -999.0000 -999.0000 -999.0000 -999.0000 10264.5000 -999.0000 -999.0000 -999.0000    0.0203  114.8940 4555.2920  236.4140   99.3757 -999.0000 -999.0000    8.4401   90.4389  103.5638   17.1988    1.9687 -999.0000 -999.0000    3.9845    0.1485    2.0100 -999.0000 -999.0000    2.3923    2.4050 -999.0000 -999.0000   47.8956 4680.0000    0.3898 
10264.7500    1.0443    0.8835    0.8321    0.7801    0.7678   12.5443 -999.0000 -999.0000 -999.0000 -999.0000 -999.0000 -999.0000 -999.0000 -999.0000 -999.0000 10264.7500 -999.0000 -999.0000 -999.0000    0.0215  119.4763 4555.3760  236.4175   97.6300 -999.0000 -999.0000    8.4407   92.1041  104.5563   17.3873    1.9387 -999.0000 -999.0000    4.0071    0.1485    2.0700 -999.0000 -999.0000    2.4114    2.4050 -999.0000 -999.0000   47.8946 4688.5000    0.4097 
10265.0000    1.0415    0.8850    0.8323    0.7802    0.7694   12.5553 -999.0000 -999.0000 -999.0000 -999.0000 -999.0000 -999.0000 -999.0000 -999.0000 -999.0000 10265.0000 -999.0000 -999.0000 -999.0000    0.0228  123.8797 4555.4600  236.4210   95.8843 -999.0000 -999.0000    8.4414   93.7693  105.5488   17.5758    1.9086 -999.0000 -999.0000    4.0297    0.1484    2.1300 -999.0000 -999.0000    2.4305    2.4051 -999.0000 -999.0000   47.8936 4697.0000    0.4297 
10265.2500    1.0444    0.8823    0.8301    0.7774    0.7684   12.5716 -999.0000 -999.0000 -999.0000 -999.0000 -999.0000 -999.0000 -999.0000 -999.0000 -999.0000 10265.2500 -999.0000 -999.0000 -999.0000    0.0242  119.6270 4555.5439  236.4248   94.5133 -999.0000 -999.0000    8.4401   93.0586  106.4463   17.4623    2.1362 -999.0000 -999.0000    3.9495    0.1491    2.1100 -999.0000 -999.0000    2.4112    2.4040 -999.0000 -999.0000   47.8896 4680.0000    0.4399 
10265.5000    1.0473    0.8796    0.8278    0.7746    0.7674   12.5880 -999.0000 -999.0000 -999.0000 -999.0000 -999.0000 -999.0000 -999.0000 -999.0000 -999.0000 10265.5000 -999.0000 -999.0000 -999.0000    0.0257  105.6213 4555.6279  236.4285   93.1423 -999.0000 -999.0000    8.4387   92.3479  107.3438   17.3489    2.3638 -999.0000 -999.0000    3.8692    0.1498    2.0900 -999.0000 -999.0000    2.3920    2.4029 -999.0000 -999.0000   47.8856 4663.0000    0.4502 
10265.7500    1.0582    0.8850    0.8352    0.7805    0.7717   12.5771 -999.0000 -999.0000 -999.0000 -999.0000 -999.0000 -999.0000 -999.0000 -999.0000 -999.0000 10265.7500 -999.0000 -999.0000 -999.0000    0.0269  100.8461 4555.7119  236.4323   90.5396 -999.0000 -999.0000    8.4382   92.1973  108.7833   17.4548    2.6198 -999.0000 -999.0000    3.8977    0.1523    2.0650 -999.0000 -999.0000    2.3908    2.3987 -999.0000 -999.0000   47.8790 4694.0000    0.4480 
10266.0000    1.0690    0.8905    0.8427    0.7864    0.7760   12.5662 -999.0000 -999.0000 -999.0000 -999.0000 -999.0000 -999.0000 -999.0000 -999.0000 -999.0000 10266.0000 -999.0000 -999.0000 -999.0000    0.0280  104.6439 4555.7959  236.4360   87.9368 -999.0000 -999.0000    8.4376   92.0468  110.2229   17.5607    2.8757 -999.0000 -999.0000    3.9263    0.1548    2.0400 -999.0000 -999.0000    2.3895    2.3946 -999.0000 -999.0000   47.8724 4725.0000    0.4458 
10266.2500    1.0773    0.8980    0.8457    0.7897    0.7798   12.5716 -999.0000 -999.0000 -999.0000 -999.0000 -999.0000 -999.0000 -999.0000 -999.0000 -999.0000 10266.2500 -999.0000 -999.0000 -999.0000    0.0293  103.4103 4555.8799  236.4395   87.1659 -999.0000 -999.0000    8.4354   92.3524  109.2055   17.5241    2.7062 -999.0000 -999.0000    3.9276    0.1566    2.0600 -999.0000 -999.0000    2.3957    2.3916 -999.0000 -999.0000   47.8659 4753.5000    0.4237 
10266.5000    1.0856    0.9056    0.8486    0.7931    0.7836   12.5771 -999.0000 -999.0000 -999.0000 -999.0000 -999.0000 -999.0000 -999.0000 -999.0000 -999.0000 10266.5000 -999.0000 -999.0000 -999.0000    0.0307  105.4872 4555.9644  236.4430   86.3950 -999.0000 -999.0000    8.4332   92.6581  108.1881   17.4875    2.5366 -999.0000 -999.0000    3.9289    0.1585    2.0800 -999.0000 -999.0000    2.4018    2.3885 -999.0000 -999.0000   47.8594 4782.0000    0.4015 
10266.7500    1.0855    0.9043    0.8494    0.7943    0.7850   12.5771 -999.0000 -999.0000 -999.0000 -999.0000 -999.0000 -999.0000 -999.0000 -999.0000 -999.0000 10266.7500 -999.0000 -999.0000 -999.0000    0.0313  102.1384 4556.0479  236.4465   85.6111 -999.0000 -999.0000    8.4335   91.8029  107.6044   17.3360    2.5781 -999.0000 -999.0000    3.9001    0.1576    2.0600 -999.0000 -999.0000    2.3924    2.3900 -999.0000 -999.0000   47.8638 4709.0000    0.3904 
10267.0000    1.0855    0.9029    0.8502    0.7956    0.7864   12.5771 -999.0000 -999.0000 -999.0000 -999.0000 -999.0000 -999.0000 -999.0000 -999.0000 -999.0000 10267.0000 -999.0000 -999.0000 -999.0000    0.0318  100.0477 4556.1323  236.4500   84.8272 -999.0000 -999.0000    8.4339   90.9477  107.0207   17.1845    2.6196 -999.0000 -999.0000    3.8713    0.1567    2.0400 -999.0000 -999.0000    2.3830    2.3914 -999.0000 -999.0000   47.8681 4636.0000    0.3793 
10267.2500    1.0794    0.9030    0.8510    0.7968    0.7879   12.5443 -999.0000 -999.0000 -999.0000 -999.0000 -999.0000 -999.0000 -999.0000 -999.0000 -999.0000 10267.2500 -999.0000 -999.0000 -999.0000    0.0309   99.0163 4556.2163  236.4538   85.7624 -999.0000 -999.0000    8.4334   89.5630  107.0207   16.6928    2.7985 -999.0000 -999.0000    3.9024    0.1550    2.0500 -999.0000 -999.0000    2.3880    2.3943 -999.0000 -999.0000   47.8608 4681.5000    0.3776 
10267.5000    1.0733    0.9031    0.8518    0.7980    0.7893   12.5116 -999.0000 -999.0000 -999.0000 -999.0000 -999.0000 -999.0000 -999.0000 -999.0000 -999.0000 10267.5000 -999.0000 -999.0000 -999.0000    0.0299   99.9554 4556.3003  236.4575   86.6975 -999.0000 -999.0000    8.4330   88.1784  107.0206   16.2010    2.9774 -999.0000 -999.0000    3.9335    0.1532    2.0600 -999.0000 -999.0000    2.3930    2.3973 -999.0000 -999.0000   47.8534 4727.0000    0.3759 
10267.7500    1.0862    0.9123    0.8570    0.8016    0.7932   12.5116 -999.0000 -999.0000 -999.0000 -999.0000 -999.0000 -999.0000 -999.0000 -999.0000 -999.0000 10267.7500 -999.0000 -999.0000 -999.0000    0.0278  102.1180 4556.3843  236.4612   87.8728 -999.0000 -999.0000    8.4337   87.6043  106.5820   16.1292    3.0289 -999.0000 -999.0000    3.9174    0.1523    2.0400 -999.0000 -999.0000    2.3974    2.3987 -999.0000 -999.0000   47.8528 4692.0000    0.3741 
10268.0000    1.0990    0.9215    0.8622    0.8053    0.7970   12.5116 -999.0000 -999.0000 -999.0000 -999.0000 -999.0000 -999.0000 -999.0000 -999.0000 -999.0000 10268.0000 -999.0000 -999.0000 -999.0000    0.0256  110.1430 4556.4683  236.4650   89.0482 -999.0000 -999.0000    8.4345   87.0302  106.1434   16.0573    3.0803 -999.0000 -999.0000    3.9012    0.1515    2.0200 -999.0000 -999.0000    2.4017    2.4001 -999.0000 -999.0000   47.8521 4657.0000    0.3722 
10268.2500    1.1143    0.9298    0.8706    0.8120    0.8028   12.4952 -999.0000 -999.0000 -999.0000 -999.0000 -999.0000 -999.0000 -999.0000 -999.0000 -999.0000 10268.2500 -999.0000 -999.0000 -999.0000    0.0236  112.9425 4556.5522  236.4685   89.8990 -999.0000 -999.0000    8.4335   88.8981  107.3896   16.2412    3.0160 -999.0000 -999.0000    3.9293    0.1512    2.0900 -999.0000 -999.0000    2.3985    2.4005 -999.0000 -999.0000   47.8465 4645.5000    0.3747 
