~VERSION INFORMATION
 VERS.                 2.0:   CWLS LOG ASCII STANDARD - VERSION 2.0
 WRAP.                  NO:   SINGLE LINE PER DEPTH STEP
 CREA.                 9/20/2016 5:41:23 PM
#CREATED USING IP VERSION 4.3.2015.327 BY MAP5249 ON 9/20/2016 5:41:23 PM
~WELL INFORMATION
#MNEM.UNIT       DATA                          DESCRIPTION MNEMONIC
#---------      ---------------------------   --------------------------
 STRT    .FT        9400.0000                 : START DEPTH
 STOP    .FT        10400.0000                : STOP DEPTH
 STEP    .FT        0.2500                    : STEP VALUE
 NULL    .      -999.0000                     : NULL VALUE
 DATE    .      9/20/2016                     : LAS file Creation Date
 WELL .      Chevron2009 : Well Name
 COMP .                  : Company
 FLD  .                  : Field
 UWI  .                  : Unique Well Identifier (UWI)
 LOC  .                  : Location
 LATI .      0           : Latitude/Northing
 LONG .      0           : Longitude/Easting
 RWS  .      -999        : Def_Rw
 WST  .      -999        : Def_Rwt
 PROV .                  : Province
 SRVC .                  : Contractor
~CURVE INFORMATION
#MNEM                   UNIT       API CODE   Curve Type Comments
#----------       --------------- ----------  ---------- -----------
 DEPTH           .FT                        : Depth       
 AT10            .OHMM                      : ShalRes     1       Array Induction Two Foot Resistivity A10
 AT20            .OHMM                      : MedRes      2       Array Induction Two Foot Resistivity A20
 AT30            .OHMM                      : MedRes      3       Array Induction Two Foot Resistivity A30
 AT60            .OHMM                      : MedRes      4       Array Induction Two Foot Resistivity A60
 AT90            .OHMM                      : DeepRes     5       Array Induction Two Foot Resistivity A90
 CALI            .IN                        : Caliper     "copied from HCAL_1 in WIRE set"
 CORE_FLAG       .                          :             Created using text_insert
 COREPERM        .MD                        :             
 COREPOR         .V/V                       :             COREPOR/100
 CORERHOB        .G/C3                      :             ((CORERHOG*(1-(COREPOR)))+COREPOR)
 CORERHOB_2SMT   .                          :             Output log
 CORERHOB_3SMT   .                          :             Output log
 CORERHOG        .G/C3                      :             
 CORESO          .V/V                       :             CORESO/100
 CORESW          .V/V                       :             CORESW/100
 DEPTH           .FT                        : Depth       
 DEPTH_ORIG      .Ft                        :             
 DPAA_TOH_72H_1D .DEG                       :             
 DPAP_72H_1D     .DEG                       :             
 DRHO            .G/C3                      : Drho        "copied from DRHO_1 in WIRE set"
 EHGR            .GAPI                      :             HiRes Gamma-Ray
 FPRESS          .PSI                       :             Formation/hydrostatic pressure
 FTEMP           .DEGF                      :             burnside gradient
 GR              .GAPI                      : GammaRay    "copied from GR_1 in WIRE set"
 GR_CORE         .GAPI                      :             
 GR_SM           .GAPI                      : GammaRay    
 HAZI            .DEG                       : Azimuth     Hole Azimuth
 HCGR            .GAPI                      :             HNGS Computed Gamma Ray
 HSGR            .GAPI                      :             HNGS Standard Gamma Ray
 HTHO            .PPM                       :             HNGS Formation Thorium Concentration
 HURA            .PPM                       :             HNGS Formation Uranium Concentration
 MSFT_72H_ALL_R  .                          :             
 MSFT_72H_ALL_X  .                          :             
 PE              .B/E                       : PEF         "copied from PE_1 in WIRE set"
 PHID_SS         .dec                       : Phi         
 POTA            .%                         : Spectral    POTA*100
 RH72H_1D        .OHM.M                     :             
 RH72H_1D_FLT    .OHM.M                     :             
 RHO8            .G/C3                      : Density     HRDD High Resolution Formation Density
 RHOZ            .G/C3                      : Density     HRDD Standard Resolution Formation Density
 RV72H_1D        .OHM.M                     :             
 RV72H_1D_FLT    .OHM.M                     :             
 SDEV            .DEG                       :             Sonde Deviation
 TENS            .LBF                       : Tension     Cable Tension
 TNPH            .V/V                       : Neutron     Thermal Neutron Porosity
~A  DEPTH    AT10      AT20      AT30      AT60      AT90      CALI   CORE_FLA~  COREPERM  COREPOR   CORERHOB CORERHOB~ CORERHOB~  CORERHOG   CORESO    CORESW    DEPTH   DEPTH_OR~ DPAA_TOH~ DPAP_72H~    DRHO      EHGR     FPRESS    FTEMP       GR     GR_CORE    GR_SM      HAZI      HCGR      HSGR      HTHO      HURA   MSFT_72H~ MSFT_72H~     PE     PHID_SS     POTA    RH72H_1D RH72H_1D~    RHO8      RHOZ    RV72H_1D RV72H_1D~    SDEV      TENS      TNPH   
# ...
9863.5000    2.3910    2.1276    2.0740    1.9198    1.9110   12.5771 -999.0000    4.8600    0.2118    2.3399    2.2621    2.2730    2.7000    0.0750    0.6620 9863.5000 9856.0303    5.8146   58.3135   -0.0003   87.8910 4424.7773  230.7610   72.6955   55.0800   43.8720    8.6678   74.1094   83.5254   15.4591    1.3473    0.0139    0.0135    3.1487    0.2272    1.4100    1.3973    1.3704    2.3072    2.2752   11.9236   10.7674   50.9721 4394.0000    0.3415 
9863.7500    2.4443    2.2771    2.2683    2.0729    2.0731   12.5880 -999.0000 -999.0000 -999.0000 -999.0000 -999.0000 -999.0000 -999.0000 -999.0000 -999.0000 9863.7500 9856.2900    5.8146   58.3135    0.0016   90.5838 4424.8560  230.7645   73.5215   43.1100   43.9200    8.6607   74.3886   84.6292   15.6390    1.4674    0.0137    0.0137    3.2939    0.2232    1.3950    1.3973    1.3657    2.3139    2.2818   11.9236   10.5244   50.9606 4376.5000    0.3405 
9864.0000    2.4558    2.2743    2.2788    2.0893    2.0616   12.5989 -999.0000 -999.0000 -999.0000 -999.0000 -999.0000 -999.0000 -999.0000 -999.0000 -999.0000 9864.0000 9856.5400    5.8146   58.3135    0.0036   89.3327 4424.9346  230.7680   74.3475   42.6300   44.0160    8.6535   74.6678   85.7331   15.8189    1.5875    0.0136    0.0139    3.4392    0.2192    1.3800    1.3973    1.3491    2.3206    2.2884   11.9236    9.8320   50.9490 4359.0000    0.3396 
9864.2500    2.4346    2.1338    2.1203    1.9811    1.8909   12.6207 -999.0000 -999.0000 -999.0000 -999.0000 -999.0000 -999.0000 -999.0000 -999.0000 -999.0000 9864.2500 9856.7900    5.8146   58.3135    0.0049   87.4178 4425.0132  230.7713   74.0277   52.6800   44.3510    8.6453   74.0878   85.4404   15.5413    1.6305    0.0136    0.0141    3.3468    0.2210    1.4000    1.3973    1.3223    2.2901    2.2854   11.9236    8.8570   50.9327 4283.0000    0.3420 
9864.5000    2.4425    2.0283    1.9924    1.8986    1.7489   12.6425 -999.0000    7.7700    0.2261    2.2947    2.2396    2.2730    2.6730    0.0960    0.5460 9864.5000 9857.0596    5.8146   58.3135    0.0063   90.3526 4425.0923  230.7745   73.7078   36.4000   44.2070    8.6370   73.5078   85.1477   15.2638    1.6734    0.0136    0.0143    3.2544    0.2228    1.4200    1.3973    1.2882    2.2595    2.2824   11.9236    7.8092   50.9164 4207.0000    0.3444 
9864.7500    2.4840    1.9736    1.9156    1.8529    1.6568   12.6425 -999.0000 -999.0000 -999.0000 -999.0000 -999.0000 -999.0000 -999.0000 -999.0000 -999.0000 9864.7500 9857.3096    5.8146   58.3135    0.0066   94.6133 4425.1709  230.7778   75.9000   52.6800   41.5730    8.6390   74.4568   85.7368   15.5841    1.6315    0.0127    0.0144    3.2017    0.2271    1.4150    1.2633    1.2511    2.2660    2.2753    8.2773    6.8599   50.9266 4323.5000    0.3495 
9865.0000    2.5403    1.9798    1.9181    1.8502    1.6469   12.6425 -999.0000 -999.0000 -999.0000 -999.0000 -999.0000 -999.0000 -999.0000 -999.0000 -999.0000 9865.0000 9857.5596    5.8146   58.3135    0.0068   84.6563 4425.2495  230.7810   78.0922   37.8400   40.1840    8.6411   75.4059   86.3260   15.9045    1.5897    0.0118    0.0144    3.1489    0.2315    1.4100    1.1294    1.2159    2.2725    2.2681    4.6311    6.0991   50.9368 4440.0000    0.3546 
9865.2500    2.6150    2.0584    2.0050    1.8939    1.7242   12.6316 -999.0000 -999.0000 -999.0000 -999.0000 -999.0000 -999.0000 -999.0000 -999.0000 -999.0000 9865.2500 9857.8096    5.8146   58.3135    0.0062   88.8022 4425.3281  230.7845   77.2546   39.7500   39.8480    8.6392   75.0197   85.3270   15.7782    1.5033    0.0124    0.0146    3.1267    0.2381    1.4100    1.1294    1.1864    2.2703    2.2571    4.6311    5.5465   50.9366 4421.5000    0.3490 
9865.5000    2.6982    2.1634    2.0851    1.9369    1.7934   12.6207 -999.0000  193.0000    0.2882    2.1844    2.2355    2.2355    2.6640    0.2740    0.3000 9865.5000 9858.0703    5.8146   58.3135    0.0056  105.2365 4425.4072  230.7880   76.4169   45.9800   38.4120    8.6372   74.6334   84.3279   15.6518    1.4170    0.0130    0.0149    3.1046    0.2448    1.4100    1.1294    1.1648    2.2682    2.2460    4.6311    5.1846   50.9363 4403.0000    0.3434 
9865.7500    2.7846    2.2946    2.1556    1.9783    1.8527   12.5626 -999.0000 -999.0000 -999.0000 -999.0000 -999.0000 -999.0000 -999.0000 -999.0000 -999.0000 9865.7500 9858.3203    5.8146   58.3135    0.0042   94.1979 4425.4858  230.7915   75.0331   35.9200   38.1250    8.6337   73.4791   83.0732   15.7199    1.4826    0.0140    0.0151    3.1357    0.2516    1.3350    1.1294    1.1518    2.2425    2.2349    4.6311    4.9866   50.9285 4382.0000    0.3418 
9866.0000    2.8448    2.4096    2.2188    2.0168    1.9101   12.5044 -999.0000 -999.0000 -999.0000 -999.0000 -999.0000 -999.0000 -999.0000 -999.0000 -999.0000 9866.0000 9858.5703    5.8146   58.3135    0.0028   83.4374 4425.5645  230.7950   73.6493   28.7400   35.9220    8.6302   72.3249   81.8184   15.7880    1.5482    0.0150    0.0154    3.1669    0.2583    1.2600    1.1294    1.1473    2.2168    2.2238    4.6311    4.9329   50.9206 4361.0000    0.3403 
9866.2500    2.8688    2.4965    2.2696    2.0431    1.9656   12.5153 -999.0000 -999.0000 -999.0000 -999.0000 -999.0000 -999.0000 -999.0000 -999.0000 -999.0000 9866.2500 9858.8301    5.8146   58.3135    0.0019   79.3571 4425.6431  230.7985   70.1163   29.2200   36.4960    8.6274   68.8114   79.3906   14.8280    1.6147    0.0158    0.0156    3.1511    0.2639    1.2300    1.1294    1.1512    2.2114    2.2146    4.6311    5.0199   50.9206 4415.5000    0.3349 
9866.5000    2.8771    2.5495    2.3063    2.0352    2.0232   12.5262 -999.0000   38.7000    0.2733    2.2274    2.2474    2.2474    2.6890    0.1920    0.4750 9866.5000 9859.0801    5.8146   58.3135    0.0009   74.9313 4425.7222  230.8020   66.5834   39.2700   36.6880    8.6246   65.2979   76.9629   13.8681    1.6812    0.0167    0.0157    3.1353    0.2695    1.2000    1.1294    1.1633    2.2061    2.2054    4.6311    5.2631   50.9205 4470.0000    0.3294 
9866.7500    2.8559    2.5486    2.3134    1.9826    2.0673   12.4790 -999.0000 -999.0000 -999.0000 -999.0000 -999.0000 -999.0000 -999.0000 -999.0000 -999.0000 9866.7500 9859.3301    5.8146   58.3135   -0.0002   77.7090 4425.8008  230.8055   66.1803   38.3200   37.5500    8.6207   65.8090   76.8107   14.0864    1.6091    0.0174    0.0158    3.1690    0.2663    1.1950    1.1294    1.1838    2.2108    2.2106    4.6311    5.6966   50.9207 4490.0000    0.3262 
9867.0000    2.7987    2.5092    2.2748    1.9297    2.0455   12.4317 -999.0000 -999.0000 -999.0000 -999.0000 -999.0000 -999.0000 -999.0000 -999.0000 -999.0000 9867.0000 9859.5801    5.8146   58.3135   -0.0013   79.0927 4425.8799  230.8090   65.7771   33.5300   38.5560    8.6168   66.3202   76.6584   14.3047    1.5371    0.0180    0.0159    3.2027    0.2632    1.1900    1.1294    1.2119    2.2156    2.2158    4.6311    6.3670   50.9208 4510.0000    0.3230 
9867.2500    2.6954    2.4177    2.1811    1.8840    1.9441   12.4662 -999.0000 -999.0000 -999.0000 -999.0000 -999.0000 -999.0000 -999.0000 -999.0000 -999.0000 9867.2500 9859.8301    5.8146   58.3135    0.0000   79.5336 4425.9585  230.8123   68.2721   30.6500   40.4240    8.6140   65.9544   77.4512   14.1174    1.7186    0.0186    0.0160    3.1070    0.2539    1.2000    1.2564    1.2454    2.2184    2.2310    9.6478    7.3171   50.9308 4424.5000    0.3267 
9867.5000    2.6072    2.3314    2.1197    1.8687    1.8883   12.5007 -999.0000    4.7400    0.2193    2.3303    2.2723    2.2723    2.7040    0.0660    0.6650 9867.5000 9860.0801    5.8146   58.3135    0.0014   80.6600 4426.0376  230.8155   70.7672   43.5800   42.0040    8.6112   65.5886   78.2440   13.9301    1.9002    0.0192    0.0160    3.0113    0.2447    1.2100    1.3834    1.2808    2.2212    2.2463   14.6644    8.5487   50.9409 4339.0000    0.3304 
9867.7500    2.5384    2.2542    2.0996    1.8925    1.8928   12.5170 -999.0000 -999.0000 -999.0000 -999.0000 -999.0000 -999.0000 -999.0000 -999.0000 -999.0000 9867.7500 9860.3301    5.8146   58.3135    0.0025   89.5633 4426.1162  230.8188   72.2116   41.6700   42.7710    8.6127   67.9292   81.1842   14.3705    1.9738    0.0198    0.0161    3.1898    0.2352    1.2650    1.3834    1.3137    2.2657    2.2619   14.6644    9.9563   50.9520 4397.5000    0.3422 
