~VERSION INFORMATION
 VERS.                 2.0:   CWLS LOG ASCII STANDARD - VERSION 2.0
 WRAP.                  NO:   SINGLE LINE PER DEPTH STEP
 CREA.                 9/20/2016 5:41:23 PM
#CREATED USING IP VERSION 4.3.2015.327 BY MAP5249 ON 9/20/2016 5:41:23 PM
~WELL INFORMATION
#MNEM.UNIT       DATA                          DESCRIPTION MNEMONIC
#---------      ---------------------------   --------------------------
 STRT    .FT        9400.0000                 : START DEPTH
 STOP    .FT        10400.0000                : STOP DEPTH
 STEP    .FT        0.2500                    : STEP VALUE
 NULL    .      -999.0000                     : NULL VALUE
 DATE    .      9/20/2016                     : LAS file Creation Date
 WELL .      Chevron2009 : Well Name
 COMP .                  : Company
 FLD  .                  : Field
 UWI  .                  : Unique Well Identifier (UWI)
 LOC  .                  : Location
 LATI .      0           : Latitude/Northing
 LONG .      0           : Longitude/Easting
 RWS  .      -999        : Def_Rw
 WST  .      -999        : Def_Rwt
 PROV .                  : Province
 SRVC .                  : Contractor
~CURVE INFORMATION
#MNEM                   UNIT       API CODE   Curve Type Comments
#----------       --------------- ----------  ---------- -----------
 DEPTH           .FT                        : Depth       
 AT10            .OHMM                      : ShalRes     1       Array Induction Two Foot Resistivity A10
 AT20            .OHMM                      : MedRes      2       Array Induction Two Foot Resistivity A20
 AT30            .OHMM                      : MedRes      3       Array Induction Two Foot Resistivity A30
 AT60            .OHMM                      : MedRes      4       Array Induction Two Foot Resistivity A60
 AT90            .OHMM                      : DeepRes     5       Array Induction Two Foot Resistivity A90
 CALI            .IN                        : Caliper     "copied from HCAL_1 in WIRE set"
 CORE_FLAG       .                          :             Created using text_insert
 COREPERM        .MD                        :             
 COREPOR         .V/V                       :             COREPOR/100
 CORERHOB        .G/C3                      :             ((CORERHOG*(1-(COREPOR)))+COREPOR)
 CORERHOB_2SMT   .                          :             Output log
 CORERHOB_3SMT   .                          :             Output log
 CORERHOG        .G/C3                      :             
 CORESO          .V/V                       :             CORESO/100
 CORESW          .V/V                       :             CORESW/100
 DEPTH           .FT                        : Depth       
 DEPTH_ORIG      .Ft                        :             
 DPAA_TOH_72H_1D .DEG                       :             
 DPAP_72H_1D     .DEG                       :             
 DRHO            .G/C3                      : Drho        "copied from DRHO_1 in WIRE set"
 EHGR            .GAPI                      :             HiRes Gamma-Ray
 FPRESS          .PSI                       :             Formation/hydrostatic pressure
 FTEMP           .DEGF                      :             burnside gradient
 GR              .GAPI                      : GammaRay    "copied from GR_1 in WIRE set"
 GR_CORE         .GAPI                      :             
 GR_SM           .GAPI                      : GammaRay    
 HAZI            .DEG                       : Azimuth     Hole Azimuth
 HCGR            .GAPI                      :             HNGS Computed Gamma Ray
 HSGR            .GAPI                      :             HNGS Standard Gamma Ray
 HTHO            .PPM                       :             HNGS Formation Thorium Concentration
 HURA            .PPM                       :             HNGS Formation Uranium Concentration
 MSFT_72H_ALL_R  .                          :             
 MSFT_72H_ALL_X  .                          :             
 PE              .B/E                       : PEF         "copied from PE_1 in WIRE set"
 PHID_SS         .dec                       : Phi         
 POTA            .%                         : Spectral    POTA*100
 RH72H_1D        .OHM.M                     :             
 RH72H_1D_FLT    .OHM.M                     :             
 RHO8            .G/C3                      : Density     HRDD High Resolution Formation Density
 RHOZ            .G/C3                      : Density     HRDD Standard Resolution Formation Density
 RV72H_1D        .OHM.M                     :             
 RV72H_1D_FLT    .OHM.M                     :             
 SDEV            .DEG                       :             Sonde Deviation
 TENS            .LBF                       : Tension     Cable Tension
 TNPH            .V/V                       : Neutron     Thermal Neutron Porosity
~A  DEPTH    AT10      AT20      AT30      AT60      AT90      CALI   CORE_FLA~  COREPERM  COREPOR   CORERHOB CORERHOB~ CORERHOB~  CORERHOG   CORESO    CORESW    DEPTH   DEPTH_OR~ DPAA_TOH~ DPAP_72H~    DRHO      EHGR     FPRESS    FTEMP       GR     GR_CORE    GR_SM      HAZI      HCGR      HSGR      HTHO      HURA   MSFT_72H~ MSFT_72H~     PE     PHID_SS     POTA    RH72H_1D RH72H_1D~    RHO8      RHOZ    RV72H_1D RV72H_1D~    SDEV      TENS      TNPH   
# ...
10129.0000    0.5694    0.4811    0.4427    0.4117    0.3983   12.6352 -999.0000 -999.0000 -999.0000 -999.0000 -999.0000 -999.0000 -999.0000 -999.0000 -999.0000 10129.0000 -999.0000  349.5105   26.7250   -0.0019   72.8990 4510.2593  234.4630   56.7180 -999.0000 -999.0000    8.1930   51.4729   58.6251    8.4886    1.1712    0.0141    0.0214    2.9543    0.2859    1.3700    0.3506    0.3931    2.1624    2.1783    5.8522    1.8568   49.1287 4426.0000    0.3582 
10129.2500    0.6030    0.5006    0.4634    0.4325    0.4171   12.6534 -999.0000 -999.0000 -999.0000 -999.0000 -999.0000 -999.0000 -999.0000 -999.0000 -999.0000 10129.2500 -999.0000  349.5105   26.7250   -0.0081   69.7655 4510.3413  234.4668   55.5078 -999.0000 -999.0000    8.1916   50.4319   56.8863    8.5239    1.0766    0.0134    0.0211    2.8200    0.2963    1.3050    0.3506    0.3908    2.1267    2.1611    5.8522    2.4829   49.1289 4490.0000    0.3399 
10129.5000    0.6367    0.5202    0.4841    0.4534    0.4360   12.6716 -999.0000 -999.0000 -999.0000 -999.0000 -999.0000 -999.0000 -999.0000 -999.0000 -999.0000 10129.5000 -999.0000  349.5105   26.7250   -0.0143   64.8625 4510.4238  234.4705   54.2975 -999.0000 -999.0000    8.1902   49.3910   55.1476    8.5592    0.9819    0.0127    0.0208    2.6857    0.3067    1.2400    0.3506    0.3933    2.0911    2.1440    5.8522    3.3224   49.1292 4554.0000    0.3217 
10129.7500    0.7166    0.5470    0.5082    0.4743    0.4562   12.6897 -999.0000 -999.0000 -999.0000 -999.0000 -999.0000 -999.0000 -999.0000 -999.0000 -999.0000 10129.7500 -999.0000  350.9443   28.4782   -0.0182   62.1358 4510.5059  234.4742   53.3614 -999.0000 -999.0000    8.1890   50.6916   56.0311    8.9945    0.9297    0.0136    0.0262    2.7762    0.3062    1.2350    0.3968    0.3999    2.1105    2.1448    6.3109    4.2677   49.1249 4523.0000    0.3149 
10130.0000    0.7965    0.5739    0.5324    0.4953    0.4764   12.7079 -999.0000 -999.0000 -999.0000 -999.0000 -999.0000 -999.0000 -999.0000 -999.0000 -999.0000 10130.0000 -999.0000  352.3782   30.2314   -0.0222   58.8546 4510.5879  234.4780   52.4253 -999.0000 -999.0000    8.1879   51.9923   56.9146    9.4298    0.8775    0.0144    0.0315    2.8667    0.3057    1.2300    0.4429    0.4091    2.1299    2.1456    6.7696    5.0291   49.1206 4492.0000    0.3081 
10130.2500    0.7843    0.5734    0.5407    0.5055    0.4858   12.7407 -999.0000 -999.0000 -999.0000 -999.0000 -999.0000 -999.0000 -999.0000 -999.0000 -999.0000 10130.2500 -999.0000  352.3782   30.2314   -0.0199   56.3727 4510.6699  234.4815   54.1324 -999.0000 -999.0000    8.1866   56.7186   62.2761   10.3075    1.0257    0.0146    0.0309    3.0357    0.2925    1.3400    0.4429    0.4191    2.1804    2.1673    6.7696    5.2337   49.1180 4471.5000    0.3077 
10130.5000    0.7722    0.5729    0.5491    0.5157    0.4951   12.7734 -999.0000 -999.0000 -999.0000 -999.0000 -999.0000 -999.0000 -999.0000 -999.0000 -999.0000 10130.5000 -999.0000  352.3782   30.2314   -0.0176   66.4583 4510.7524  234.4850   55.8394 -999.0000 -999.0000    8.1852   61.4449   67.6376   11.1851    1.1739    0.0149    0.0302    3.2046    0.2794    1.4500    0.4429    0.4281    2.2309    2.1890    6.7696    4.7064   49.1154 4451.0000    0.3074 
10130.7500    0.7410    0.5516    0.5263    0.4942    0.4806   12.7952 -999.0000 -999.0000 -999.0000 -999.0000 -999.0000 -999.0000 -999.0000 -999.0000 -999.0000 10130.7500 -999.0000  352.3782   30.2314   -0.0127   81.0833 4510.8345  234.4885   58.7566 -999.0000 -999.0000    8.1848   62.1509   69.0654   11.2701    1.3094    0.0151    0.0299    3.2287    0.2638    1.4750    0.4429    0.4351    2.2410    2.2147    6.7696    3.6877   49.1073 4516.5000    0.3110 
10131.0000    0.7098    0.5302    0.5035    0.4726    0.4661   12.8170 -999.0000 -999.0000 -999.0000 -999.0000 -999.0000 -999.0000 -999.0000 -999.0000 -999.0000 10131.0000 -999.0000  352.3782   30.2314   -0.0079   76.9123 4510.9170  234.4920   61.6739 -999.0000 -999.0000    8.1844   62.8569   70.4931   11.3551    1.4449    0.0153    0.0295    3.2528    0.2482    1.5000    0.4429    0.4400    2.2510    2.2404    6.7696    2.6346   49.0991 4582.0000    0.3146 
10131.2500    0.6798    0.5244    0.4952    0.4665    0.4609   12.7843 -999.0000 -999.0000 -999.0000 -999.0000 -999.0000 -999.0000 -999.0000 -999.0000 -999.0000 10131.2500 -999.0000  352.3782   30.2314   -0.0028   75.4059 4510.9990  234.4955   61.3473 -999.0000 -999.0000    8.1798   63.6958   71.8825   11.5250    1.5320    0.0151    0.0291    3.2978    0.2348    1.5150    0.4429    0.4433    2.2820    2.2625    6.7696    1.8246   49.0955 4535.5000    0.3058 
10131.5000    0.6499    0.5186    0.4870    0.4604    0.4557   12.7515 -999.0000 -999.0000 -999.0000 -999.0000 -999.0000 -999.0000 -999.0000 -999.0000 -999.0000 10131.5000 -999.0000  352.3782   30.2314    0.0022   79.5353 4511.0815  234.4990   61.0207 -999.0000 -999.0000    8.1751   64.5347   73.2719   11.6948    1.6191    0.0150    0.0288    3.3428    0.2215    1.5300    0.4429    0.4457    2.3131    2.2846    6.7696    1.2872   49.0918 4489.0000    0.2969 
10131.7500    0.6409    0.5157    0.4851    0.4591    0.4593   12.7460 -999.0000 -999.0000 -999.0000 -999.0000 -999.0000 -999.0000 -999.0000 -999.0000 -999.0000 10131.7500 -999.0000  352.3782   30.2314    0.0051   69.3215 4511.1636  234.5025   62.3133 -999.0000 -999.0000    8.1721   62.4655   72.4382   11.5231    1.7648    0.0144    0.0279    3.3772    0.2157    1.4500    0.4479    0.4475    2.3275    2.2941    3.6112    0.9519   49.0852 4545.5000    0.2916 
10132.0000    0.6319    0.5128    0.4831    0.4579    0.4629   12.7406 -999.0000 -999.0000 -999.0000 -999.0000 -999.0000 -999.0000 -999.0000 -999.0000 -999.0000 10132.0000 -999.0000  352.3782   30.2314    0.0080   63.0477 4511.2461  234.5060   63.6060 -999.0000 -999.0000    8.1690   60.3963   71.6045   11.3514    1.9105    0.0137    0.0270    3.4116    0.2099    1.3700    0.4528    0.4491    2.3419    2.3036    0.4528    0.7469   49.0786 4602.0000    0.2864 
10132.2500    0.6213    0.5121    0.4798    0.4555    0.4617   12.7842 -999.0000 -999.0000 -999.0000 -999.0000 -999.0000 -999.0000 -999.0000 -999.0000 -999.0000 10132.2500 -999.0000  352.3782   30.2314    0.0062   73.8164 4511.3281  234.5095   64.1545 -999.0000 -999.0000    8.1658   61.9305   72.5417   11.6817    1.8475    0.0128    0.0259    3.3674    0.2169    1.3950    0.4528    0.4503    2.2851    2.2921    0.4528    0.6229   49.0714 4607.5000    0.3001 
10132.5000    0.6107    0.5113    0.4766    0.4532    0.4605   12.8279 -999.0000 -999.0000 -999.0000 -999.0000 -999.0000 -999.0000 -999.0000 -999.0000 -999.0000 10132.5000 -999.0000  352.3782   30.2314    0.0043   87.0292 4511.4106  234.5130   64.7030 -999.0000 -999.0000    8.1627   63.4647   73.4789   12.0120    1.7845    0.0118    0.0248    3.3232    0.2239    1.4200    0.4528    0.4512    2.2283    2.2806    0.4528    0.5499   49.0642 4613.0000    0.3139 
10132.7500    0.5989    0.5051    0.4684    0.4461    0.4532   12.6153 -999.0000 -999.0000 -999.0000 -999.0000 -999.0000 -999.0000 -999.0000 -999.0000 -999.0000 10132.7500 -999.0000  352.3782   30.2314    0.0030   88.5364 4511.4927  234.5165   67.3975 -999.0000 -999.0000    8.1628   62.4563   71.5234   11.7309    1.6237    0.0116    0.0238    3.3232    0.2302    1.4150    0.4528    0.4517    2.2440    2.2701    0.4528    0.5104   49.0667 4579.0000    0.3342 
10133.0000    0.5872    0.4989    0.4601    0.4390    0.4458   12.4026 -999.0000 -999.0000 -999.0000 -999.0000 -999.0000 -999.0000 -999.0000 -999.0000 -999.0000 10133.0000 -999.0000  352.3782   30.2314    0.0016   82.0983 4511.5747  234.5200   70.0919 -999.0000 -999.0000    8.1630   61.4479   69.5679   11.4498    1.4629    0.0115    0.0229    3.3233    0.2366    1.4100    0.4528    0.4518    2.2596    2.2596    0.4528    0.4949   49.0691 4545.0000    0.3546 
10133.2500    0.6036    0.5056    0.4668    0.4439    0.4479   12.4571 -999.0000 -999.0000 -999.0000 -999.0000 -999.0000 -999.0000 -999.0000 -999.0000 -999.0000 10133.2500 -999.0000  352.3782   30.2314   -0.0010   81.7257 4511.6567  234.5238   67.4134 -999.0000 -999.0000    8.1645   58.8213   67.1240   11.0481    1.4734    0.0119    0.0223    3.2712    0.2453    1.3350    0.4528    0.4514    2.2517    2.2452    0.4528    0.4992   49.0806 4625.0000    0.3589 
