~VERSION INFORMATION
 VERS.                 2.0:   CWLS LOG ASCII STANDARD - VERSION 2.0
 WRAP.                  NO:   SINGLE LINE PER DEPTH STEP
 CREA.                 9/20/2016 5:41:23 PM
#CREATED USING IP VERSION 4.3.2015.327 BY MAP5249 ON 9/20/2016 5:41:23 PM
~WELL INFORMATION
#MNEM.UNIT       DATA                          DESCRIPTION MNEMONIC
#---------      ---------------------------   --------------------------
 STRT    .FT        9400.0000                 : START DEPTH
 STOP    .FT        10400.0000                : STOP DEPTH
 STEP    .FT        0.2500                    : STEP VALUE
 NULL    .      -999.0000                     : NULL VALUE
 DATE    .      9/20/2016                     : LAS file Creation Date
 WELL .      Chevron2009 : Well Name
 COMP .                  : Company
 FLD  .                  : Field
 UWI  .                  : Unique Well Identifier (UWI)
 LOC  .                  : Location
 LATI .      0           : Latitude/Northing
 LONG .      0           : Longitude/Easting
 RWS  .      -999        : Def_Rw
 WST  .      -999        : Def_Rwt
 PROV .                  : Province
 SRVC .                  : Contractor
~CURVE INFORMATION
#MNEM                   UNIT       API CODE   Curve Type Comments
#----------       --------------- ----------  ---------- -----------
 DEPTH           .FT                        : Depth       
 AT10            .OHMM                      : ShalRes     1       Array Induction Two Foot Resistivity A10
 AT20            .OHMM                      : MedRes      2       Array Induction Two Foot Resistivity A20
 AT30            .OHMM                      : MedRes      3       Array Induction Two Foot Resistivity A30
 AT60            .OHMM                      : MedRes      4       Array Induction Two Foot Resistivity A60
 AT90            .OHMM                      : DeepRes     5       Array Induction Two Foot Resistivity A90
 CALI            .IN                        : Caliper     "copied from HCAL_1 in WIRE set"
 CORE_FLAG       .                          :             Created using text_insert
 COREPERM        .MD                        :             
 COREPOR         .V/V                       :             COREPOR/100
 CORERHOB        .G/C3                      :             ((CORERHOG*(1-(COREPOR)))+COREPOR)
 CORERHOB_2SMT   .                          :             Output log
 CORERHOB_3SMT   .                          :             Output log
 CORERHOG        .G/C3                      :             
 CORESO          .V/V                       :             CORESO/100
 CORESW          .V/V                       :             CORESW/100
 DEPTH           .FT                        : Depth       
 DEPTH_ORIG      .Ft                        :             
 DPAA_TOH_72H_1D .DEG                       :             
 DPAP_72H_1D     .DEG                       :             
 DRHO            .G/C3                      : Drho        "copied from DRHO_1 in WIRE set"
 EHGR            .GAPI                      :             HiRes Gamma-Ray
 FPRESS          .PSI                       :             Formation/hydrostatic pressure
 FTEMP           .DEGF                      :             burnside gradient
 GR              .GAPI                      : GammaRay    "copied from GR_1 in WIRE set"
 GR_CORE         .GAPI                      :             
 GR_SM           .GAPI                      : GammaRay    
 HAZI            .DEG                       : Azimuth     Hole Azimuth
 HCGR            .GAPI                      :             HNGS Computed Gamma Ray
 HSGR            .GAPI                      :             HNGS Standard Gamma Ray
 HTHO            .PPM                       :             HNGS Formation Thorium Concentration
 HURA            .PPM                       :             HNGS Formation Uranium Concentration
 MSFT_72H_ALL_R  .                          :             
 MSFT_72H_ALL_X  .                          :             
 PE              .B/E                       : PEF         "copied from PE_1 in WIRE set"
 PHID_SS         .dec                       : Phi         
 POTA            .%                         : Spectral    POTA*100
 RH72H_1D        .OHM.M                     :             
 RH72H_1D_FLT    .OHM.M                     :             
 RHO8            .G/C3                      : Density     HRDD High Resolution Formation Density
 RHOZ            .G/C3                      : Density     HRDD Standard Resolution Formation Density
 RV72H_1D        .OHM.M                     :             
 RV72H_1D_FLT    .OHM.M                     :             
 SDEV            .DEG                       :             Sonde Deviation
 TENS            .LBF                       : Tension     Cable Tension
 TNPH            .V/V                       : Neutron     Thermal Neutron Porosity
~A  DEPTH    AT10      AT20      AT30      AT60      AT90      CALI   CORE_FLA~  COREPERM  COREPOR   CORERHOB CORERHOB~ CORERHOB~  CORERHOG   CORESO    CORESW    DEPTH   DEPTH_OR~ DPAA_TOH~ DPAP_72H~    DRHO      EHGR     FPRESS    FTEMP       GR     GR_CORE    GR_SM      HAZI      HCGR      HSGR      HTHO      HURA   MSFT_72H~ MSFT_72H~     PE     PHID_SS     POTA    RH72H_1D RH72H_1D~    RHO8      RHOZ    RV72H_1D RV72H_1D~    SDEV      TENS      TNPH   
# ...
9931.0000    2.8752    2.6163    2.3866    2.1805    2.0997   12.3226 -999.0000 -999.0000 -999.0000 -999.0000 -999.0000 -999.0000 -999.0000 -999.0000 -999.0000 9931.0000 -999.0000  359.4438   58.8971    0.0052   90.7056 4446.1484  231.6870   76.2948 -999.0000 -999.0000    8.4822   67.3743   86.4244   13.0139    2.5207    0.0365    0.0208    3.6152    0.2407    1.4600    1.3931    1.3855    2.2267    2.2529    4.9952    4.9598   50.7602 4607.0000    0.3527 
9931.2500    2.8388    2.5653    2.3610    2.1497    2.0918   12.3462 -999.0000 -999.0000 -999.0000 -999.0000 -999.0000 -999.0000 -999.0000 -999.0000 -999.0000 9931.2500 -999.0000  359.4438   58.8971    0.0036   87.4813 4446.2280  231.6902   76.9623 -999.0000 -999.0000    8.4806   65.2579   84.8196   12.6224    2.5987    0.0391    0.0210    3.5722    0.2491    1.4150    1.3931    1.3893    2.2187    2.2390    4.9952    4.9774   50.7542 4574.0000    0.3444 
9931.5000    2.7958    2.5059    2.3293    2.1129    2.0775   12.3699 -999.0000 -999.0000 -999.0000 -999.0000 -999.0000 -999.0000 -999.0000 -999.0000 -999.0000 9931.5000 -999.0000  359.4438   58.8971    0.0019   90.7646 4446.3076  231.6935   77.6299 -999.0000 -999.0000    8.4790   63.1414   83.2149   12.2309    2.6768    0.0417    0.0213    3.5292    0.2575    1.3700    1.3931    1.3910    2.2108    2.2251    4.9952    4.9886   50.7481 4541.0000    0.3362 
9931.7500    2.7253    2.4081    2.2687    2.0490    2.0337   12.3426 -999.0000 -999.0000 -999.0000 -999.0000 -999.0000 -999.0000 -999.0000 -999.0000 -999.0000 9931.7500 -999.0000  359.4438   58.8971    0.0021   93.7197 4446.3872  231.6967   76.9073 -999.0000 -999.0000    8.4713   61.9716   82.6482   11.8643    2.7395    0.0435    0.0215    3.5608    0.2598    1.3650    1.3931    1.3910    2.2185    2.2213    4.9952    4.9960   50.7308 4505.5000    0.3341 
9932.0000    2.6652    2.3147    2.2085    1.9875    1.9923   12.3153 -999.0000 -999.0000 -999.0000 -999.0000 -999.0000 -999.0000 -999.0000 -999.0000 -999.0000 9932.0000 -999.0000  359.4438   58.8971    0.0022   94.5335 4446.4668  231.7000   76.1847 -999.0000 -999.0000    8.4635   60.8018   82.0815   11.4976    2.8023    0.0453    0.0218    3.5925    0.2621    1.3600    1.3931    1.3895    2.2263    2.2175    4.9952    5.0031   50.7134 4470.0000    0.3319 
9932.2500    2.6621    2.2469    2.1517    1.9385    1.9652   12.3535 -999.0000 -999.0000 -999.0000 -999.0000 -999.0000 -999.0000 -999.0000 -999.0000 -999.0000 9932.2500 -999.0000  359.4438   58.8971    0.0019   92.8723 4446.5464  231.7035   74.9075 -999.0000 -999.0000    8.4641   59.9422   81.9298   11.3169    2.9213    0.0461    0.0219    3.5640    0.2630    1.3450    1.3931    1.3862    2.2206    2.2161    4.9952    5.0131   50.7045 4530.0000    0.3301 
9932.5000    2.6735    2.1916    2.1020    1.8923    1.9480   12.3917 -999.0000 -999.0000 -999.0000 -999.0000 -999.0000 -999.0000 -999.0000 -999.0000 -999.0000 9932.5000 -999.0000  359.4438   58.8971    0.0015   85.4454 4446.6260  231.7070   73.6302 -999.0000 -999.0000    8.4648   59.0825   81.7781   11.1363    3.0404    0.0469    0.0221    3.5355    0.2638    1.3300    1.3931    1.3807    2.2149    2.2148    4.9952    5.0285   50.6955 4590.0000    0.3282 
9932.7500    2.7655    2.2087    2.0944    1.8654    1.9863   12.3972 -999.0000 -999.0000 -999.0000 -999.0000 -999.0000 -999.0000 -999.0000 -999.0000 -999.0000 9932.7500 -999.0000  359.4438   58.8971    0.0004   76.5314 4446.7051  231.7105   70.2560 -999.0000 -999.0000    8.4688   60.2799   82.4961   11.4695    2.9812    0.0473    0.0222    3.4945    0.2655    1.3400    1.3931    1.3728    2.2086    2.2119    4.9952    5.0510   50.6970 4530.5000    0.3312 
9933.0000    2.8528    2.2331    2.0965    1.8508    2.0241   12.4026 -999.0000 -999.0000 -999.0000 -999.0000 -999.0000 -999.0000 -999.0000 -999.0000 -999.0000 9933.0000 -999.0000  359.4438   58.8971   -0.0007   81.2971 4446.7847  231.7140   66.8817 -999.0000 -999.0000    8.4727   61.4773   83.2142   11.8028    2.9221    0.0476    0.0223    3.4535    0.2672    1.3500    1.3931    1.3628    2.2023    2.2091    4.9952    5.0817   50.6985 4471.0000    0.3341 
9933.2500    2.9098    2.3047    2.1610    1.9139    2.0581   12.3808 -999.0000 -999.0000 -999.0000 -999.0000 -999.0000 -999.0000 -999.0000 -999.0000 -999.0000 9933.2500 -999.0000  359.4438   58.8971   -0.0026   81.4796 4446.8643  231.7175   66.5830 -999.0000 -999.0000    8.4726   63.2769   84.4984   12.1900    2.8438    0.0479    0.0224    3.4356    0.2685    1.3800    1.3527    1.3518    2.2081    2.2069    5.1114    5.1221   50.6969 4462.5000    0.3421 
9933.5000    2.9626    2.3798    2.2288    1.9797    2.0875   12.3590 -999.0000 -999.0000 -999.0000 -999.0000 -999.0000 -999.0000 -999.0000 -999.0000 -999.0000 9933.5000 -999.0000  359.4438   58.8971   -0.0045   70.6251 4446.9438  231.7210   66.2842 -999.0000 -999.0000    8.4725   65.0766   85.7826   12.5772    2.7655    0.0481    0.0225    3.4177    0.2699    1.4100    1.3123    1.3411    2.2139    2.2047    5.2277    5.1772   50.6952 4454.0000    0.3502 
9933.7500    2.9877    2.4791    2.3196    2.0634    2.0854   12.3626 -999.0000 -999.0000 -999.0000 -999.0000 -999.0000 -999.0000 -999.0000 -999.0000 -999.0000 9933.7500 -999.0000  359.4438   58.8971   -0.0050   76.3196 4447.0234  231.7245   67.0458 -999.0000 -999.0000    8.4690   66.5696   86.6122   12.9002    2.6643    0.0483    0.0226    3.4114    0.2615    1.4400    1.3123    1.3321    2.2150    2.2186    5.2277    5.2599   50.6901 4479.5000    0.3448 
9934.0000    3.0206    2.5783    2.4081    2.1424    2.0852   12.3662 -999.0000 -999.0000 -999.0000 -999.0000 -999.0000 -999.0000 -999.0000 -999.0000 -999.0000 9934.0000 -999.0000  359.4438   58.8971   -0.0056   83.9177 4447.1030  231.7280   67.8074 -999.0000 -999.0000    8.4654   68.0627   87.4417   13.2232    2.5632    0.0486    0.0227    3.4051    0.2530    1.4700    1.3123    1.3259    2.2162    2.2325    5.2277    5.3959   50.6850 4505.0000    0.3395 
9934.2500    3.1142    2.6758    2.4789    2.1852    2.1000   12.4025 -999.0000 -999.0000 -999.0000 -999.0000 -999.0000 -999.0000 -999.0000 -999.0000 -999.0000 9934.2500 -999.0000  359.4438   58.8971   -0.0001   83.4367 4447.1826  231.7315   72.1630 -999.0000 -999.0000    8.4580   68.7629   88.3635   13.3688    2.5910    0.0487    0.0229    3.5094    0.2348    1.4800    1.3123    1.3231    2.2539    2.2626    5.2277    5.6270   50.6834 4507.0000    0.3402 
9934.5000    3.2050    2.7743    2.5554    2.2330    2.1156   12.4389 -999.0000 -999.0000 -999.0000 -999.0000 -999.0000 -999.0000 -999.0000 -999.0000 -999.0000 9934.5000 -999.0000  359.4438   58.8971    0.0054   87.5667 4447.2622  231.7350   76.5186 -999.0000 -999.0000    8.4507   69.4632   89.2854   13.5144    2.6188    0.0488    0.0230    3.6138    0.2165    1.4900    1.3123    1.3237    2.2916    2.2927    5.2277    6.0128   50.6817 4509.0000    0.3410 
9934.7500    3.2705    2.8834    2.6854    2.3276    2.1395   12.4789 -999.0000 -999.0000 -999.0000 -999.0000 -999.0000 -999.0000 -999.0000 -999.0000 -999.0000 9934.7500 -999.0000  359.4438   58.8971    0.0112   99.2049 4447.3418  231.7385   75.7232 -999.0000 -999.0000    8.4497   70.6467   89.1256   13.7194    2.4806    0.0487    0.0234    3.6741    0.2002    1.5200    1.3123    1.3274    2.3440    2.3196    5.2277    6.6320   50.6688 4513.0000    0.3354 
9935.0000    3.3343    3.0006    2.8208    2.4286    2.1681   12.5189 -999.0000 -999.0000 -999.0000 -999.0000 -999.0000 -999.0000 -999.0000 -999.0000 -999.0000 9935.0000 -999.0000  359.4438   58.8971    0.0170  103.1406 4447.4214  231.7420   74.9278 -999.0000 -999.0000    8.4487   71.8301   88.9658   13.9243    2.3423    0.0486    0.0237    3.7344    0.1840    1.5500    1.3123    1.3339    2.3965    2.3464    5.2277    7.5811   50.6559 4517.0000    0.3297 
9935.2500    3.3805    3.1976    3.0083    2.5930    2.2456   12.5117 -999.0000 -999.0000 -999.0000 -999.0000 -999.0000 -999.0000 -999.0000 -999.0000 -999.0000 9935.2500 -999.0000  359.4438   58.8971    0.0181   93.3235 4447.5010  231.7455   72.2037 -999.0000 -999.0000    8.4456   69.8100   86.8496   13.6137    2.2496    0.0490    0.0243    3.7551    0.1833    1.4950    1.3410    1.3427    2.3802    2.3476   13.9667    8.9555   50.6436 4521.5000    0.3560 
