~VERSION INFORMATION
 VERS.                 2.0:   CWLS LOG ASCII STANDARD - VERSION 2.0
 WRAP.                  NO:   SINGLE LINE PER DEPTH STEP
 CREA.                 9/20/2016 5:41:23 PM
#CREATED USING IP VERSION 4.3.2015.327 BY MAP5249 ON 9/20/2016 5:41:23 PM
~WELL INFORMATION
#MNEM.UNIT       DATA                          DESCRIPTION MNEMONIC
#---------      ---------------------------   --------------------------
 STRT    .FT        9400.0000                 : START DEPTH
 STOP    .FT        10400.0000                : STOP DEPTH
 STEP    .FT        0.2500                    : STEP VALUE
 NULL    .      -999.0000                     : NULL VALUE
 DATE    .      9/20/2016                     : LAS file Creation Date
 WELL .      Chevron2009 : Well Name
 COMP .                  : Company
 FLD  .                  : Field
 UWI  .                  : Unique Well Identifier (UWI)
 LOC  .                  : Location
 LATI .      0           : Latitude/Northing
 LONG .      0           : Longitude/Easting
 RWS  .      -999        : Def_Rw
 WST  .      -999        : Def_Rwt
 PROV .                  : Province
 SRVC .                  : Contractor
~CURVE INFORMATION
#MNEM                   UNIT       API CODE   Curve Type Comments
#----------       --------------- ----------  ---------- -----------
 DEPTH           .FT                        : Depth       
 AT10            .OHMM                      : ShalRes     1       Array Induction Two Foot Resistivity A10
 AT20            .OHMM                      : MedRes      2       Array Induction Two Foot Resistivity A20
 AT30            .OHMM                      : MedRes      3       Array Induction Two Foot Resistivity A30
 AT60            .OHMM                      : MedRes      4       Array Induction Two Foot Resistivity A60
 AT90            .OHMM                      : DeepRes     5       Array Induction Two Foot Resistivity A90
 CALI            .IN                        : Caliper     "copied from HCAL_1 in WIRE set"
 CORE_FLAG       .                          :             Created using text_insert
 COREPERM        .MD                        :             
 COREPOR         .V/V                       :             COREPOR/100
 CORERHOB        .G/C3                      :             ((CORERHOG*(1-(COREPOR)))+COREPOR)
 CORERHOB_2SMT   .                          :             Output log
 CORERHOB_3SMT   .                          :             Output log
 CORERHOG        .G/C3                      :             
 CORESO          .V/V                       :             CORESO/100
 CORESW          .V/V                       :             CORESW/100
 DEPTH           .FT                        : Depth       
 DEPTH_ORIG      .Ft                        :             
 DPAA_TOH_72H_1D .DEG                       :             
 DPAP_72H_1D     .DEG                       :             
 DRHO            .G/C3                      : Drho        "copied from DRHO_1 in WIRE set"
 EHGR            .GAPI                      :             HiRes Gamma-Ray
 FPRESS          .PSI                       :             Formation/hydrostatic pressure
 FTEMP           .DEGF                      :             burnside gradient
 GR              .GAPI                      : GammaRay    "copied from GR_1 in WIRE set"
 GR_CORE         .GAPI                      :             
 GR_SM           .GAPI                      : GammaRay    
 HAZI            .DEG                       : Azimuth     Hole Azimuth
 HCGR            .GAPI                      :             HNGS Computed Gamma Ray
 HSGR            .GAPI                      :             HNGS Standard Gamma Ray
 HTHO            .PPM                       :             HNGS Formation Thorium Concentration
 HURA            .PPM                       :             HNGS Formation Uranium Concentration
 MSFT_72H_ALL_R  .                          :             
 MSFT_72H_ALL_X  .                          :             
 PE              .B/E                       : PEF         "copied from PE_1 in WIRE set"
 PHID_SS         .dec                       : Phi         
 POTA            .%                         : Spectral    POTA*100
 RH72H_1D        .OHM.M                     :             
 RH72H_1D_FLT    .OHM.M                     :             
 RHO8            .G/C3                      : Density     HRDD High Resolution Formation Density
 RHOZ            .G/C3                      : Density     HRDD Standard Resolution Formation Density
 RV72H_1D        .OHM.M                     :             
 RV72H_1D_FLT    .OHM.M                     :             
 SDEV            .DEG                       :             Sonde Deviation
 TENS            .LBF                       : Tension     Cable Tension
 TNPH            .V/V                       : Neutron     Thermal Neutron Porosity
~A  DEPTH    AT10      AT20      AT30      AT60      AT90      CALI   CORE_FLA~  COREPERM  COREPOR   CORERHOB CORERHOB~ CORERHOB~  CORERHOG   CORESO    CORESW    DEPTH   DEPTH_OR~ DPAA_TOH~ DPAP_72H~    DRHO      EHGR     FPRESS    FTEMP       GR     GR_CORE    GR_SM      HAZI      HCGR      HSGR      HTHO      HURA   MSFT_72H~ MSFT_72H~     PE     PHID_SS     POTA    RH72H_1D RH72H_1D~    RHO8      RHOZ    RV72H_1D RV72H_1D~    SDEV      TENS      TNPH   
# ...
10196.5000    0.9359    0.7987    0.7533    0.7092    0.6953   12.7297 -999.0000 -999.0000 -999.0000 -999.0000 -999.0000 -999.0000 -999.0000 -999.0000 -999.0000 10196.5000 -999.0000  350.4290   39.3524    0.0076  124.2602 4532.5708  235.4300   97.0131 -999.0000 -999.0000    8.2423   87.6583  111.3792   16.4674    3.2084    0.0136    0.0187    3.7237    0.1572    1.9800    0.6214    0.6204    2.3938    2.3907    2.2602    2.2846   48.3762 4594.0000    0.4216 
10196.7500    0.9353    0.7976    0.7523    0.7084    0.6942   12.6861 -999.0000 -999.0000 -999.0000 -999.0000 -999.0000 -999.0000 -999.0000 -999.0000 -999.0000 10196.7500 -999.0000  350.4290   39.3524    0.0077  116.4815 4532.6538  235.4335   97.9492 -999.0000 -999.0000    8.2389   86.9037  109.7505   16.3200    3.1311    0.0135    0.0186    3.7664    0.1586    1.9650    0.6214    0.6194    2.3967    2.3883    2.2602    2.3096   48.3699 4605.5000    0.4144 
10197.0000    0.9348    0.7965    0.7513    0.7075    0.6931   12.6425 -999.0000 -999.0000 -999.0000 -999.0000 -999.0000 -999.0000 -999.0000 -999.0000 -999.0000 10197.0000 -999.0000  350.4290   39.3524    0.0077  118.7371 4532.7368  235.4370   98.8854 -999.0000 -999.0000    8.2355   86.1491  108.1217   16.1725    3.0537    0.0134    0.0186    3.8091    0.1601    1.9500    0.6214    0.6178    2.3995    2.3858    2.2602    2.3510   48.3635 4617.0000    0.4073 
10197.2500    0.9357    0.7965    0.7517    0.7076    0.6935   12.6243 -999.0000 -999.0000 -999.0000 -999.0000 -999.0000 -999.0000 -999.0000 -999.0000 -999.0000 10197.2500 -999.0000  350.4290   39.3524    0.0083  121.1705 4532.8198  235.4405   96.6449 -999.0000 -999.0000    8.2317   86.4839  107.8233   16.0188    2.9939    0.0134    0.0185    3.8349    0.1594    1.9950    0.6214    0.6155    2.3940    2.3870    2.2602    2.4127   48.3559 4625.5000    0.4076 
10197.5000    0.9367    0.7966    0.7520    0.7078    0.6940   12.6061 -999.0000 -999.0000 -999.0000 -999.0000 -999.0000 -999.0000 -999.0000 -999.0000 -999.0000 10197.5000 -999.0000  350.4290   39.3524    0.0090  113.9627 4532.9033  235.4440   94.4043 -999.0000 -999.0000    8.2279   86.8187  107.5249   15.8652    2.9341    0.0134    0.0185    3.8607    0.1587    2.0400    0.6214    0.6125    2.3886    2.3881    2.2602    2.4951   48.3483 4634.0000    0.4078 
10197.7500    0.9362    0.7965    0.7522    0.7075    0.6938   12.5862 -999.0000 -999.0000 -999.0000 -999.0000 -999.0000 -999.0000 -999.0000 -999.0000 -999.0000 10197.7500 -999.0000  350.4290   39.3524    0.0104  110.8105 4532.9863  235.4475   93.4422 -999.0000 -999.0000    8.2276   87.4483  107.9687   15.8929    2.9340    0.0135    0.0185    3.8293    0.1564    2.0700    0.6095    0.6093    2.3900    2.3920    2.6430    2.5934   48.3479 4590.0000    0.4119 
10198.0000    0.9357    0.7964    0.7523    0.7073    0.6936   12.5662 -999.0000 -999.0000 -999.0000 -999.0000 -999.0000 -999.0000 -999.0000 -999.0000 -999.0000 10198.0000 -999.0000  350.4290   39.3524    0.0119  107.5232 4533.0693  235.4510   92.4800 -999.0000 -999.0000    8.2274   88.0779  108.4124   15.9207    2.9339    0.0136    0.0185    3.7979    0.1540    2.1000    0.5975    0.6061    2.3913    2.3959    3.0257    2.6965   48.3475 4546.0000    0.4160 
10198.2500    0.9356    0.7964    0.7521    0.7073    0.6936   12.5716 -999.0000 -999.0000 -999.0000 -999.0000 -999.0000 -999.0000 -999.0000 -999.0000 -999.0000 10198.2500 -999.0000  350.4290   39.3524    0.0123  111.8059 4533.1523  235.4548   93.0826 -999.0000 -999.0000    8.2280   88.5135  109.6898   16.0515    3.0873    0.0135    0.0185    3.7674    0.1538    2.1000    0.5975    0.6033    2.3852    2.3963    3.0257    2.7885   48.3507 4600.0000    0.4344 
10198.5000    0.9354    0.7964    0.7519    0.7073    0.6936   12.5771 -999.0000 -999.0000 -999.0000 -999.0000 -999.0000 -999.0000 -999.0000 -999.0000 -999.0000 10198.5000 -999.0000  350.4290   39.3524    0.0127  110.2114 4533.2358  235.4585   93.6853 -999.0000 -999.0000    8.2285   88.9490  110.9671   16.1822    3.2407    0.0135    0.0185    3.7369    0.1535    2.1000    0.5975    0.6014    2.3791    2.3967    3.0257    2.8520   48.3539 4654.0000    0.4528 
10198.7500    0.9357    0.7963    0.7519    0.7071    0.6936   12.5989 -999.0000 -999.0000 -999.0000 -999.0000 -999.0000 -999.0000 -999.0000 -999.0000 -999.0000 10198.7500 -999.0000  350.4290   39.3524    0.0129  113.5474 4533.3188  235.4622   93.5625 -999.0000 -999.0000    8.2274   88.1328  110.6903   15.7760    3.2773    0.0132    0.0185    3.7190    0.1542    2.1250    0.5975    0.6003    2.3892    2.3956    3.0257    2.8742   48.3493 4657.5000    0.4594 
10199.0000    0.9359    0.7963    0.7519    0.7070    0.6936   12.6207 -999.0000 -999.0000 -999.0000 -999.0000 -999.0000 -999.0000 -999.0000 -999.0000 -999.0000 10199.0000 -999.0000  350.4290   39.3524    0.0131  118.9141 4533.4019  235.4660   93.4396 -999.0000 -999.0000    8.2262   87.3165  110.4135   15.3699    3.3140    0.0129    0.0184    3.7011    0.1548    2.1500    0.5975    0.6000    2.3992    2.3946    3.0257    2.8502   48.3448 4661.0000    0.4660 
10199.2500    0.9358    0.7963    0.7521    0.7076    0.6932   12.6461 -999.0000 -999.0000 -999.0000 -999.0000 -999.0000 -999.0000 -999.0000 -999.0000 -999.0000 10199.2500 -999.0000  350.4290   39.3524    0.0128  114.2668 4533.4849  235.4695   93.3838 -999.0000 -999.0000    8.2291   90.3864  110.2284   16.2388    2.8820    0.0126    0.0184    3.7420    0.1553    2.1700    0.5975    0.6005    2.4025    2.3938    3.0257    2.7847   48.3455 4626.5000    0.4646 
10199.5000    0.9355    0.7964    0.7523    0.7082    0.6927   12.6716 -999.0000 -999.0000 -999.0000 -999.0000 -999.0000 -999.0000 -999.0000 -999.0000 -999.0000 10199.5000 -999.0000  350.4290   39.3524    0.0125  107.4790 4533.5684  235.4730   93.3279 -999.0000 -999.0000    8.2321   93.4564  110.0433   17.1077    2.4500    0.0123    0.0184    3.7828    0.1558    2.1900    0.5975    0.6016    2.4058    2.3930    3.0257    2.6910   48.3463 4592.0000    0.4633 
10199.7500    0.9348    0.7962    0.7523    0.7083    0.6930   12.6752 -999.0000 -999.0000 -999.0000 -999.0000 -999.0000 -999.0000 -999.0000 -999.0000 -999.0000 10199.7500 -999.0000  350.1783   39.5056    0.0120  108.4073 4533.6514  235.4765   93.3146 -999.0000 -999.0000    8.2338   93.4136  109.0364   16.9918    2.3094    0.0114    0.0158    3.8216    0.1550    2.2100    0.6030    0.6030    2.4031    2.3942    2.6372    2.5861   48.3428 4615.0000    0.4495 
10200.0000    0.9340    0.7961    0.7522    0.7085    0.6933   12.6788 -999.0000 -999.0000 -999.0000 -999.0000 -999.0000 -999.0000 -999.0000 -999.0000 -999.0000 10200.0000 -999.0000  349.9276   39.6587    0.0114  110.5641 4533.7344  235.4800   93.3012 -999.0000 -999.0000    8.2356   93.3707  108.0295   16.8759    2.1687    0.0105    0.0131    3.8604    0.1542    2.2300    0.6085    0.6045    2.4003    2.3955    2.2487    2.4864   48.3394 4638.0000    0.4356 
10200.2500    0.9326    0.7956    0.7517    0.7082    0.6928   12.6443 -999.0000 -999.0000 -999.0000 -999.0000 -999.0000 -999.0000 -999.0000 -999.0000 -999.0000 10200.2500 -999.0000  349.9276   39.6587    0.0087  111.9009 4533.8174  235.4837   93.7392 -999.0000 -999.0000    8.2392   92.3667  107.8563   16.8323    2.2212    0.0110    0.0134    3.8244    0.1570    2.1800    0.6085    0.6058    2.3874    2.3909    2.2487    2.4028   48.3465 4652.5000    0.4350 
10200.5000    0.9312    0.7952    0.7513    0.7078    0.6924   12.6098 -999.0000 -999.0000 -999.0000 -999.0000 -999.0000 -999.0000 -999.0000 -999.0000 -999.0000 10200.5000 -999.0000  349.9276   39.6587    0.0059  117.9672 4533.9009  235.4875   94.1771 -999.0000 -999.0000    8.2428   91.3627  107.6830   16.7887    2.2737    0.0116    0.0137    3.7883    0.1598    2.1300    0.6085    0.6069    2.3744    2.3864    2.2487    2.3403   48.3535 4667.0000    0.4343 
10200.7500    0.9321    0.7974    0.7535    0.7098    0.6941   12.5935 -999.0000 -999.0000 -999.0000 -999.0000 -999.0000 -999.0000 -999.0000 -999.0000 -999.0000 10200.7500 -999.0000  349.9276   39.6587    0.0041  120.1447 4533.9839  235.4912   95.3496 -999.0000 -999.0000    8.2432   89.9746  107.0327   16.5259    2.3698    0.0121    0.0140    3.8049    0.1624    2.1000    0.6085    0.6077    2.3750    2.3820    2.2487    2.2978   48.3551 4646.5000    0.4238 
