~VERSION INFORMATION
 VERS.                 2.0:   CWLS LOG ASCII STANDARD - VERSION 2.0
 WRAP.                  NO:   SINGLE LINE PER DEPTH STEP
 CREA.                 9/20/2016 5:41:23 PM
#CREATED USING IP VERSION 4.3.2015.327 BY MAP5249 ON 9/20/2016 5:41:23 PM
~WELL INFORMATION
#MNEM.UNIT       DATA                          DESCRIPTION MNEMONIC
#---------      ---------------------------   --------------------------
 STRT    .FT        9400.0000                 : START DEPTH
 STOP    .FT        10400.0000                : STOP DEPTH
 STEP    .FT        0.2500                    : STEP VALUE
 NULL    .      -999.0000                     : NULL VALUE
 DATE    .      9/20/2016                     : LAS file Creation Date
 WELL .      Chevron2009 : Well Name
 COMP .                  : Company
 FLD  .                  : Field
 UWI  .                  : Unique Well Identifier (UWI)
 LOC  .                  : Location
 LATI .      0           : Latitude/Northing
 LONG .      0           : Longitude/Easting
 RWS  .      -999        : Def_Rw
 WST  .      -999        : Def_Rwt
 PROV .                  : Province
 SRVC .                  : Contractor
~CURVE INFORMATION
#MNEM                   UNIT       API CODE   Curve Type Comments
#----------       --------------- ----------  ---------- -----------
 DEPTH           .FT                        : Depth       
 AT10            .OHMM                      : ShalRes     1       Array Induction Two Foot Resistivity A10
 AT20            .OHMM                      : MedRes      2       Array Induction Two Foot Resistivity A20
 AT30            .OHMM                      : MedRes      3       Array Induction Two Foot Resistivity A30
 AT60            .OHMM                      : MedRes      4       Array Induction Two Foot Resistivity A60
 AT90            .OHMM                      : DeepRes     5       Array Induction Two Foot Resistivity A90
 CALI            .IN                        : Caliper     "copied from HCAL_1 in WIRE set"
 CORE_FLAG       .                          :             Created using text_insert
 COREPERM        .MD                        :             
 COREPOR         .V/V                       :             COREPOR/100
 CORERHOB        .G/C3                      :             ((CORERHOG*(1-(COREPOR)))+COREPOR)
 CORERHOB_2SMT   .                          :             Output log
 CORERHOB_3SMT   .                          :             Output log
 CORERHOG        .G/C3                      :             
 CORESO          .V/V                       :             CORESO/100
 CORESW          .V/V                       :             CORESW/100
 DEPTH           .FT                        : Depth       
 DEPTH_ORIG      .Ft                        :             
 DPAA_TOH_72H_1D .DEG                       :             
 DPAP_72H_1D     .DEG                       :             
 DRHO            .G/C3                      : Drho        "copied from DRHO_1 in WIRE set"
 EHGR            .GAPI                      :             HiRes Gamma-Ray
 FPRESS          .PSI                       :             Formation/hydrostatic pressure
 FTEMP           .DEGF                      :             burnside gradient
 GR              .GAPI                      : GammaRay    "copied from GR_1 in WIRE set"
 GR_CORE         .GAPI                      :             
 GR_SM           .GAPI                      : GammaRay    
 HAZI            .DEG                       : Azimuth     Hole Azimuth
 HCGR            .GAPI                      :             HNGS Computed Gamma Ray
 HSGR            .GAPI                      :             HNGS Standard Gamma Ray
 HTHO            .PPM                       :             HNGS Formation Thorium Concentration
 HURA            .PPM                       :             HNGS Formation Uranium Concentration
 MSFT_72H_ALL_R  .                          :             
 MSFT_72H_ALL_X  .                          :             
 PE              .B/E                       : PEF         "copied from PE_1 in WIRE set"
 PHID_SS         .dec                       : Phi         
 POTA            .%                         : Spectral    POTA*100
 RH72H_1D        .OHM.M                     :             
 RH72H_1D_FLT    .OHM.M                     :             
 RHO8            .G/C3                      : Density     HRDD High Resolution Formation Density
 RHOZ            .G/C3                      : Density     HRDD Standard Resolution Formation Density
 RV72H_1D        .OHM.M                     :             
 RV72H_1D_FLT    .OHM.M                     :             
 SDEV            .DEG                       :             Sonde Deviation
 TENS            .LBF                       : Tension     Cable Tension
 TNPH            .V/V                       : Neutron     Thermal Neutron Porosity
~A  DEPTH    AT10      AT20      AT30      AT60      AT90      CALI   CORE_FLA~  COREPERM  COREPOR   CORERHOB CORERHOB~ CORERHOB~  CORERHOG   CORESO    CORESW    DEPTH   DEPTH_OR~ DPAA_TOH~ DPAP_72H~    DRHO      EHGR     FPRESS    FTEMP       GR     GR_CORE    GR_SM      HAZI      HCGR      HSGR      HTHO      HURA   MSFT_72H~ MSFT_72H~     PE     PHID_SS     POTA    RH72H_1D RH72H_1D~    RHO8      RHOZ    RV72H_1D RV72H_1D~    SDEV      TENS      TNPH   
# ...
10394.5000    1.1080    0.9562    0.9036    0.8411    0.8220   12.6788 -999.0000 -999.0000 -999.0000 -999.0000 -999.0000 -999.0000 -999.0000 -999.0000 -999.0000 10394.5000 -999.0000 -999.0000 -999.0000    0.0158  108.3126 4599.4058  238.3245   90.2084 -999.0000 -999.0000    8.5598   88.4134  103.8747   17.3635    2.0169 -999.0000 -999.0000    3.8251    0.1627    1.8700 -999.0000 -999.0000    2.3799    2.3816 -999.0000 -999.0000   46.9921 4859.0000    0.4508 
10394.7500    1.1037    0.9593    0.9039    0.8409    0.8199   12.6715 -999.0000 -999.0000 -999.0000 -999.0000 -999.0000 -999.0000 -999.0000 -999.0000 -999.0000 10394.7500 -999.0000 -999.0000 -999.0000    0.0149  116.3564 4599.4912  238.3282   91.5798 -999.0000 -999.0000    8.5586   88.2408  104.9801   17.5165    2.1912 -999.0000 -999.0000    3.8443    0.1605    1.8350 -999.0000 -999.0000    2.3798    2.3852 -999.0000 -999.0000   46.9905 4820.5000    0.4218 
10395.0000    1.0994    0.9624    0.9042    0.8406    0.8178   12.6643 -999.0000 -999.0000 -999.0000 -999.0000 -999.0000 -999.0000 -999.0000 -999.0000 -999.0000 10395.0000 -999.0000 -999.0000 -999.0000    0.0140  117.7794 4599.5771  238.3320   92.9511 -999.0000 -999.0000    8.5574   88.0682  106.0856   17.6695    2.3655 -999.0000 -999.0000    3.8636    0.1582    1.8000 -999.0000 -999.0000    2.3796    2.3889 -999.0000 -999.0000   46.9889 4782.0000    0.3929 
10395.2500    1.1017    0.9637    0.9044    0.8405    0.8165   12.6371 -999.0000 -999.0000 -999.0000 -999.0000 -999.0000 -999.0000 -999.0000 -999.0000 -999.0000 10395.2500 -999.0000 -999.0000 -999.0000    0.0149  108.4347 4599.6626  238.3358   93.0271 -999.0000 -999.0000    8.5584   86.9874  106.1676   17.1988    2.5318 -999.0000 -999.0000    3.8576    0.1555    1.8200 -999.0000 -999.0000    2.3953    2.3934 -999.0000 -999.0000   46.9836 4780.0000    0.3908 
10395.5000    1.1041    0.9650    0.9047    0.8404    0.8152   12.6098 -999.0000 -999.0000 -999.0000 -999.0000 -999.0000 -999.0000 -999.0000 -999.0000 -999.0000 10395.5000 -999.0000 -999.0000 -999.0000    0.0158  108.4672 4599.7485  238.3395   93.1031 -999.0000 -999.0000    8.5595   85.9065  106.2497   16.7281    2.6981 -999.0000 -999.0000    3.8516    0.1528    1.8400 -999.0000 -999.0000    2.4111    2.3979 -999.0000 -999.0000   46.9783 4778.0000    0.3888 
10395.7500    1.1090    0.9667    0.9060    0.8432    0.8180   12.6080 -999.0000 -999.0000 -999.0000 -999.0000 -999.0000 -999.0000 -999.0000 -999.0000 -999.0000 10395.7500 -999.0000 -999.0000 -999.0000    0.0173  108.3832 4599.8335  238.3432   92.2771 -999.0000 -999.0000    8.5624   86.0905  107.2131   16.8994    2.7785 -999.0000 -999.0000    3.8289    0.1512    1.8200 -999.0000 -999.0000    2.4118    2.4005 -999.0000 -999.0000   46.9877 4773.5000    0.3781 
10396.0000    1.1139    0.9684    0.9074    0.8460    0.8209   12.6061 -999.0000 -999.0000 -999.0000 -999.0000 -999.0000 -999.0000 -999.0000 -999.0000 -999.0000 10396.0000 -999.0000 -999.0000 -999.0000    0.0189  107.8711 4599.9194  238.3470   91.4511 -999.0000 -999.0000    8.5653   86.2746  108.1765   17.0707    2.8589 -999.0000 -999.0000    3.8062    0.1496    1.8000 -999.0000 -999.0000    2.4125    2.4031 -999.0000 -999.0000   46.9971 4769.0000    0.3674 
10396.2500    1.1181    0.9691    0.9072    0.8471    0.8213   12.6389 -999.0000 -999.0000 -999.0000 -999.0000 -999.0000 -999.0000 -999.0000 -999.0000 -999.0000 10396.2500 -999.0000 -999.0000 -999.0000    0.0188  108.2215 4600.0049  238.3508   91.1758 -999.0000 -999.0000    8.5642   85.2326  107.4401   16.9314    2.8590 -999.0000 -999.0000    3.7989    0.1498    1.7700 -999.0000 -999.0000    2.4109    2.4029 -999.0000 -999.0000   46.9868 4768.5000    0.3768 
10396.5000    1.1222    0.9698    0.9071    0.8481    0.8216   12.6716 -999.0000 -999.0000 -999.0000 -999.0000 -999.0000 -999.0000 -999.0000 -999.0000 -999.0000 10396.5000 -999.0000 -999.0000 -999.0000    0.0186  111.8571 4600.0908  238.3545   90.9004 -999.0000 -999.0000    8.5631   84.1905  106.7037   16.7921    2.8591 -999.0000 -999.0000    3.7915    0.1499    1.7400 -999.0000 -999.0000    2.4094    2.4026 -999.0000 -999.0000   46.9764 4768.0000    0.3863 
10396.7500    1.1235    0.9675    0.9071    0.8493    0.8241   12.6680 -999.0000 -999.0000 -999.0000 -999.0000 -999.0000 -999.0000 -999.0000 -999.0000 -999.0000 10396.7500 -999.0000 -999.0000 -999.0000    0.0184  115.5489 4600.1758  238.3582   90.3332 -999.0000 -999.0000    8.5653   83.7841  106.8986   16.7193    2.9816 -999.0000 -999.0000    3.7759    0.1514    1.7300 -999.0000 -999.0000    2.3988    2.4002 -999.0000 -999.0000   46.9731 4771.0000    0.3882 
10397.0000    1.1247    0.9651    0.9072    0.8505    0.8265   12.6643 -999.0000 -999.0000 -999.0000 -999.0000 -999.0000 -999.0000 -999.0000 -999.0000 -999.0000 10397.0000 -999.0000 -999.0000 -999.0000    0.0181  106.1870 4600.2617  238.3620   89.7660 -999.0000 -999.0000    8.5675   83.3777  107.0936   16.6464    3.1041 -999.0000 -999.0000    3.7602    0.1528    1.7200 -999.0000 -999.0000    2.3882    2.3978 -999.0000 -999.0000   46.9699 4774.0000    0.3901 
10397.2500    1.1255    0.9618    0.9064    0.8508    0.8299   12.7043 -999.0000 -999.0000 -999.0000 -999.0000 -999.0000 -999.0000 -999.0000 -999.0000 -999.0000 10397.2500 -999.0000 -999.0000 -999.0000    0.0167  102.1574 4600.3472  238.3658   89.8761 -999.0000 -999.0000    8.5701   84.2047  107.6884   16.7700    3.0939 -999.0000 -999.0000    3.8115    0.1556    1.7450 -999.0000 -999.0000    2.3815    2.3932 -999.0000 -999.0000   46.9739 4792.5000    0.3971 
10397.5000    1.1262    0.9584    0.9057    0.8511    0.8333   12.7443 -999.0000 -999.0000 -999.0000 -999.0000 -999.0000 -999.0000 -999.0000 -999.0000 -999.0000 10397.5000 -999.0000 -999.0000 -999.0000    0.0153  104.8555 4600.4331  238.3695   89.9862 -999.0000 -999.0000    8.5726   85.0316  108.2833   16.8937    3.0837 -999.0000 -999.0000    3.8629    0.1585    1.7700 -999.0000 -999.0000    2.3749    2.3885 -999.0000 -999.0000   46.9779 4811.0000    0.4041 
10397.7500    1.1274    0.9558    0.9047    0.8512    0.8370   12.7624 -999.0000 -999.0000 -999.0000 -999.0000 -999.0000 -999.0000 -999.0000 -999.0000 -999.0000 10397.7500 -999.0000 -999.0000 -999.0000    0.0157  116.0822 4600.5186  238.3732   90.9774 -999.0000 -999.0000    8.5716   85.2008  107.8988   17.1074    2.9839 -999.0000 -999.0000    3.8945    0.1604    1.7400 -999.0000 -999.0000    2.3840    2.3853 -999.0000 -999.0000   46.9724 4809.5000    0.4047 
10398.0000    1.1286    0.9532    0.9037    0.8513    0.8407   12.7806 -999.0000 -999.0000 -999.0000 -999.0000 -999.0000 -999.0000 -999.0000 -999.0000 -999.0000 10398.0000 -999.0000 -999.0000 -999.0000    0.0160  113.0455 4600.6045  238.3770   91.9686 -999.0000 -999.0000    8.5705   85.3699  107.5143   17.3211    2.8841 -999.0000 -999.0000    3.9261    0.1624    1.7100 -999.0000 -999.0000    2.3932    2.3820 -999.0000 -999.0000   46.9669 4808.0000    0.4052 
10398.2500    1.1299    0.9521    0.9009    0.8489    0.8425   12.7407 -999.0000 -999.0000 -999.0000 -999.0000 -999.0000 -999.0000 -999.0000 -999.0000 -999.0000 10398.2500 -999.0000 -999.0000 -999.0000    0.0143  105.0743 4600.6899  238.3805   91.4660 -999.0000 -999.0000    8.5723   83.1389  107.1768   16.5737    3.1965 -999.0000 -999.0000    3.9378    0.1651    1.7150 -999.0000 -999.0000    2.3820    2.3776 -999.0000 -999.0000   46.9704 4801.5000    0.3874 
10398.5000    1.1312    0.9511    0.8982    0.8465    0.8443   12.7007 -999.0000 -999.0000 -999.0000 -999.0000 -999.0000 -999.0000 -999.0000 -999.0000 -999.0000 10398.5000 -999.0000 -999.0000 -999.0000    0.0126  113.9471 4600.7759  238.3840   90.9635 -999.0000 -999.0000    8.5741   80.9079  106.8393   15.8264    3.5090 -999.0000 -999.0000    3.9495    0.1678    1.7200 -999.0000 -999.0000    2.3707    2.3732 -999.0000 -999.0000   46.9740 4795.0000    0.3695 
10398.7500    1.1278    0.9483    0.8975    0.8462    0.8457   12.6607 -999.0000 -999.0000 -999.0000 -999.0000 -999.0000 -999.0000 -999.0000 -999.0000 -999.0000 10398.7500 -999.0000 -999.0000 -999.0000    0.0125  108.7221 4600.8613  238.3875   92.0481 -999.0000 -999.0000    8.5751   79.5676  106.1462   15.6339    3.6272 -999.0000 -999.0000    3.9683    0.1675    1.6800 -999.0000 -999.0000    2.3701    2.3736 -999.0000 -999.0000   46.9795 4788.5000    0.3651 
