~VERSION INFORMATION
 VERS.                 2.0:   CWLS LOG ASCII STANDARD - VERSION 2.0
 WRAP.                  NO:   SINGLE LINE PER DEPTH STEP
 CREA.                 9/20/2016 5:41:23 PM
#CREATED USING IP VERSION 4.3.2015.327 BY MAP5249 ON 9/20/2016 5:41:23 PM
~WELL INFORMATION
#MNEM.UNIT       DATA                          DESCRIPTION MNEMONIC
#---------      ---------------------------   --------------------------
 STRT    .FT        9400.0000                 : START DEPTH
 STOP    .FT        10400.0000                : STOP DEPTH
 STEP    .FT        0.2500                    : STEP VALUE
 NULL    .      -999.0000                     : NULL VALUE
 DATE    .      9/20/2016                     : LAS file Creation Date
 WELL .      Chevron2009 : Well Name
 COMP .                  : Company
 FLD  .                  : Field
 UWI  .                  : Unique Well Identifier (UWI)
 LOC  .                  : Location
 LATI .      0           : Latitude/Northing
 LONG .      0           : Longitude/Easting
 RWS  .      -999        : Def_Rw
 WST  .      -999        : Def_Rwt
 PROV .                  : Province
 SRVC .                  : Contractor
~CURVE INFORMATION
#MNEM                   UNIT       API CODE   Curve Type Comments
#----------       --------------- ----------  ---------- -----------
 DEPTH           .FT                        : Depth       
 AT10            .OHMM                      : ShalRes     1       Array Induction Two Foot Resistivity A10
 AT20            .OHMM                      : MedRes      2       Array Induction Two Foot Resistivity A20
 AT30            .OHMM                      : MedRes      3       Array Induction Two Foot Resistivity A30
 AT60            .OHMM                      : MedRes      4       Array Induction Two Foot Resistivity A60
 AT90            .OHMM                      : DeepRes     5       Array Induction Two Foot Resistivity A90
 CALI            .IN                        : Caliper     "copied from HCAL_1 in WIRE set"
 CORE_FLAG       .                          :             Created using text_insert
 COREPERM        .MD                        :             
 COREPOR         .V/V                       :             COREPOR/100
 CORERHOB        .G/C3                      :             ((CORERHOG*(1-(COREPOR)))+COREPOR)
 CORERHOB_2SMT   .                          :             Output log
 CORERHOB_3SMT   .                          :             Output log
 CORERHOG        .G/C3                      :             
 CORESO          .V/V                       :             CORESO/100
 CORESW          .V/V                       :             CORESW/100
 DEPTH           .FT                        : Depth       
 DEPTH_ORIG      .Ft                        :             
 DPAA_TOH_72H_1D .DEG                       :             
 DPAP_72H_1D     .DEG                       :             
 DRHO            .G/C3                      : Drho        "copied from DRHO_1 in WIRE set"
 EHGR            .GAPI                      :             HiRes Gamma-Ray
 FPRESS          .PSI                       :             Formation/hydrostatic pressure
 FTEMP           .DEGF                      :             burnside gradient
 GR              .GAPI                      : GammaRay    "copied from GR_1 in WIRE set"
 GR_CORE         .GAPI                      :             
 GR_SM           .GAPI                      : GammaRay    
 HAZI            .DEG                       : Azimuth     Hole Azimuth
 HCGR            .GAPI                      :             HNGS Computed Gamma Ray
 HSGR            .GAPI                      :             HNGS Standard Gamma Ray
 HTHO            .PPM                       :             HNGS Formation Thorium Concentration
 HURA            .PPM                       :             HNGS Formation Uranium Concentration
 MSFT_72H_ALL_R  .                          :             
 MSFT_72H_ALL_X  .                          :             
 PE              .B/E                       : PEF         "copied from PE_1 in WIRE set"
 PHID_SS         .dec                       : Phi         
 POTA            .%                         : Spectral    POTA*100
 RH72H_1D        .OHM.M                     :             
 RH72H_1D_FLT    .OHM.M                     :             
 RHO8            .G/C3                      : Density     HRDD High Resolution Formation Density
 RHOZ            .G/C3                      : Density     HRDD Standard Resolution Formation Density
 RV72H_1D        .OHM.M                     :             
 RV72H_1D_FLT    .OHM.M                     :             
 SDEV            .DEG                       :             Sonde Deviation
 TENS            .LBF                       : Tension     Cable Tension
 TNPH            .V/V                       : Neutron     Thermal Neutron Porosity
~A  DEPTH    AT10      AT20      AT30      AT60      AT90      CALI   CORE_FLA~  COREPERM  COREPOR   CORERHOB CORERHOB~ CORERHOB~  CORERHOG   CORESO    CORESW    DEPTH   DEPTH_OR~ DPAA_TOH~ DPAP_72H~    DRHO      EHGR     FPRESS    FTEMP       GR     GR_CORE    GR_SM      HAZI      HCGR      HSGR      HTHO      HURA   MSFT_72H~ MSFT_72H~     PE     PHID_SS     POTA    RH72H_1D RH72H_1D~    RHO8      RHOZ    RV72H_1D RV72H_1D~    SDEV      TENS      TNPH   
# ...
9598.0000    1.0200    0.8352    0.7757    0.7180    0.7093   12.9115 -999.0000 -999.0000 -999.0000 -999.0000 -999.0000 -999.0000 -999.0000 -999.0000 -999.0000 9598.0000 -999.0000 -999.0000 -999.0000    0.0157  130.3054 4342.3706  227.1920  108.3148 -999.0000 -999.0000    8.7752   91.1905  122.6844   18.9880    3.9879 -999.0000 -999.0000    4.0152    0.1813    1.7500 -999.0000 -999.0000    2.3555    2.3509 -999.0000 -999.0000   52.4102 4280.0000    0.5061 
9598.2500    1.0201    0.8388    0.7787    0.7205    0.7109   12.9879 -999.0000 -999.0000 -999.0000 -999.0000 -999.0000 -999.0000 -999.0000 -999.0000 -999.0000 9598.2500 -999.0000 -999.0000 -999.0000    0.0152  133.8865 4342.4468  227.1953  108.9205 -999.0000 -999.0000    8.7743   91.0328  123.4261   18.9255    4.0875 -999.0000 -999.0000    3.9990    0.1788    1.7500 -999.0000 -999.0000    2.3659    2.3549 -999.0000 -999.0000   52.4116 4302.5000    0.4838 
9598.5000    1.0203    0.8425    0.7817    0.7230    0.7125   13.0642 -999.0000 -999.0000 -999.0000 -999.0000 -999.0000 -999.0000 -999.0000 -999.0000 -999.0000 9598.5000 -999.0000 -999.0000 -999.0000    0.0146  134.1631 4342.5234  227.1985  109.5263 -999.0000 -999.0000    8.7734   90.8750  124.1678   18.8629    4.1871 -999.0000 -999.0000    3.9829    0.1764    1.7500 -999.0000 -999.0000    2.3762    2.3590 -999.0000 -999.0000   52.4131 4325.0000    0.4614 
9598.7500    1.0202    0.8433    0.7819    0.7231    0.7128   13.0333 -999.0000 -999.0000 -999.0000 -999.0000 -999.0000 -999.0000 -999.0000 -999.0000 -999.0000 9598.7500 -999.0000 -999.0000 -999.0000    0.0142  142.1124 4342.5996  227.2018  109.6364 -999.0000 -999.0000    8.7692   90.5527  123.2086   18.9719    4.1014 -999.0000 -999.0000    3.9770    0.1758    1.7150 -999.0000 -999.0000    2.3716    2.3599 -999.0000 -999.0000   52.4056 4319.5000    0.4650 
9599.0000    1.0201    0.8441    0.7822    0.7233    0.7130   13.0024 -999.0000 -999.0000 -999.0000 -999.0000 -999.0000 -999.0000 -999.0000 -999.0000 -999.0000 9599.0000 -999.0000 -999.0000 -999.0000    0.0137  137.3073 4342.6763  227.2050  109.7465 -999.0000 -999.0000    8.7650   90.2304  122.2495   19.0809    4.0158 -999.0000 -999.0000    3.9711    0.1752    1.6800 -999.0000 -999.0000    2.3669    2.3609 -999.0000 -999.0000   52.3980 4314.0000    0.4685 
9599.2500    1.0210    0.8430    0.7816    0.7231    0.7121   12.8915 -999.0000 -999.0000 -999.0000 -999.0000 -999.0000 -999.0000 -999.0000 -999.0000 -999.0000 9599.2500 -999.0000 -999.0000 -999.0000    0.0146  125.5453 4342.7524  227.2083  110.2797 -999.0000 -999.0000    8.7653   91.4796  124.9933   19.4040    4.1957 -999.0000 -999.0000    3.9853    0.1742    1.6900 -999.0000 -999.0000    2.3663    2.3626 -999.0000 -999.0000   52.3989 4316.0000    0.4640 
9599.5000    1.0218    0.8420    0.7810    0.7229    0.7111   12.7806 -999.0000 -999.0000 -999.0000 -999.0000 -999.0000 -999.0000 -999.0000 -999.0000 -999.0000 9599.5000 -999.0000 -999.0000 -999.0000    0.0156  130.5598 4342.8291  227.2115  110.8130 -999.0000 -999.0000    8.7656   92.7289  127.7371   19.7270    4.3755 -999.0000 -999.0000    3.9996    0.1732    1.7000 -999.0000 -999.0000    2.3657    2.3642 -999.0000 -999.0000   52.3998 4318.0000    0.4595 
9599.7500    1.0221    0.8416    0.7798    0.7219    0.7083   12.7661 -999.0000 -999.0000 -999.0000 -999.0000 -999.0000 -999.0000 -999.0000 -999.0000 -999.0000 9599.7500 -999.0000 -999.0000 -999.0000    0.0158  135.6986 4342.9053  227.2148  110.1344 -999.0000 -999.0000    8.7650   93.1718  128.3342   19.7912    4.4031 -999.0000 -999.0000    4.0344    0.1732    1.7150 -999.0000 -999.0000    2.3592    2.3643 -999.0000 -999.0000   52.3933 4270.0000    0.4667 
9600.0000    1.0223    0.8411    0.7786    0.7208    0.7055   12.7515 -999.0000 -999.0000 -999.0000 -999.0000 -999.0000 -999.0000 -999.0000 -999.0000 -999.0000 9600.0000 -999.0000 -999.0000 -999.0000    0.0159  134.3893 4342.9814  227.2180  109.4557 -999.0000 -999.0000    8.7644   93.6148  128.9312   19.8554    4.4306 -999.0000 -999.0000    4.0692    0.1732    1.7300 -999.0000 -999.0000    2.3528    2.3643 -999.0000 -999.0000   52.3868 4222.0000    0.4738 
9600.2500    1.0212    0.8368    0.7763    0.7189    0.7046   12.7679 -999.0000 -999.0000 -999.0000 -999.0000 -999.0000 -999.0000 -999.0000 -999.0000 -999.0000 9600.2500 -999.0000 -999.0000 -999.0000    0.0167  129.0421 4343.0576  227.2213  109.0152 -999.0000 -999.0000    8.7644   92.3707  127.8853   19.8667    4.5166 -999.0000 -999.0000    4.1147    0.1727    1.6600 -999.0000 -999.0000    2.3560    2.3650 -999.0000 -999.0000   52.3868 4227.0000    0.4870 
9600.5000    1.0200    0.8325    0.7741    0.7171    0.7036   12.7843 -999.0000 -999.0000 -999.0000 -999.0000 -999.0000 -999.0000 -999.0000 -999.0000 -999.0000 9600.5000 -999.0000 -999.0000 -999.0000    0.0174  128.4377 4343.1343  227.2245  108.5747 -999.0000 -999.0000    8.7644   91.1266  126.8394   19.8780    4.6025 -999.0000 -999.0000    4.1602    0.1723    1.5900 -999.0000 -999.0000    2.3593    2.3657 -999.0000 -999.0000   52.3869 4232.0000    0.5002 
9600.7500    1.0187    0.8336    0.7736    0.7180    0.7024   12.8697 -999.0000 -999.0000 -999.0000 -999.0000 -999.0000 -999.0000 -999.0000 -999.0000 -999.0000 9600.7500 -999.0000 -999.0000 -999.0000    0.0175  130.7084 4343.2104  227.2278  107.9207 -999.0000 -999.0000    8.7673   88.6614  126.2130   19.2550    4.8127 -999.0000 -999.0000    4.1913    0.1713    1.5600 -999.0000 -999.0000    2.3596    2.3674 -999.0000 -999.0000   52.3882 4253.5000    0.5052 
9601.0000    1.0174    0.8347    0.7731    0.7190    0.7013   12.9551 -999.0000 -999.0000 -999.0000 -999.0000 -999.0000 -999.0000 -999.0000 -999.0000 -999.0000 9601.0000 -999.0000 -999.0000 -999.0000    0.0176  128.0838 4343.2871  227.2310  107.2666 -999.0000 -999.0000    8.7702   86.1961  125.5866   18.6320    5.0230 -999.0000 -999.0000    4.2224    0.1703    1.5300 -999.0000 -999.0000    2.3598    2.3690 -999.0000 -999.0000   52.3895 4275.0000    0.5102 
9601.2500    1.0301    0.8432    0.7828    0.7246    0.7091   13.0169 -999.0000 -999.0000 -999.0000 -999.0000 -999.0000 -999.0000 -999.0000 -999.0000 -999.0000 9601.2500 -999.0000 -999.0000 -999.0000    0.0188  126.1795 4343.3633  227.2345  108.1066 -999.0000 -999.0000    8.7710   85.1125  124.3384   18.3631    4.9871 -999.0000 -999.0000    4.2238    0.1672    1.5200 -999.0000 -999.0000    2.3730    2.3741 -999.0000 -999.0000   52.3848 4269.5000    0.5044 
9601.5000    1.0429    0.8516    0.7925    0.7301    0.7169   13.0787 -999.0000 -999.0000 -999.0000 -999.0000 -999.0000 -999.0000 -999.0000 -999.0000 -999.0000 9601.5000 -999.0000 -999.0000 -999.0000    0.0201  133.0831 4343.4399  227.2380  108.9466 -999.0000 -999.0000    8.7718   84.0289  123.0902   18.0942    4.9512 -999.0000 -999.0000    4.2251    0.1641    1.5100 -999.0000 -999.0000    2.3863    2.3792 -999.0000 -999.0000   52.3801 4264.0000    0.4985 
9601.7500    1.0543    0.8612    0.7995    0.7339    0.7221   13.1041 -999.0000 -999.0000 -999.0000 -999.0000 -999.0000 -999.0000 -999.0000 -999.0000 -999.0000 9601.7500 -999.0000 -999.0000 -999.0000    0.0208  139.9881 4343.5161  227.2415  109.6074 -999.0000 -999.0000    8.7726   84.8605  124.5985   18.2340    5.0289 -999.0000 -999.0000    4.2364    0.1605    1.5300 -999.0000 -999.0000    2.3913    2.3851 -999.0000 -999.0000   52.3776 4298.0000    0.4967 
9602.0000    1.0657    0.8708    0.8065    0.7378    0.7273   13.1296 -999.0000 -999.0000 -999.0000 -999.0000 -999.0000 -999.0000 -999.0000 -999.0000 -999.0000 9602.0000 -999.0000 -999.0000 -999.0000    0.0216  137.3527 4343.5923  227.2450  110.2682 -999.0000 -999.0000    8.7735   85.6922  126.1069   18.3738    5.1066 -999.0000 -999.0000    4.2477    0.1570    1.5500 -999.0000 -999.0000    2.3963    2.3910 -999.0000 -999.0000   52.3750 4332.0000    0.4949 
9602.2500    1.0673    0.8728    0.8090    0.7374    0.7275   13.0278 -999.0000 -999.0000 -999.0000 -999.0000 -999.0000 -999.0000 -999.0000 -999.0000 -999.0000 9602.2500 -999.0000 -999.0000 -999.0000    0.0228  134.5802 4343.6685  227.2482  108.7905 -999.0000 -999.0000    8.7726   86.5293  125.8075   18.3046    4.9789 -999.0000 -999.0000    4.2268    0.1548    1.6100 -999.0000 -999.0000    2.4051    2.3945 -999.0000 -999.0000   52.3664 4363.0000    0.5096 
