~VERSION INFORMATION SECTION
VERS.           2.0  :CWLS Log ASCII Standard - 2.0
WRAP.           NO   :One line per depth
#               Created in UTAPWeLS
~WELL INFORMATION SECTION
#MNEM.UNIT  VALUE/NAME             :DESCRIPTION    
STRT.FT  2932.8219                 :Start Depth    
STOP.FT  6443.5719                 :Stop Depth     
STEP.FT  0.25                      :Step           
NULL.    -999.25                   :Null Value     
WELL.    Consortium23_Motivation   :Well Name      
CTRY.    UNKNOWN                   :Country        
CNTY.    UNKNOWN                   :County         
STAT.    UNKNOWN                   :State          
API .    UNKNOWN                   :API number     
UWI .    UNKNOWN                   :Unique well ID 
LOC .    UNKNOWN                   :Well Location  
FLD .    UNKNOWN                   :Field          
COMP.    UNKNOWN                   :Company        
SRVC.    UNKNOWN                   :Service Company
DATE.    19-Apr-2024               :Date           
~PARAMETER INFORMATION SECTION
#MNEM.UNITS  VALUE   :DESCRIPTION OF PARAMETER
~CURVE INFORMATION SECTION
#MNEM                                            .UNITS  API CODES   :DESCRIPTION OF MNEMONIC                          
Measured Depth                                   .FT                 :Measured Depth                                   
Resistivity Mud                                  .OHM-M              :Resistivity Mud                                  
Resistivity Invaded                              .OHM-M              :Resistivity Invaded                              
Resistivity Formation (Uninvaded)                .OHM-M              :Resistivity Formation (Uninvaded)                
Resistivity (Perpendicular) Mud                  .OHM-M              :Resistivity (Perpendicular) Mud                  
Resistivity (Perpendicular) Invaded              .OHM-M              :Resistivity (Perpendicular) Invaded              
Resistivity (Perpendicular) Formation (Uninvaded).OHM-M              :Resistivity (Perpendicular) Formation (Uninvaded)
~A Measured Dep Resistivity  Resistivity  Resistivity  Resistivity  Resistivity  Resistivity  
# ...
 3400.32186614 1000.00000000   1.00000000   1.00000000   1.00000000  10.00000000  10.00000000 
 3400.57186614 1000.00000000   1.00000000   1.00000000   1.00000000  10.00000000  10.00000000 
 3400.82186614 1000.00000000   1.00000000   1.00000000   1.00000000  10.00000000  10.00000000 
 3401.07186614 1000.00000000   1.00000000   1.00000000   1.00000000  10.00000000  10.00000000 
 3401.32186614 1000.00000000   1.00000000   1.00000000   1.00000000  10.00000000  10.00000000 
 3401.57186614 1000.00000000   1.00000000   1.00000000   1.00000000  10.00000000  10.00000000 
 3401.82186614 1000.00000000   1.00000000   1.00000000   1.00000000  10.00000000  10.00000000 
 3402.07186614 1000.00000000   1.00000000   1.00000000   1.00000000  10.00000000  10.00000000 
 3402.32186614 1000.00000000   1.00000000   1.00000000   1.00000000  10.00000000  10.00000000 
 3402.57186614 1000.00000000   1.00000000   1.00000000   1.00000000  10.00000000  10.00000000 
 3402.82186614 1000.00000000   1.00000000   1.00000000   1.00000000  10.00000000  10.00000000 
 3403.07186614 1000.00000000   1.00000000   1.00000000   1.00000000  10.00000000  10.00000000 
 3403.32186614 1000.00000000   1.00000000   1.00000000   1.00000000  10.00000000  10.00000000 
 3403.57186614 1000.00000000   1.00000000   1.00000000   1.00000000  10.00000000  10.00000000 
 3403.82186614 1000.00000000   1.00000000   1.00000000   1.00000000  10.00000000  10.00000000 
 3404.07186614 1000.00000000   1.00000000   1.00000000   1.00000000  10.00000000  10.00000000 
 3404.32186614 1000.00000000   1.00000000   1.00000000   1.00000000  10.00000000  10.00000000 
 3404.57186614 1000.00000000   1.00000000   1.00000000   1.00000000  10.00000000  10.00000000 
 3404.82186614 1000.00000000   1.00000000   1.00000000   1.00000000  10.00000000  10.00000000 
 3405.07186614 1000.00000000   1.00000000   1.00000000   1.00000000  10.00000000  10.00000000 
 3405.32186614 1000.00000000   1.00000000   1.00000000   1.00000000  10.00000000  10.00000000 
 3405.57186614 1000.00000000   1.00000000   1.00000000   1.00000000  10.00000000  10.00000000 
 3405.82186614 1000.00000000   1.00000000   1.00000000   1.00000000  10.00000000  10.00000000 
 3406.07186614 1000.00000000   1.00000000   1.00000000   1.00000000  10.00000000  10.00000000 
 3406.32186614 1000.00000000   1.00000000   1.00000000   1.00000000  10.00000000  10.00000000 
 3406.57186614 1000.00000000   1.00000000   1.00000000   1.00000000  10.00000000  10.00000000 
 3406.82186614 1000.00000000   1.00000000   1.00000000   1.00000000  10.00000000  10.00000000 
 3407.07186614 1000.00000000   1.00000000   1.00000000   1.00000000  10.00000000  10.00000000 
 3407.32186614 1000.00000000   1.00000000   1.00000000   1.00000000  10.00000000  10.00000000 
 3407.57186614 1000.00000000   1.00000000   1.00000000   1.00000000  10.00000000  10.00000000 
 3407.82186614 1000.00000000   1.00000000   1.00000000   1.00000000  10.00000000  10.00000000 
 3408.07186614 1000.00000000   1.00000000   1.00000000   1.00000000  10.00000000  10.00000000 
 3408.32186614 1000.00000000   1.00000000   1.00000000   1.00000000  10.00000000  10.00000000 
 3408.57186614 1000.00000000   1.00000000   1.00000000   1.00000000  10.00000000  10.00000000 
 3408.82186614 1000.00000000   1.00000000   1.00000000   1.00000000  10.00000000  10.00000000 
 3409.07186614 1000.00000000   1.00000000   1.00000000   1.00000000  10.00000000  10.00000000 
 3409.32186614 1000.00000000   1.00000000   1.00000000   1.00000000  10.00000000  10.00000000 
 3409.57186614 1000.00000000   1.00000000   1.00000000   1.00000000  10.00000000  10.00000000 
 3409.82186614 1000.00000000   1.00000000   1.00000000   1.00000000  10.00000000  10.00000000 
 3410.07186614 1000.00000000   1.00000000   1.00000000   1.00000000  10.00000000  10.00000000 
 3410.32186614 1000.00000000   1.00000000   1.00000000   1.00000000  10.00000000  10.00000000 
 3410.57186614 1000.00000000   1.00000000   1.00000000   1.00000000  10.00000000  10.00000000 
 3410.82186614 1000.00000000   1.00000000   1.00000000   1.00000000  10.00000000  10.00000000 
 3411.07186614 1000.00000000   1.00000000   1.00000000   1.00000000  10.00000000  10.00000000 
 3411.32186614 1000.00000000   1.00000000   1.00000000   1.00000000  10.00000000  10.00000000 
 3411.57186614 1000.00000000   1.00000000   1.00000000   1.00000000  10.00000000  10.00000000 
 3411.82186614 1000.00000000   1.00000000   1.00000000   1.00000000  10.00000000  10.00000000 
 3412.07186614 1000.00000000   1.00000000   1.00000000   1.00000000  10.00000000  10.00000000 
 3412.32186614 1000.00000000   1.00000000   1.00000000   1.00000000  10.00000000  10.00000000 
 3412.57186614 1000.00000000   1.00000000   1.00000000   1.00000000  10.00000000  10.00000000 
 3412.82186614 1000.00000000   1.00000000   1.00000000   1.00000000  10.00000000  10.00000000 
 3413.07186614 1000.00000000   1.00000000   1.00000000   1.00000000  10.00000000  10.00000000 
 3413.32186614 1000.00000000   1.00000000   1.00000000   1.00000000  10.00000000  10.00000000 
 3413.57186614 1000.00000000   1.00000000   1.00000000   1.00000000  10.00000000  10.00000000 
 3413.82186614 1000.00000000   1.00000000   1.00000000   1.00000000  10.00000000  10.00000000 
 3414.07186614 1000.00000000   1.00000000   1.00000000   1.00000000  10.00000000  10.00000000 
 3414.32186614 1000.00000000   1.00000000   1.00000000   1.00000000  10.00000000  10.00000000 
 3414.57186614 1000.00000000   1.00000000   1.00000000   1.00000000  10.00000000  10.00000000 
 3414.82186614 1000.00000000   1.00000000   1.00000000   1.00000000  10.00000000  10.00000000 
 3415.07186614 1000.00000000   1.00000000   1.00000000   1.00000000  10.00000000  10.00000000 
 3415.32186614 1000.00000000   1.00000000   1.00000000   1.00000000  10.00000000  10.00000000 
 3415.57186614 1000.00000000   1.00000000   1.00000000   1.00000000  10.00000000  10.00000000 
 3415.82186614 1000.00000000   1.00000000   1.00000000   1.00000000  10.00000000  10.00000000 
 3416.07186614 1000.00000000   1.00000000   1.00000000   1.00000000  10.00000000  10.00000000 
 3416.32186614 1000.00000000   1.00000000   1.00000000   1.00000000  10.00000000  10.00000000 
 3416.57186614 1000.00000000   1.00000000   1.00000000   1.00000000  10.00000000  10.00000000 
 3416.82186614 1000.00000000   1.00000000   1.00000000   1.00000000  10.00000000  10.00000000 
 3417.07186614 1000.00000000   1.00000000   1.00000000   1.00000000  10.00000000  10.00000000 
 3417.32186614 1000.00000000   1.00000000   1.00000000   1.00000000  10.00000000  10.00000000 
 3417.57186614 1000.00000000   1.00000000   1.00000000   1.00000000  10.00000000  10.00000000 
 3417.82186614 1000.00000000   1.00000000   1.00000000   1.00000000  10.00000000  10.00000000 
 3418.07186614 1000.00000000   1.00000000   1.00000000   1.00000000  10.00000000  10.00000000 
 3418.32186614 1000.00000000   1.00000000   1.00000000   1.00000000  10.00000000  10.00000000 
 3418.57186614 1000.00000000   1.00000000   1.00000000   1.00000000  10.00000000  10.00000000 
 3418.82186614 1000.00000000   1.00000000   1.00000000   1.00000000  10.00000000  10.00000000 
 3419.07186614 1000.00000000   1.00000000   1.00000000   1.00000000  10.00000000  10.00000000 
 3419.32186614 1000.00000000   1.00000000   1.00000000   1.00000000  10.00000000  10.00000000 
 3419.57186614 1000.00000000   1.00000000   1.00000000   1.00000000  10.00000000  10.00000000 
 3419.82186614 1000.00000000   1.00000000   1.00000000   1.00000000  10.00000000  10.00000000 
 3420.07186614 1000.00000000   1.00000000   1.00000000   1.00000000  10.00000000  10.00000000 
 3420.32186614 1000.00000000   1.00000000   1.00000000   1.00000000  10.00000000  10.00000000 
 3420.57186614 1000.00000000   1.00000000   1.00000000   1.00000000  10.00000000  10.00000000 
 3420.82186614 1000.00000000   1.00000000   1.00000000   1.00000000  10.00000000  10.00000000 
 3421.07186614 1000.00000000   1.00000000   1.00000000   1.00000000  10.00000000  10.00000000 
 3421.32186614 1000.00000000   1.00000000   1.00000000   1.00000000  10.00000000  10.00000000 
