~VERSION INFORMATION SECTION
VERS.           2.0  :CWLS Log ASCII Standard - 2.0
WRAP.           NO   :One line per depth
#               Created in UTAPWeLS
~WELL INFORMATION SECTION
#MNEM.UNIT  VALUE/NAME             :DESCRIPTION    
STRT.FT  2932.8219                 :Start Depth    
STOP.FT  6443.5719                 :Stop Depth     
STEP.FT  0.25                      :Step           
NULL.    -999.25                   :Null Value     
WELL.    Consortium23_Motivation   :Well Name      
CTRY.    UNKNOWN                   :Country        
CNTY.    UNKNOWN                   :County         
STAT.    UNKNOWN                   :State          
API .    UNKNOWN                   :API number     
UWI .    UNKNOWN                   :Unique well ID 
LOC .    UNKNOWN                   :Well Location  
FLD .    UNKNOWN                   :Field          
COMP.    UNKNOWN                   :Company        
SRVC.    UNKNOWN                   :Service Company
DATE.    19-Apr-2024               :Date           
~PARAMETER INFORMATION SECTION
#MNEM.UNITS  VALUE   :DESCRIPTION OF PARAMETER
~CURVE INFORMATION SECTION
#MNEM                                            .UNITS  API CODES   :DESCRIPTION OF MNEMONIC                          
Measured Depth                                   .FT                 :Measured Depth                                   
Resistivity Mud                                  .OHM-M              :Resistivity Mud                                  
Resistivity Invaded                              .OHM-M              :Resistivity Invaded                              
Resistivity Formation (Uninvaded)                .OHM-M              :Resistivity Formation (Uninvaded)                
Resistivity (Perpendicular) Mud                  .OHM-M              :Resistivity (Perpendicular) Mud                  
Resistivity (Perpendicular) Invaded              .OHM-M              :Resistivity (Perpendicular) Invaded              
Resistivity (Perpendicular) Formation (Uninvaded).OHM-M              :Resistivity (Perpendicular) Formation (Uninvaded)
~A Measured Dep Resistivity  Resistivity  Resistivity  Resistivity  Resistivity  Resistivity  
# ...
 3166.57186614 1000.00000000   1.00000000   1.00000000   1.00000000  10.00000000  10.00000000 
 3166.82186614 1000.00000000   1.00000000   1.00000000   1.00000000  10.00000000  10.00000000 
 3167.07186614 1000.00000000   1.00000000   1.00000000   1.00000000  10.00000000  10.00000000 
 3167.32186614 1000.00000000   1.00000000   1.00000000   1.00000000  10.00000000  10.00000000 
 3167.57186614 1000.00000000   1.00000000   1.00000000   1.00000000  10.00000000  10.00000000 
 3167.82186614 1000.00000000   1.00000000   1.00000000   1.00000000  10.00000000  10.00000000 
 3168.07186614 1000.00000000   1.00000000   1.00000000   1.00000000  10.00000000  10.00000000 
 3168.32186614 1000.00000000   1.00000000   1.00000000   1.00000000  10.00000000  10.00000000 
 3168.57186614 1000.00000000   1.00000000   1.00000000   1.00000000  10.00000000  10.00000000 
 3168.82186614 1000.00000000   1.00000000   1.00000000   1.00000000  10.00000000  10.00000000 
 3169.07186614 1000.00000000   1.00000000   1.00000000   1.00000000  10.00000000  10.00000000 
 3169.32186614 1000.00000000   1.00000000   1.00000000   1.00000000  10.00000000  10.00000000 
 3169.57186614 1000.00000000   1.00000000   1.00000000   1.00000000  10.00000000  10.00000000 
 3169.82186614 1000.00000000   1.00000000   1.00000000   1.00000000  10.00000000  10.00000000 
 3170.07186614 1000.00000000   1.00000000   1.00000000   1.00000000  10.00000000  10.00000000 
 3170.32186614 1000.00000000   1.00000000   1.00000000   1.00000000  10.00000000  10.00000000 
 3170.57186614 1000.00000000   1.00000000   1.00000000   1.00000000  10.00000000  10.00000000 
 3170.82186614 1000.00000000   1.00000000   1.00000000   1.00000000  10.00000000  10.00000000 
 3171.07186614 1000.00000000   1.00000000   1.00000000   1.00000000  10.00000000  10.00000000 
 3171.32186614 1000.00000000   1.00000000   1.00000000   1.00000000  10.00000000  10.00000000 
 3171.57186614 1000.00000000   1.00000000   1.00000000   1.00000000  10.00000000  10.00000000 
 3171.82186614 1000.00000000   1.00000000   1.00000000   1.00000000  10.00000000  10.00000000 
 3172.07186614 1000.00000000   1.00000000   1.00000000   1.00000000  10.00000000  10.00000000 
 3172.32186614 1000.00000000   1.00000000   1.00000000   1.00000000  10.00000000  10.00000000 
 3172.57186614 1000.00000000   1.00000000   1.00000000   1.00000000  10.00000000  10.00000000 
 3172.82186614 1000.00000000   1.00000000   1.00000000   1.00000000  10.00000000  10.00000000 
 3173.07186614 1000.00000000   1.00000000   1.00000000   1.00000000  10.00000000  10.00000000 
 3173.32186614 1000.00000000   1.00000000   1.00000000   1.00000000  10.00000000  10.00000000 
 3173.57186614 1000.00000000   1.00000000   1.00000000   1.00000000  10.00000000  10.00000000 
 3173.82186614 1000.00000000   1.00000000   1.00000000   1.00000000  10.00000000  10.00000000 
 3174.07186614 1000.00000000   1.00000000   1.00000000   1.00000000  10.00000000  10.00000000 
 3174.32186614 1000.00000000   1.00000000   1.00000000   1.00000000  10.00000000  10.00000000 
 3174.57186614 1000.00000000   1.00000000   1.00000000   1.00000000  10.00000000  10.00000000 
 3174.82186614 1000.00000000   1.00000000   1.00000000   1.00000000  10.00000000  10.00000000 
 3175.07186614 1000.00000000   1.00000000   1.00000000   1.00000000  10.00000000  10.00000000 
 3175.32186614 1000.00000000   1.00000000   1.00000000   1.00000000  10.00000000  10.00000000 
 3175.57186614 1000.00000000   1.00000000   1.00000000   1.00000000  10.00000000  10.00000000 
 3175.82186614 1000.00000000   1.00000000   1.00000000   1.00000000  10.00000000  10.00000000 
 3176.07186614 1000.00000000   1.00000000   1.00000000   1.00000000  10.00000000  10.00000000 
 3176.32186614 1000.00000000   1.00000000   1.00000000   1.00000000  10.00000000  10.00000000 
 3176.57186614 1000.00000000   1.00000000   1.00000000   1.00000000  10.00000000  10.00000000 
 3176.82186614 1000.00000000   1.00000000   1.00000000   1.00000000  10.00000000  10.00000000 
 3177.07186614 1000.00000000   1.00000000   1.00000000   1.00000000  10.00000000  10.00000000 
 3177.32186614 1000.00000000   1.00000000   1.00000000   1.00000000  10.00000000  10.00000000 
 3177.57186614 1000.00000000   1.00000000   1.00000000   1.00000000  10.00000000  10.00000000 
 3177.82186614 1000.00000000   1.00000000   1.00000000   1.00000000  10.00000000  10.00000000 
 3178.07186614 1000.00000000   1.00000000   1.00000000   1.00000000  10.00000000  10.00000000 
 3178.32186614 1000.00000000   1.00000000   1.00000000   1.00000000  10.00000000  10.00000000 
 3178.57186614 1000.00000000   1.00000000   1.00000000   1.00000000  10.00000000  10.00000000 
 3178.82186614 1000.00000000   1.00000000   1.00000000   1.00000000  10.00000000  10.00000000 
 3179.07186614 1000.00000000   1.00000000   1.00000000   1.00000000  10.00000000  10.00000000 
 3179.32186614 1000.00000000   1.00000000   1.00000000   1.00000000  10.00000000  10.00000000 
 3179.57186614 1000.00000000   1.00000000   1.00000000   1.00000000  10.00000000  10.00000000 
 3179.82186614 1000.00000000   1.00000000   1.00000000   1.00000000  10.00000000  10.00000000 
 3180.07186614 1000.00000000   1.00000000   1.00000000   1.00000000  10.00000000  10.00000000 
 3180.32186614 1000.00000000   1.00000000   1.00000000   1.00000000  10.00000000  10.00000000 
 3180.57186614 1000.00000000   1.00000000   1.00000000   1.00000000  10.00000000  10.00000000 
 3180.82186614 1000.00000000   1.00000000   1.00000000   1.00000000  10.00000000  10.00000000 
 3181.07186614 1000.00000000   1.00000000   1.00000000   1.00000000  10.00000000  10.00000000 
 3181.32186614 1000.00000000   1.00000000   1.00000000   1.00000000  10.00000000  10.00000000 
 3181.57186614 1000.00000000   1.00000000   1.00000000   1.00000000  10.00000000  10.00000000 
 3181.82186614 1000.00000000   1.00000000   1.00000000   1.00000000  10.00000000  10.00000000 
 3182.07186614 1000.00000000   1.00000000   1.00000000   1.00000000  10.00000000  10.00000000 
 3182.32186614 1000.00000000   1.00000000   1.00000000   1.00000000  10.00000000  10.00000000 
 3182.57186614 1000.00000000   1.00000000   1.00000000   1.00000000  10.00000000  10.00000000 
 3182.82186614 1000.00000000   1.00000000   1.00000000   1.00000000  10.00000000  10.00000000 
 3183.07186614 1000.00000000   1.00000000   1.00000000   1.00000000  10.00000000  10.00000000 
 3183.32186614 1000.00000000   1.00000000   1.00000000   1.00000000  10.00000000  10.00000000 
 3183.57186614 1000.00000000   1.00000000   1.00000000   1.00000000  10.00000000  10.00000000 
 3183.82186614 1000.00000000   1.00000000   1.00000000   1.00000000  10.00000000  10.00000000 
 3184.07186614 1000.00000000   1.00000000   1.00000000   1.00000000  10.00000000  10.00000000 
 3184.32186614 1000.00000000   1.00000000   1.00000000   1.00000000  10.00000000  10.00000000 
 3184.57186614 1000.00000000   1.00000000   1.00000000   1.00000000  10.00000000  10.00000000 
 3184.82186614 1000.00000000   1.00000000   1.00000000   1.00000000  10.00000000  10.00000000 
 3185.07186614 1000.00000000   1.00000000   1.00000000   1.00000000  10.00000000  10.00000000 
 3185.32186614 1000.00000000   1.00000000   1.00000000   1.00000000  10.00000000  10.00000000 
 3185.57186614 1000.00000000   1.00000000   1.00000000   1.00000000  10.00000000  10.00000000 
 3185.82186614 1000.00000000   1.00000000   1.00000000   1.00000000  10.00000000  10.00000000 
 3186.07186614 1000.00000000   1.00000000   1.00000000   1.00000000  10.00000000  10.00000000 
 3186.32186614 1000.00000000   1.00000000   1.00000000   1.00000000  10.00000000  10.00000000 
 3186.57186614 1000.00000000   1.00000000   1.00000000   1.00000000  10.00000000  10.00000000 
 3186.82186614 1000.00000000   1.00000000   1.00000000   1.00000000  10.00000000  10.00000000 
 3187.07186614 1000.00000000   1.00000000   1.00000000   1.00000000  10.00000000  10.00000000 
 3187.32186614 1000.00000000   1.00000000   1.00000000   1.00000000  10.00000000  10.00000000 
 3187.57186614 1000.00000000   1.00000000   1.00000000   1.00000000  10.00000000  10.00000000 
