~VERSION INFORMATION SECTION
VERS.           2.0  :CWLS Log ASCII Standard - 2.0
WRAP.           NO   :One line per depth
#               Created in UTAPWeLS
~WELL INFORMATION SECTION
#MNEM.UNIT  VALUE/NAME             :DESCRIPTION    
STRT.FT  2932.8219                 :Start Depth    
STOP.FT  6443.5719                 :Stop Depth     
STEP.FT  0.25                      :Step           
NULL.    -999.25                   :Null Value     
WELL.    Consortium23_Motivation   :Well Name      
CTRY.    UNKNOWN                   :Country        
CNTY.    UNKNOWN                   :County         
STAT.    UNKNOWN                   :State          
API .    UNKNOWN                   :API number     
UWI .    UNKNOWN                   :Unique well ID 
LOC .    UNKNOWN                   :Well Location  
FLD .    UNKNOWN                   :Field          
COMP.    UNKNOWN                   :Company        
SRVC.    UNKNOWN                   :Service Company
DATE.    19-Apr-2024               :Date           
~PARAMETER INFORMATION SECTION
#MNEM.UNITS  VALUE   :DESCRIPTION OF PARAMETER
~CURVE INFORMATION SECTION
#MNEM                                            .UNITS  API CODES   :DESCRIPTION OF MNEMONIC                          
Measured Depth                                   .FT                 :Measured Depth                                   
Resistivity Mud                                  .OHM-M              :Resistivity Mud                                  
Resistivity Invaded                              .OHM-M              :Resistivity Invaded                              
Resistivity Formation (Uninvaded)                .OHM-M              :Resistivity Formation (Uninvaded)                
Resistivity (Perpendicular) Mud                  .OHM-M              :Resistivity (Perpendicular) Mud                  
Resistivity (Perpendicular) Invaded              .OHM-M              :Resistivity (Perpendicular) Invaded              
Resistivity (Perpendicular) Formation (Uninvaded).OHM-M              :Resistivity (Perpendicular) Formation (Uninvaded)
~A Measured Dep Resistivity  Resistivity  Resistivity  Resistivity  Resistivity  Resistivity  
# ...
 5950.32186614 1000.00000000   1.00000000   1.00000000   1.00000000  10.00000000  10.00000000 
 5950.57186614 1000.00000000   1.00000000   1.00000000   1.00000000  10.00000000  10.00000000 
 5950.82186614 1000.00000000   1.00000000   1.00000000   1.00000000  10.00000000  10.00000000 
 5951.07186614 1000.00000000   1.00000000   1.00000000   1.00000000  10.00000000  10.00000000 
 5951.32186614 1000.00000000   1.00000000   1.00000000   1.00000000  10.00000000  10.00000000 
 5951.57186614 1000.00000000   1.00000000   1.00000000   1.00000000  10.00000000  10.00000000 
 5951.82186614 1000.00000000   1.00000000   1.00000000   1.00000000  10.00000000  10.00000000 
 5952.07186614 1000.00000000   1.00000000   1.00000000   1.00000000  10.00000000  10.00000000 
 5952.32186614 1000.00000000   1.00000000   1.00000000   1.00000000  10.00000000  10.00000000 
 5952.57186614 1000.00000000   1.00000000   1.00000000   1.00000000  10.00000000  10.00000000 
 5952.82186614 1000.00000000   1.00000000   1.00000000   1.00000000  10.00000000  10.00000000 
 5953.07186614 1000.00000000   1.00000000   1.00000000   1.00000000  10.00000000  10.00000000 
 5953.32186614 1000.00000000   1.00000000   1.00000000   1.00000000  10.00000000  10.00000000 
 5953.57186614 1000.00000000   1.00000000   1.00000000   1.00000000  10.00000000  10.00000000 
 5953.82186614 1000.00000000   1.00000000   1.00000000   1.00000000  10.00000000  10.00000000 
 5954.07186614 1000.00000000   1.00000000   1.00000000   1.00000000  10.00000000  10.00000000 
 5954.32186614 1000.00000000   1.00000000   1.00000000   1.00000000  10.00000000  10.00000000 
 5954.57186614 1000.00000000   1.00000000   1.00000000   1.00000000  10.00000000  10.00000000 
 5954.82186614 1000.00000000   1.00000000   1.00000000   1.00000000  10.00000000  10.00000000 
 5955.07186614 1000.00000000   1.00000000   1.00000000   1.00000000  10.00000000  10.00000000 
 5955.32186614 1000.00000000   1.00000000   1.00000000   1.00000000  10.00000000  10.00000000 
 5955.57186614 1000.00000000   1.00000000   1.00000000   1.00000000  10.00000000  10.00000000 
 5955.82186614 1000.00000000   1.00000000   1.00000000   1.00000000  10.00000000  10.00000000 
 5956.07186614 1000.00000000   1.00000000   1.00000000   1.00000000  10.00000000  10.00000000 
 5956.32186614 1000.00000000   1.00000000   1.00000000   1.00000000  10.00000000  10.00000000 
 5956.57186614 1000.00000000   1.00000000   1.00000000   1.00000000  10.00000000  10.00000000 
 5956.82186614 1000.00000000   1.00000000   1.00000000   1.00000000  10.00000000  10.00000000 
 5957.07186614 1000.00000000   1.00000000   1.00000000   1.00000000  10.00000000  10.00000000 
 5957.32186614 1000.00000000   1.00000000   1.00000000   1.00000000  10.00000000  10.00000000 
 5957.57186614 1000.00000000   1.00000000   1.00000000   1.00000000  10.00000000  10.00000000 
 5957.82186614 1000.00000000   1.00000000   1.00000000   1.00000000  10.00000000  10.00000000 
 5958.07186614 1000.00000000   1.00000000   1.00000000   1.00000000  10.00000000  10.00000000 
 5958.32186614 1000.00000000   1.00000000   1.00000000   1.00000000  10.00000000  10.00000000 
 5958.57186614 1000.00000000   1.00000000   1.00000000   1.00000000  10.00000000  10.00000000 
 5958.82186614 1000.00000000   1.00000000   1.00000000   1.00000000  10.00000000  10.00000000 
 5959.07186614 1000.00000000   1.00000000   1.00000000   1.00000000  10.00000000  10.00000000 
 5959.32186614 1000.00000000   1.00000000   1.00000000   1.00000000  10.00000000  10.00000000 
 5959.57186614 1000.00000000   1.00000000   1.00000000   1.00000000  10.00000000  10.00000000 
 5959.82186614 1000.00000000   1.00000000   1.00000000   1.00000000  10.00000000  10.00000000 
 5960.07186614 1000.00000000   1.00000000   1.00000000   1.00000000  10.00000000  10.00000000 
 5960.32186614 1000.00000000   1.00000000   1.00000000   1.00000000  10.00000000  10.00000000 
 5960.57186614 1000.00000000   1.00000000   1.00000000   1.00000000  10.00000000  10.00000000 
 5960.82186614 1000.00000000   1.00000000   1.00000000   1.00000000  10.00000000  10.00000000 
 5961.07186614 1000.00000000   1.00000000   1.00000000   1.00000000  10.00000000  10.00000000 
 5961.32186614 1000.00000000   1.00000000   1.00000000   1.00000000  10.00000000  10.00000000 
 5961.57186614 1000.00000000   1.00000000   1.00000000   1.00000000  10.00000000  10.00000000 
 5961.82186614 1000.00000000   1.00000000   1.00000000   1.00000000  10.00000000  10.00000000 
 5962.07186614 1000.00000000   1.00000000   1.00000000   1.00000000  10.00000000  10.00000000 
 5962.32186614 1000.00000000   1.00000000   1.00000000   1.00000000  10.00000000  10.00000000 
 5962.57186614 1000.00000000   1.00000000   1.00000000   1.00000000  10.00000000  10.00000000 
 5962.82186614 1000.00000000   1.00000000   1.00000000   1.00000000  10.00000000  10.00000000 
 5963.07186614 1000.00000000   1.00000000   1.00000000   1.00000000  10.00000000  10.00000000 
 5963.32186614 1000.00000000   1.00000000   1.00000000   1.00000000  10.00000000  10.00000000 
 5963.57186614 1000.00000000   1.00000000   1.00000000   1.00000000  10.00000000  10.00000000 
 5963.82186614 1000.00000000   1.00000000   1.00000000   1.00000000  10.00000000  10.00000000 
 5964.07186614 1000.00000000   1.00000000   1.00000000   1.00000000  10.00000000  10.00000000 
 5964.32186614 1000.00000000   1.00000000   1.00000000   1.00000000  10.00000000  10.00000000 
 5964.57186614 1000.00000000   1.00000000   1.00000000   1.00000000  10.00000000  10.00000000 
 5964.82186614 1000.00000000   1.00000000   1.00000000   1.00000000  10.00000000  10.00000000 
 5965.07186614 1000.00000000   1.00000000   1.00000000   1.00000000  10.00000000  10.00000000 
 5965.32186614 1000.00000000   1.00000000   1.00000000   1.00000000  10.00000000  10.00000000 
 5965.57186614 1000.00000000   1.00000000   1.00000000   1.00000000  10.00000000  10.00000000 
 5965.82186614 1000.00000000   1.00000000   1.00000000   1.00000000  10.00000000  10.00000000 
 5966.07186614 1000.00000000   1.00000000   1.00000000   1.00000000  10.00000000  10.00000000 
 5966.32186614 1000.00000000   1.00000000   1.00000000   1.00000000  10.00000000  10.00000000 
 5966.57186614 1000.00000000   1.00000000   1.00000000   1.00000000  10.00000000  10.00000000 
 5966.82186614 1000.00000000   1.00000000   1.00000000   1.00000000  10.00000000  10.00000000 
 5967.07186614 1000.00000000   1.00000000   1.00000000   1.00000000  10.00000000  10.00000000 
 5967.32186614 1000.00000000   1.00000000   1.00000000   1.00000000  10.00000000  10.00000000 
 5967.57186614 1000.00000000   1.00000000   1.00000000   1.00000000  10.00000000  10.00000000 
 5967.82186614 1000.00000000   1.00000000   1.00000000   1.00000000  10.00000000  10.00000000 
 5968.07186614 1000.00000000   1.00000000   1.00000000   1.00000000  10.00000000  10.00000000 
 5968.32186614 1000.00000000   1.00000000   1.00000000   1.00000000  10.00000000  10.00000000 
 5968.57186614 1000.00000000   1.00000000   1.00000000   1.00000000  10.00000000  10.00000000 
 5968.82186614 1000.00000000   1.00000000   1.00000000   1.00000000  10.00000000  10.00000000 
 5969.07186614 1000.00000000   1.00000000   1.00000000   1.00000000  10.00000000  10.00000000 
 5969.32186614 1000.00000000   1.00000000   1.00000000   1.00000000  10.00000000  10.00000000 
 5969.57186614 1000.00000000   1.00000000   1.00000000   1.00000000  10.00000000  10.00000000 
 5969.82186614 1000.00000000   1.00000000   1.00000000   1.00000000  10.00000000  10.00000000 
 5970.07186614 1000.00000000   1.00000000   1.00000000   1.00000000  10.00000000  10.00000000 
 5970.32186614 1000.00000000   1.00000000   1.00000000   1.00000000  10.00000000  10.00000000 
 5970.57186614 1000.00000000   1.00000000   1.00000000   1.00000000  10.00000000  10.00000000 
 5970.82186614 1000.00000000   1.00000000   1.00000000   1.00000000  10.00000000  10.00000000 
 5971.07186614 1000.00000000   1.00000000   1.00000000   1.00000000  10.00000000  10.00000000 
 5971.32186614 1000.00000000   1.00000000   1.00000000   1.00000000  10.00000000  10.00000000 
