~VERSION INFORMATION SECTION
VERS.           2.0  :CWLS Log ASCII Standard - 2.0
WRAP.           NO   :One line per depth
#               Created in UTAPWeLS
~WELL INFORMATION SECTION
#MNEM.UNIT  VALUE/NAME             :DESCRIPTION    
STRT.FT  2932.8219                 :Start Depth    
STOP.FT  6443.5719                 :Stop Depth     
STEP.FT  0.25                      :Step           
NULL.    -999.25                   :Null Value     
WELL.    Consortium23_Motivation   :Well Name      
CTRY.    UNKNOWN                   :Country        
CNTY.    UNKNOWN                   :County         
STAT.    UNKNOWN                   :State          
API .    UNKNOWN                   :API number     
UWI .    UNKNOWN                   :Unique well ID 
LOC .    UNKNOWN                   :Well Location  
FLD .    UNKNOWN                   :Field          
COMP.    UNKNOWN                   :Company        
SRVC.    UNKNOWN                   :Service Company
DATE.    19-Apr-2024               :Date           
~PARAMETER INFORMATION SECTION
#MNEM.UNITS  VALUE   :DESCRIPTION OF PARAMETER
~CURVE INFORMATION SECTION
#MNEM                                            .UNITS  API CODES   :DESCRIPTION OF MNEMONIC                          
Measured Depth                                   .FT                 :Measured Depth                                   
Resistivity Mud                                  .OHM-M              :Resistivity Mud                                  
Resistivity Invaded                              .OHM-M              :Resistivity Invaded                              
Resistivity Formation (Uninvaded)                .OHM-M              :Resistivity Formation (Uninvaded)                
Resistivity (Perpendicular) Mud                  .OHM-M              :Resistivity (Perpendicular) Mud                  
Resistivity (Perpendicular) Invaded              .OHM-M              :Resistivity (Perpendicular) Invaded              
Resistivity (Perpendicular) Formation (Uninvaded).OHM-M              :Resistivity (Perpendicular) Formation (Uninvaded)
~A Measured Dep Resistivity  Resistivity  Resistivity  Resistivity  Resistivity  Resistivity  
# ...
 3867.82186614 1000.00000000   1.00000000   1.00000000   1.00000000  10.00000000  10.00000000 
 3868.07186614 1000.00000000   1.00000000   1.00000000   1.00000000  10.00000000  10.00000000 
 3868.32186614 1000.00000000   1.00000000   1.00000000   1.00000000  10.00000000  10.00000000 
 3868.57186614 1000.00000000   1.00000000   1.00000000   1.00000000  10.00000000  10.00000000 
 3868.82186614 1000.00000000   1.00000000   1.00000000   1.00000000  10.00000000  10.00000000 
 3869.07186614 1000.00000000   1.00000000   1.00000000   1.00000000  10.00000000  10.00000000 
 3869.32186614 1000.00000000   1.00000000   1.00000000   1.00000000  10.00000000  10.00000000 
 3869.57186614 1000.00000000   1.00000000   1.00000000   1.00000000  10.00000000  10.00000000 
 3869.82186614 1000.00000000   1.00000000   1.00000000   1.00000000  10.00000000  10.00000000 
 3870.07186614 1000.00000000   1.00000000   1.00000000   1.00000000  10.00000000  10.00000000 
 3870.32186614 1000.00000000   1.00000000   1.00000000   1.00000000  10.00000000  10.00000000 
 3870.57186614 1000.00000000   1.00000000   1.00000000   1.00000000  10.00000000  10.00000000 
 3870.82186614 1000.00000000   1.00000000   1.00000000   1.00000000  10.00000000  10.00000000 
 3871.07186614 1000.00000000   1.00000000   1.00000000   1.00000000  10.00000000  10.00000000 
 3871.32186614 1000.00000000   1.00000000   1.00000000   1.00000000  10.00000000  10.00000000 
 3871.57186614 1000.00000000   1.00000000   1.00000000   1.00000000  10.00000000  10.00000000 
 3871.82186614 1000.00000000   1.00000000   1.00000000   1.00000000  10.00000000  10.00000000 
 3872.07186614 1000.00000000   1.00000000   1.00000000   1.00000000  10.00000000  10.00000000 
 3872.32186614 1000.00000000   1.00000000   1.00000000   1.00000000  10.00000000  10.00000000 
 3872.57186614 1000.00000000   1.00000000   1.00000000   1.00000000  10.00000000  10.00000000 
 3872.82186614 1000.00000000   1.00000000   1.00000000   1.00000000  10.00000000  10.00000000 
 3873.07186614 1000.00000000   1.00000000   1.00000000   1.00000000  10.00000000  10.00000000 
 3873.32186614 1000.00000000   1.00000000   1.00000000   1.00000000  10.00000000  10.00000000 
 3873.57186614 1000.00000000   1.00000000   1.00000000   1.00000000  10.00000000  10.00000000 
 3873.82186614 1000.00000000   1.00000000   1.00000000   1.00000000  10.00000000  10.00000000 
 3874.07186614 1000.00000000   1.00000000   1.00000000   1.00000000  10.00000000  10.00000000 
 3874.32186614 1000.00000000   1.00000000   1.00000000   1.00000000  10.00000000  10.00000000 
 3874.57186614 1000.00000000   1.00000000   1.00000000   1.00000000  10.00000000  10.00000000 
 3874.82186614 1000.00000000   1.00000000   1.00000000   1.00000000  10.00000000  10.00000000 
 3875.07186614 1000.00000000   1.00000000   1.00000000   1.00000000  10.00000000  10.00000000 
 3875.32186614 1000.00000000   1.00000000   1.00000000   1.00000000  10.00000000  10.00000000 
 3875.57186614 1000.00000000   1.00000000   1.00000000   1.00000000  10.00000000  10.00000000 
 3875.82186614 1000.00000000   1.00000000   1.00000000   1.00000000  10.00000000  10.00000000 
 3876.07186614 1000.00000000   1.00000000   1.00000000   1.00000000  10.00000000  10.00000000 
 3876.32186614 1000.00000000   1.00000000   1.00000000   1.00000000  10.00000000  10.00000000 
 3876.57186614 1000.00000000   1.00000000   1.00000000   1.00000000  10.00000000  10.00000000 
 3876.82186614 1000.00000000   1.00000000   1.00000000   1.00000000  10.00000000  10.00000000 
 3877.07186614 1000.00000000   1.00000000   1.00000000   1.00000000  10.00000000  10.00000000 
 3877.32186614 1000.00000000   1.00000000   1.00000000   1.00000000  10.00000000  10.00000000 
 3877.57186614 1000.00000000   1.00000000   1.00000000   1.00000000  10.00000000  10.00000000 
 3877.82186614 1000.00000000   1.00000000   1.00000000   1.00000000  10.00000000  10.00000000 
 3878.07186614 1000.00000000   1.00000000   1.00000000   1.00000000  10.00000000  10.00000000 
 3878.32186614 1000.00000000   1.00000000   1.00000000   1.00000000  10.00000000  10.00000000 
 3878.57186614 1000.00000000   1.00000000   1.00000000   1.00000000  10.00000000  10.00000000 
 3878.82186614 1000.00000000   1.00000000   1.00000000   1.00000000  10.00000000  10.00000000 
 3879.07186614 1000.00000000   1.00000000   1.00000000   1.00000000  10.00000000  10.00000000 
 3879.32186614 1000.00000000   1.00000000   1.00000000   1.00000000  10.00000000  10.00000000 
 3879.57186614 1000.00000000   1.00000000   1.00000000   1.00000000  10.00000000  10.00000000 
 3879.82186614 1000.00000000   1.00000000   1.00000000   1.00000000  10.00000000  10.00000000 
 3880.07186614 1000.00000000   1.00000000   1.00000000   1.00000000  10.00000000  10.00000000 
 3880.32186614 1000.00000000   1.00000000   1.00000000   1.00000000  10.00000000  10.00000000 
 3880.57186614 1000.00000000   1.00000000   1.00000000   1.00000000  10.00000000  10.00000000 
 3880.82186614 1000.00000000   1.00000000   1.00000000   1.00000000  10.00000000  10.00000000 
 3881.07186614 1000.00000000   1.00000000   1.00000000   1.00000000  10.00000000  10.00000000 
 3881.32186614 1000.00000000   1.00000000   1.00000000   1.00000000  10.00000000  10.00000000 
 3881.57186614 1000.00000000   1.00000000   1.00000000   1.00000000  10.00000000  10.00000000 
 3881.82186614 1000.00000000   1.00000000   1.00000000   1.00000000  10.00000000  10.00000000 
 3882.07186614 1000.00000000   1.00000000   1.00000000   1.00000000  10.00000000  10.00000000 
 3882.32186614 1000.00000000   1.00000000   1.00000000   1.00000000  10.00000000  10.00000000 
 3882.57186614 1000.00000000   1.00000000   1.00000000   1.00000000  10.00000000  10.00000000 
 3882.82186614 1000.00000000   1.00000000   1.00000000   1.00000000  10.00000000  10.00000000 
 3883.07186614 1000.00000000   1.00000000   1.00000000   1.00000000  10.00000000  10.00000000 
 3883.32186614 1000.00000000   1.00000000   1.00000000   1.00000000  10.00000000  10.00000000 
 3883.57186614 1000.00000000   1.00000000   1.00000000   1.00000000  10.00000000  10.00000000 
 3883.82186614 1000.00000000   1.00000000   1.00000000   1.00000000  10.00000000  10.00000000 
 3884.07186614 1000.00000000   1.00000000   1.00000000   1.00000000  10.00000000  10.00000000 
 3884.32186614 1000.00000000   1.00000000   1.00000000   1.00000000  10.00000000  10.00000000 
 3884.57186614 1000.00000000   1.00000000   1.00000000   1.00000000  10.00000000  10.00000000 
 3884.82186614 1000.00000000   1.00000000   1.00000000   1.00000000  10.00000000  10.00000000 
 3885.07186614 1000.00000000   1.00000000   1.00000000   1.00000000  10.00000000  10.00000000 
 3885.32186614 1000.00000000   1.00000000   1.00000000   1.00000000  10.00000000  10.00000000 
 3885.57186614 1000.00000000   1.00000000   1.00000000   1.00000000  10.00000000  10.00000000 
 3885.82186614 1000.00000000   1.00000000   1.00000000   1.00000000  10.00000000  10.00000000 
 3886.07186614 1000.00000000   1.00000000   1.00000000   1.00000000  10.00000000  10.00000000 
 3886.32186614 1000.00000000   1.00000000   1.00000000   1.00000000  10.00000000  10.00000000 
 3886.57186614 1000.00000000   1.00000000   1.00000000   1.00000000  10.00000000  10.00000000 
 3886.82186614 1000.00000000   1.00000000   1.00000000   1.00000000  10.00000000  10.00000000 
 3887.07186614 1000.00000000   1.00000000   1.00000000   1.00000000  10.00000000  10.00000000 
 3887.32186614 1000.00000000   1.00000000   1.00000000   1.00000000  10.00000000  10.00000000 
 3887.57186614 1000.00000000   1.00000000   1.00000000   1.00000000  10.00000000  10.00000000 
 3887.82186614 1000.00000000   1.00000000   1.00000000   1.00000000  10.00000000  10.00000000 
 3888.07186614 1000.00000000   1.00000000   1.00000000   1.00000000  10.00000000  10.00000000 
 3888.32186614 1000.00000000   1.00000000   1.00000000   1.00000000  10.00000000  10.00000000 
 3888.57186614 1000.00000000   1.00000000   1.00000000   1.00000000  10.00000000  10.00000000 
 3888.82186614 1000.00000000   1.00000000   1.00000000   1.00000000  10.00000000  10.00000000 
