~VERSION INFORMATION SECTION
VERS.           2.0  :CWLS Log ASCII Standard - 2.0
WRAP.           NO   :One line per depth
#               Created in UTAPWeLS
~WELL INFORMATION SECTION
#MNEM.UNIT  VALUE/NAME             :DESCRIPTION    
STRT.FT  2932.8219                 :Start Depth    
STOP.FT  6443.5719                 :Stop Depth     
STEP.FT  0.25                      :Step           
NULL.    -999.25                   :Null Value     
WELL.    Consortium23_Motivation   :Well Name      
CTRY.    UNKNOWN                   :Country        
CNTY.    UNKNOWN                   :County         
STAT.    UNKNOWN                   :State          
API .    UNKNOWN                   :API number     
UWI .    UNKNOWN                   :Unique well ID 
LOC .    UNKNOWN                   :Well Location  
FLD .    UNKNOWN                   :Field          
COMP.    UNKNOWN                   :Company        
SRVC.    UNKNOWN                   :Service Company
DATE.    19-Apr-2024               :Date           
~PARAMETER INFORMATION SECTION
#MNEM.UNITS  VALUE   :DESCRIPTION OF PARAMETER
~CURVE INFORMATION SECTION
#MNEM                                            .UNITS  API CODES   :DESCRIPTION OF MNEMONIC                          
Measured Depth                                   .FT                 :Measured Depth                                   
Resistivity Mud                                  .OHM-M              :Resistivity Mud                                  
Resistivity Invaded                              .OHM-M              :Resistivity Invaded                              
Resistivity Formation (Uninvaded)                .OHM-M              :Resistivity Formation (Uninvaded)                
Resistivity (Perpendicular) Mud                  .OHM-M              :Resistivity (Perpendicular) Mud                  
Resistivity (Perpendicular) Invaded              .OHM-M              :Resistivity (Perpendicular) Invaded              
Resistivity (Perpendicular) Formation (Uninvaded).OHM-M              :Resistivity (Perpendicular) Formation (Uninvaded)
~A Measured Dep Resistivity  Resistivity  Resistivity  Resistivity  Resistivity  Resistivity  
# ...
 4569.07186614 1000.00000000   1.00000000   1.00000000   1.00000000  10.00000000  10.00000000 
 4569.32186614 1000.00000000   1.00000000   1.00000000   1.00000000  10.00000000  10.00000000 
 4569.57186614 1000.00000000   1.00000000   1.00000000   1.00000000  10.00000000  10.00000000 
 4569.82186614 1000.00000000   1.00000000   1.00000000   1.00000000  10.00000000  10.00000000 
 4570.07186614 1000.00000000   1.00000000   1.00000000   1.00000000  10.00000000  10.00000000 
 4570.32186614 1000.00000000   1.00000000   1.00000000   1.00000000  10.00000000  10.00000000 
 4570.57186614 1000.00000000   1.00000000   1.00000000   1.00000000  10.00000000  10.00000000 
 4570.82186614 1000.00000000   1.00000000   1.00000000   1.00000000  10.00000000  10.00000000 
 4571.07186614 1000.00000000   1.00000000   1.00000000   1.00000000  10.00000000  10.00000000 
 4571.32186614 1000.00000000   1.00000000   1.00000000   1.00000000  10.00000000  10.00000000 
 4571.57186614 1000.00000000   1.00000000   1.00000000   1.00000000  10.00000000  10.00000000 
 4571.82186614 1000.00000000   1.00000000   1.00000000   1.00000000  10.00000000  10.00000000 
 4572.07186614 1000.00000000   1.00000000   1.00000000   1.00000000  10.00000000  10.00000000 
 4572.32186614 1000.00000000   1.00000000   1.00000000   1.00000000  10.00000000  10.00000000 
 4572.57186614 1000.00000000   1.00000000   1.00000000   1.00000000  10.00000000  10.00000000 
 4572.82186614 1000.00000000   1.00000000   1.00000000   1.00000000  10.00000000  10.00000000 
 4573.07186614 1000.00000000   1.00000000   1.00000000   1.00000000  10.00000000  10.00000000 
 4573.32186614 1000.00000000   1.00000000   1.00000000   1.00000000  10.00000000  10.00000000 
 4573.57186614 1000.00000000   1.00000000   1.00000000   1.00000000  10.00000000  10.00000000 
 4573.82186614 1000.00000000   1.00000000   1.00000000   1.00000000  10.00000000  10.00000000 
 4574.07186614 1000.00000000   1.00000000   1.00000000   1.00000000  10.00000000  10.00000000 
 4574.32186614 1000.00000000   1.00000000   1.00000000   1.00000000  10.00000000  10.00000000 
 4574.57186614 1000.00000000   1.00000000   1.00000000   1.00000000  10.00000000  10.00000000 
 4574.82186614 1000.00000000   1.00000000   1.00000000   1.00000000  10.00000000  10.00000000 
 4575.07186614 1000.00000000   1.00000000   1.00000000   1.00000000  10.00000000  10.00000000 
 4575.32186614 1000.00000000   1.00000000   1.00000000   1.00000000  10.00000000  10.00000000 
 4575.57186614 1000.00000000   1.00000000   1.00000000   1.00000000  10.00000000  10.00000000 
 4575.82186614 1000.00000000   1.00000000   1.00000000   1.00000000  10.00000000  10.00000000 
 4576.07186614 1000.00000000   1.00000000   1.00000000   1.00000000  10.00000000  10.00000000 
 4576.32186614 1000.00000000   1.00000000   1.00000000   1.00000000  10.00000000  10.00000000 
 4576.57186614 1000.00000000   1.00000000   1.00000000   1.00000000  10.00000000  10.00000000 
 4576.82186614 1000.00000000   1.00000000   1.00000000   1.00000000  10.00000000  10.00000000 
 4577.07186614 1000.00000000   1.00000000   1.00000000   1.00000000  10.00000000  10.00000000 
 4577.32186614 1000.00000000   1.00000000   1.00000000   1.00000000  10.00000000  10.00000000 
 4577.57186614 1000.00000000   1.00000000   1.00000000   1.00000000  10.00000000  10.00000000 
 4577.82186614 1000.00000000   1.00000000   1.00000000   1.00000000  10.00000000  10.00000000 
 4578.07186614 1000.00000000   1.00000000   1.00000000   1.00000000  10.00000000  10.00000000 
 4578.32186614 1000.00000000   1.00000000   1.00000000   1.00000000  10.00000000  10.00000000 
 4578.57186614 1000.00000000   1.00000000   1.00000000   1.00000000  10.00000000  10.00000000 
 4578.82186614 1000.00000000   1.00000000   1.00000000   1.00000000  10.00000000  10.00000000 
 4579.07186614 1000.00000000   1.00000000   1.00000000   1.00000000  10.00000000  10.00000000 
 4579.32186614 1000.00000000   1.00000000   1.00000000   1.00000000  10.00000000  10.00000000 
 4579.57186614 1000.00000000   1.00000000   1.00000000   1.00000000  10.00000000  10.00000000 
 4579.82186614 1000.00000000   1.00000000   1.00000000   1.00000000  10.00000000  10.00000000 
 4580.07186614 1000.00000000   1.00000000   1.00000000   1.00000000  10.00000000  10.00000000 
 4580.32186614 1000.00000000   1.00000000   1.00000000   1.00000000  10.00000000  10.00000000 
 4580.57186614 1000.00000000   1.00000000   1.00000000   1.00000000  10.00000000  10.00000000 
 4580.82186614 1000.00000000   1.00000000   1.00000000   1.00000000  10.00000000  10.00000000 
 4581.07186614 1000.00000000   1.00000000   1.00000000   1.00000000  10.00000000  10.00000000 
 4581.32186614 1000.00000000   1.00000000   1.00000000   1.00000000  10.00000000  10.00000000 
 4581.57186614 1000.00000000   1.00000000   1.00000000   1.00000000  10.00000000  10.00000000 
 4581.82186614 1000.00000000   1.00000000   1.00000000   1.00000000  10.00000000  10.00000000 
 4582.07186614 1000.00000000   1.00000000   1.00000000   1.00000000  10.00000000  10.00000000 
 4582.32186614 1000.00000000   1.00000000   1.00000000   1.00000000  10.00000000  10.00000000 
 4582.57186614 1000.00000000   1.00000000   1.00000000   1.00000000  10.00000000  10.00000000 
 4582.82186614 1000.00000000   1.00000000   1.00000000   1.00000000  10.00000000  10.00000000 
 4583.07186614 1000.00000000   1.00000000   1.00000000   1.00000000  10.00000000  10.00000000 
 4583.32186614 1000.00000000   1.00000000   1.00000000   1.00000000  10.00000000  10.00000000 
 4583.57186614 1000.00000000   1.00000000   1.00000000   1.00000000  10.00000000  10.00000000 
 4583.82186614 1000.00000000   1.00000000   1.00000000   1.00000000  10.00000000  10.00000000 
 4584.07186614 1000.00000000   1.00000000   1.00000000   1.00000000  10.00000000  10.00000000 
 4584.32186614 1000.00000000   1.00000000   1.00000000   1.00000000  10.00000000  10.00000000 
 4584.57186614 1000.00000000   1.00000000   1.00000000   1.00000000  10.00000000  10.00000000 
 4584.82186614 1000.00000000   1.00000000   1.00000000   1.00000000  10.00000000  10.00000000 
 4585.07186614 1000.00000000   1.00000000   1.00000000   1.00000000  10.00000000  10.00000000 
 4585.32186614 1000.00000000   1.00000000   1.00000000   1.00000000  10.00000000  10.00000000 
 4585.57186614 1000.00000000   1.00000000   1.00000000   1.00000000  10.00000000  10.00000000 
 4585.82186614 1000.00000000   1.00000000   1.00000000   1.00000000  10.00000000  10.00000000 
 4586.07186614 1000.00000000   1.00000000   1.00000000   1.00000000  10.00000000  10.00000000 
 4586.32186614 1000.00000000   1.00000000   1.00000000   1.00000000  10.00000000  10.00000000 
 4586.57186614 1000.00000000   1.00000000   1.00000000   1.00000000  10.00000000  10.00000000 
 4586.82186614 1000.00000000   1.00000000   1.00000000   1.00000000  10.00000000  10.00000000 
 4587.07186614 1000.00000000   1.00000000   1.00000000   1.00000000  10.00000000  10.00000000 
 4587.32186614 1000.00000000   1.00000000   1.00000000   1.00000000  10.00000000  10.00000000 
 4587.57186614 1000.00000000   1.00000000   1.00000000   1.00000000  10.00000000  10.00000000 
 4587.82186614 1000.00000000   1.00000000   1.00000000   1.00000000  10.00000000  10.00000000 
 4588.07186614 1000.00000000   1.00000000   1.00000000   1.00000000  10.00000000  10.00000000 
 4588.32186614 1000.00000000   1.00000000   1.00000000   1.00000000  10.00000000  10.00000000 
 4588.57186614 1000.00000000   1.00000000   1.00000000   1.00000000  10.00000000  10.00000000 
 4588.82186614 1000.00000000   1.00000000   1.00000000   1.00000000  10.00000000  10.00000000 
 4589.07186614 1000.00000000   1.00000000   1.00000000   1.00000000  10.00000000  10.00000000 
 4589.32186614 1000.00000000   1.00000000   1.00000000   1.00000000  10.00000000  10.00000000 
 4589.57186614 1000.00000000   1.00000000   1.00000000   1.00000000  10.00000000  10.00000000 
 4589.82186614 1000.00000000   1.00000000   1.00000000   1.00000000  10.00000000  10.00000000 
 4590.07186614 1000.00000000   1.00000000   1.00000000   1.00000000  10.00000000  10.00000000 
