~VERSION INFORMATION SECTION
VERS.           2.0  :CWLS Log ASCII Standard - 2.0
WRAP.           NO   :One line per depth
#               Created in UTAPWeLS
~WELL INFORMATION SECTION
#MNEM.UNIT  VALUE/NAME             :DESCRIPTION    
STRT.FT  2932.8219                 :Start Depth    
STOP.FT  6443.5719                 :Stop Depth     
STEP.FT  0.25                      :Step           
NULL.    -999.25                   :Null Value     
WELL.    Consortium23_Motivation   :Well Name      
CTRY.    UNKNOWN                   :Country        
CNTY.    UNKNOWN                   :County         
STAT.    UNKNOWN                   :State          
API .    UNKNOWN                   :API number     
UWI .    UNKNOWN                   :Unique well ID 
LOC .    UNKNOWN                   :Well Location  
FLD .    UNKNOWN                   :Field          
COMP.    UNKNOWN                   :Company        
SRVC.    UNKNOWN                   :Service Company
DATE.    19-Apr-2024               :Date           
~PARAMETER INFORMATION SECTION
#MNEM.UNITS  VALUE   :DESCRIPTION OF PARAMETER
~CURVE INFORMATION SECTION
#MNEM                                            .UNITS  API CODES   :DESCRIPTION OF MNEMONIC                          
Measured Depth                                   .FT                 :Measured Depth                                   
Resistivity Mud                                  .OHM-M              :Resistivity Mud                                  
Resistivity Invaded                              .OHM-M              :Resistivity Invaded                              
Resistivity Formation (Uninvaded)                .OHM-M              :Resistivity Formation (Uninvaded)                
Resistivity (Perpendicular) Mud                  .OHM-M              :Resistivity (Perpendicular) Mud                  
Resistivity (Perpendicular) Invaded              .OHM-M              :Resistivity (Perpendicular) Invaded              
Resistivity (Perpendicular) Formation (Uninvaded).OHM-M              :Resistivity (Perpendicular) Formation (Uninvaded)
~A Measured Dep Resistivity  Resistivity  Resistivity  Resistivity  Resistivity  Resistivity  
# ...
 4781.57186614 1000.00000000   1.00000000   1.00000000   1.00000000  10.00000000  10.00000000 
 4781.82186614 1000.00000000   1.00000000   1.00000000   1.00000000  10.00000000  10.00000000 
 4782.07186614 1000.00000000   1.00000000   1.00000000   1.00000000  10.00000000  10.00000000 
 4782.32186614 1000.00000000   1.00000000   1.00000000   1.00000000  10.00000000  10.00000000 
 4782.57186614 1000.00000000   1.00000000   1.00000000   1.00000000  10.00000000  10.00000000 
 4782.82186614 1000.00000000   1.00000000   1.00000000   1.00000000  10.00000000  10.00000000 
 4783.07186614 1000.00000000   1.00000000   1.00000000   1.00000000  10.00000000  10.00000000 
 4783.32186614 1000.00000000   1.00000000   1.00000000   1.00000000  10.00000000  10.00000000 
 4783.57186614 1000.00000000   1.00000000   1.00000000   1.00000000  10.00000000  10.00000000 
 4783.82186614 1000.00000000   1.00000000   1.00000000   1.00000000  10.00000000  10.00000000 
 4784.07186614 1000.00000000   1.00000000   1.00000000   1.00000000  10.00000000  10.00000000 
 4784.32186614 1000.00000000   1.00000000   1.00000000   1.00000000  10.00000000  10.00000000 
 4784.57186614 1000.00000000   1.00000000   1.00000000   1.00000000  10.00000000  10.00000000 
 4784.82186614 1000.00000000   1.00000000   1.00000000   1.00000000  10.00000000  10.00000000 
 4785.07186614 1000.00000000   1.00000000   1.00000000   1.00000000  10.00000000  10.00000000 
 4785.32186614 1000.00000000   1.00000000   1.00000000   1.00000000  10.00000000  10.00000000 
 4785.57186614 1000.00000000   1.00000000   1.00000000   1.00000000  10.00000000  10.00000000 
 4785.82186614 1000.00000000   1.00000000   1.00000000   1.00000000  10.00000000  10.00000000 
 4786.07186614 1000.00000000   1.00000000   1.00000000   1.00000000  10.00000000  10.00000000 
 4786.32186614 1000.00000000   1.00000000   1.00000000   1.00000000  10.00000000  10.00000000 
 4786.57186614 1000.00000000   1.00000000   1.00000000   1.00000000  10.00000000  10.00000000 
 4786.82186614 1000.00000000   1.00000000   1.00000000   1.00000000  10.00000000  10.00000000 
 4787.07186614 1000.00000000   1.00000000   1.00000000   1.00000000  10.00000000  10.00000000 
 4787.32186614 1000.00000000   1.00000000   1.00000000   1.00000000  10.00000000  10.00000000 
 4787.57186614 1000.00000000   1.00000000   1.00000000   1.00000000  10.00000000  10.00000000 
 4787.82186614 1000.00000000   1.00000000   1.00000000   1.00000000  10.00000000  10.00000000 
 4788.07186614 1000.00000000   1.00000000   1.00000000   1.00000000  10.00000000  10.00000000 
 4788.32186614 1000.00000000   1.00000000   1.00000000   1.00000000  10.00000000  10.00000000 
 4788.57186614 1000.00000000   1.00000000   1.00000000   1.00000000  10.00000000  10.00000000 
 4788.82186614 1000.00000000   1.00000000   1.00000000   1.00000000  10.00000000  10.00000000 
 4789.07186614 1000.00000000   1.00000000   1.00000000   1.00000000  10.00000000  10.00000000 
 4789.32186614 1000.00000000   1.00000000   1.00000000   1.00000000  10.00000000  10.00000000 
 4789.57186614 1000.00000000   1.00000000   1.00000000   1.00000000  10.00000000  10.00000000 
 4789.82186614 1000.00000000   1.00000000   1.00000000   1.00000000  10.00000000  10.00000000 
 4790.07186614 1000.00000000   1.00000000   1.00000000   1.00000000  10.00000000  10.00000000 
 4790.32186614 1000.00000000   1.00000000   1.00000000   1.00000000  10.00000000  10.00000000 
 4790.57186614 1000.00000000   1.00000000   1.00000000   1.00000000  10.00000000  10.00000000 
 4790.82186614 1000.00000000   1.00000000   1.00000000   1.00000000  10.00000000  10.00000000 
 4791.07186614 1000.00000000   1.00000000   1.00000000   1.00000000  10.00000000  10.00000000 
 4791.32186614 1000.00000000   1.00000000   1.00000000   1.00000000  10.00000000  10.00000000 
 4791.57186614 1000.00000000   1.00000000   1.00000000   1.00000000  10.00000000  10.00000000 
 4791.82186614 1000.00000000   1.00000000   1.00000000   1.00000000  10.00000000  10.00000000 
 4792.07186614 1000.00000000   1.00000000   1.00000000   1.00000000  10.00000000  10.00000000 
 4792.32186614 1000.00000000   1.00000000   1.00000000   1.00000000  10.00000000  10.00000000 
 4792.57186614 1000.00000000   1.00000000   1.00000000   1.00000000  10.00000000  10.00000000 
 4792.82186614 1000.00000000   1.00000000   1.00000000   1.00000000  10.00000000  10.00000000 
 4793.07186614 1000.00000000   1.00000000   1.00000000   1.00000000  10.00000000  10.00000000 
 4793.32186614 1000.00000000   1.00000000   1.00000000   1.00000000  10.00000000  10.00000000 
 4793.57186614 1000.00000000   1.00000000   1.00000000   1.00000000  10.00000000  10.00000000 
 4793.82186614 1000.00000000   1.00000000   1.00000000   1.00000000  10.00000000  10.00000000 
 4794.07186614 1000.00000000   1.00000000   1.00000000   1.00000000  10.00000000  10.00000000 
 4794.32186614 1000.00000000   1.00000000   1.00000000   1.00000000  10.00000000  10.00000000 
 4794.57186614 1000.00000000   1.00000000   1.00000000   1.00000000  10.00000000  10.00000000 
 4794.82186614 1000.00000000   1.00000000   1.00000000   1.00000000  10.00000000  10.00000000 
 4795.07186614 1000.00000000   1.00000000   1.00000000   1.00000000  10.00000000  10.00000000 
 4795.32186614 1000.00000000   1.00000000   1.00000000   1.00000000  10.00000000  10.00000000 
 4795.57186614 1000.00000000   1.00000000   1.00000000   1.00000000  10.00000000  10.00000000 
 4795.82186614 1000.00000000   1.00000000   1.00000000   1.00000000  10.00000000  10.00000000 
 4796.07186614 1000.00000000   1.00000000   1.00000000   1.00000000  10.00000000  10.00000000 
 4796.32186614 1000.00000000   1.00000000   1.00000000   1.00000000  10.00000000  10.00000000 
 4796.57186614 1000.00000000   1.00000000   1.00000000   1.00000000  10.00000000  10.00000000 
 4796.82186614 1000.00000000   1.00000000   1.00000000   1.00000000  10.00000000  10.00000000 
 4797.07186614 1000.00000000   1.00000000   1.00000000   1.00000000  10.00000000  10.00000000 
 4797.32186614 1000.00000000   1.00000000   1.00000000   1.00000000  10.00000000  10.00000000 
 4797.57186614 1000.00000000   1.00000000   1.00000000   1.00000000  10.00000000  10.00000000 
 4797.82186614 1000.00000000   1.00000000   1.00000000   1.00000000  10.00000000  10.00000000 
 4798.07186614 1000.00000000   1.00000000   1.00000000   1.00000000  10.00000000  10.00000000 
 4798.32186614 1000.00000000   1.00000000   1.00000000   1.00000000  10.00000000  10.00000000 
 4798.57186614 1000.00000000   1.00000000   1.00000000   1.00000000  10.00000000  10.00000000 
 4798.82186614 1000.00000000   1.00000000   1.00000000   1.00000000  10.00000000  10.00000000 
 4799.07186614 1000.00000000   1.00000000   1.00000000   1.00000000  10.00000000  10.00000000 
 4799.32186614 1000.00000000   1.00000000   1.00000000   1.00000000  10.00000000  10.00000000 
 4799.57186614 1000.00000000   1.00000000   1.00000000   1.00000000  10.00000000  10.00000000 
 4799.82186614 1000.00000000   1.00000000   1.00000000   1.00000000  10.00000000  10.00000000 
 4800.07186614 1000.00000000   1.00000000   1.00000000   1.00000000  10.00000000  10.00000000 
 4800.32186614 1000.00000000   1.00000000   1.00000000   1.00000000  10.00000000  10.00000000 
 4800.57186614 1000.00000000   1.00000000   1.00000000   1.00000000  10.00000000  10.00000000 
 4800.82186614 1000.00000000   1.00000000   1.00000000   1.00000000  10.00000000  10.00000000 
 4801.07186614 1000.00000000   1.00000000   1.00000000   1.00000000  10.00000000  10.00000000 
 4801.32186614 1000.00000000   1.00000000   1.00000000   1.00000000  10.00000000  10.00000000 
 4801.57186614 1000.00000000   1.00000000   1.00000000   1.00000000  10.00000000  10.00000000 
 4801.82186614 1000.00000000   1.00000000   1.00000000   1.00000000  10.00000000  10.00000000 
 4802.07186614 1000.00000000   1.00000000   1.00000000   1.00000000  10.00000000  10.00000000 
 4802.32186614 1000.00000000   1.00000000   1.00000000   1.00000000  10.00000000  10.00000000 
 4802.57186614 1000.00000000   1.00000000   1.00000000   1.00000000  10.00000000  10.00000000 
