~VERSION INFORMATION SECTION
VERS.           2.0  :CWLS Log ASCII Standard - 2.0
WRAP.           NO   :One line per depth
#               Created in UTAPWeLS
~WELL INFORMATION SECTION
#MNEM.UNIT  VALUE/NAME             :DESCRIPTION    
STRT.FT  2932.8219                 :Start Depth    
STOP.FT  6443.5719                 :Stop Depth     
STEP.FT  0.25                      :Step           
NULL.    -999.25                   :Null Value     
WELL.    Consortium23_Motivation   :Well Name      
CTRY.    UNKNOWN                   :Country        
CNTY.    UNKNOWN                   :County         
STAT.    UNKNOWN                   :State          
API .    UNKNOWN                   :API number     
UWI .    UNKNOWN                   :Unique well ID 
LOC .    UNKNOWN                   :Well Location  
FLD .    UNKNOWN                   :Field          
COMP.    UNKNOWN                   :Company        
SRVC.    UNKNOWN                   :Service Company
DATE.    19-Apr-2024               :Date           
~PARAMETER INFORMATION SECTION
#MNEM.UNITS  VALUE   :DESCRIPTION OF PARAMETER
~CURVE INFORMATION SECTION
#MNEM                                            .UNITS  API CODES   :DESCRIPTION OF MNEMONIC                          
Measured Depth                                   .FT                 :Measured Depth                                   
Resistivity Mud                                  .OHM-M              :Resistivity Mud                                  
Resistivity Invaded                              .OHM-M              :Resistivity Invaded                              
Resistivity Formation (Uninvaded)                .OHM-M              :Resistivity Formation (Uninvaded)                
Resistivity (Perpendicular) Mud                  .OHM-M              :Resistivity (Perpendicular) Mud                  
Resistivity (Perpendicular) Invaded              .OHM-M              :Resistivity (Perpendicular) Invaded              
Resistivity (Perpendicular) Formation (Uninvaded).OHM-M              :Resistivity (Perpendicular) Formation (Uninvaded)
~A Measured Dep Resistivity  Resistivity  Resistivity  Resistivity  Resistivity  Resistivity  
# ...
 5716.57186614 1000.00000000   1.00000000   1.00000000   1.00000000  10.00000000  10.00000000 
 5716.82186614 1000.00000000   1.00000000   1.00000000   1.00000000  10.00000000  10.00000000 
 5717.07186614 1000.00000000   1.00000000   1.00000000   1.00000000  10.00000000  10.00000000 
 5717.32186614 1000.00000000   1.00000000   1.00000000   1.00000000  10.00000000  10.00000000 
 5717.57186614 1000.00000000   1.00000000   1.00000000   1.00000000  10.00000000  10.00000000 
 5717.82186614 1000.00000000   1.00000000   1.00000000   1.00000000  10.00000000  10.00000000 
 5718.07186614 1000.00000000   1.00000000   1.00000000   1.00000000  10.00000000  10.00000000 
 5718.32186614 1000.00000000   1.00000000   1.00000000   1.00000000  10.00000000  10.00000000 
 5718.57186614 1000.00000000   1.00000000   1.00000000   1.00000000  10.00000000  10.00000000 
 5718.82186614 1000.00000000   1.00000000   1.00000000   1.00000000  10.00000000  10.00000000 
 5719.07186614 1000.00000000   1.00000000   1.00000000   1.00000000  10.00000000  10.00000000 
 5719.32186614 1000.00000000   1.00000000   1.00000000   1.00000000  10.00000000  10.00000000 
 5719.57186614 1000.00000000   1.00000000   1.00000000   1.00000000  10.00000000  10.00000000 
 5719.82186614 1000.00000000   1.00000000   1.00000000   1.00000000  10.00000000  10.00000000 
 5720.07186614 1000.00000000   1.00000000   1.00000000   1.00000000  10.00000000  10.00000000 
 5720.32186614 1000.00000000   1.00000000   1.00000000   1.00000000  10.00000000  10.00000000 
 5720.57186614 1000.00000000   1.00000000   1.00000000   1.00000000  10.00000000  10.00000000 
 5720.82186614 1000.00000000   1.00000000   1.00000000   1.00000000  10.00000000  10.00000000 
 5721.07186614 1000.00000000   1.00000000   1.00000000   1.00000000  10.00000000  10.00000000 
 5721.32186614 1000.00000000   1.00000000   1.00000000   1.00000000  10.00000000  10.00000000 
 5721.57186614 1000.00000000   1.00000000   1.00000000   1.00000000  10.00000000  10.00000000 
 5721.82186614 1000.00000000   1.00000000   1.00000000   1.00000000  10.00000000  10.00000000 
 5722.07186614 1000.00000000   1.00000000   1.00000000   1.00000000  10.00000000  10.00000000 
 5722.32186614 1000.00000000   1.00000000   1.00000000   1.00000000  10.00000000  10.00000000 
 5722.57186614 1000.00000000   1.00000000   1.00000000   1.00000000  10.00000000  10.00000000 
 5722.82186614 1000.00000000   1.00000000   1.00000000   1.00000000  10.00000000  10.00000000 
 5723.07186614 1000.00000000   1.00000000   1.00000000   1.00000000  10.00000000  10.00000000 
 5723.32186614 1000.00000000   1.00000000   1.00000000   1.00000000  10.00000000  10.00000000 
 5723.57186614 1000.00000000   1.00000000   1.00000000   1.00000000  10.00000000  10.00000000 
 5723.82186614 1000.00000000   1.00000000   1.00000000   1.00000000  10.00000000  10.00000000 
 5724.07186614 1000.00000000   1.00000000   1.00000000   1.00000000  10.00000000  10.00000000 
 5724.32186614 1000.00000000   1.00000000   1.00000000   1.00000000  10.00000000  10.00000000 
 5724.57186614 1000.00000000   1.00000000   1.00000000   1.00000000  10.00000000  10.00000000 
 5724.82186614 1000.00000000   1.00000000   1.00000000   1.00000000  10.00000000  10.00000000 
 5725.07186614 1000.00000000   1.00000000   1.00000000   1.00000000  10.00000000  10.00000000 
 5725.32186614 1000.00000000   1.00000000   1.00000000   1.00000000  10.00000000  10.00000000 
 5725.57186614 1000.00000000   1.00000000   1.00000000   1.00000000  10.00000000  10.00000000 
 5725.82186614 1000.00000000   1.00000000   1.00000000   1.00000000  10.00000000  10.00000000 
 5726.07186614 1000.00000000   1.00000000   1.00000000   1.00000000  10.00000000  10.00000000 
 5726.32186614 1000.00000000   1.00000000   1.00000000   1.00000000  10.00000000  10.00000000 
 5726.57186614 1000.00000000   1.00000000   1.00000000   1.00000000  10.00000000  10.00000000 
 5726.82186614 1000.00000000   1.00000000   1.00000000   1.00000000  10.00000000  10.00000000 
 5727.07186614 1000.00000000   1.00000000   1.00000000   1.00000000  10.00000000  10.00000000 
 5727.32186614 1000.00000000   1.00000000   1.00000000   1.00000000  10.00000000  10.00000000 
 5727.57186614 1000.00000000   1.00000000   1.00000000   1.00000000  10.00000000  10.00000000 
 5727.82186614 1000.00000000   1.00000000   1.00000000   1.00000000  10.00000000  10.00000000 
 5728.07186614 1000.00000000   1.00000000   1.00000000   1.00000000  10.00000000  10.00000000 
 5728.32186614 1000.00000000   1.00000000   1.00000000   1.00000000  10.00000000  10.00000000 
 5728.57186614 1000.00000000   1.00000000   1.00000000   1.00000000  10.00000000  10.00000000 
 5728.82186614 1000.00000000   1.00000000   1.00000000   1.00000000  10.00000000  10.00000000 
 5729.07186614 1000.00000000   1.00000000   1.00000000   1.00000000  10.00000000  10.00000000 
 5729.32186614 1000.00000000   1.00000000   1.00000000   1.00000000  10.00000000  10.00000000 
 5729.57186614 1000.00000000   1.00000000   1.00000000   1.00000000  10.00000000  10.00000000 
 5729.82186614 1000.00000000   1.00000000   1.00000000   1.00000000  10.00000000  10.00000000 
 5730.07186614 1000.00000000   1.00000000   1.00000000   1.00000000  10.00000000  10.00000000 
 5730.32186614 1000.00000000   1.00000000   1.00000000   1.00000000  10.00000000  10.00000000 
 5730.57186614 1000.00000000   1.00000000   1.00000000   1.00000000  10.00000000  10.00000000 
 5730.82186614 1000.00000000   1.00000000   1.00000000   1.00000000  10.00000000  10.00000000 
 5731.07186614 1000.00000000   1.00000000   1.00000000   1.00000000  10.00000000  10.00000000 
 5731.32186614 1000.00000000   1.00000000   1.00000000   1.00000000  10.00000000  10.00000000 
 5731.57186614 1000.00000000   1.00000000   1.00000000   1.00000000  10.00000000  10.00000000 
 5731.82186614 1000.00000000   1.00000000   1.00000000   1.00000000  10.00000000  10.00000000 
 5732.07186614 1000.00000000   1.00000000   1.00000000   1.00000000  10.00000000  10.00000000 
 5732.32186614 1000.00000000   1.00000000   1.00000000   1.00000000  10.00000000  10.00000000 
 5732.57186614 1000.00000000   1.00000000   1.00000000   1.00000000  10.00000000  10.00000000 
 5732.82186614 1000.00000000   1.00000000   1.00000000   1.00000000  10.00000000  10.00000000 
 5733.07186614 1000.00000000   1.00000000   1.00000000   1.00000000  10.00000000  10.00000000 
 5733.32186614 1000.00000000   1.00000000   1.00000000   1.00000000  10.00000000  10.00000000 
 5733.57186614 1000.00000000   1.00000000   1.00000000   1.00000000  10.00000000  10.00000000 
 5733.82186614 1000.00000000   1.00000000   1.00000000   1.00000000  10.00000000  10.00000000 
 5734.07186614 1000.00000000   1.00000000   1.00000000   1.00000000  10.00000000  10.00000000 
 5734.32186614 1000.00000000   1.00000000   1.00000000   1.00000000  10.00000000  10.00000000 
 5734.57186614 1000.00000000   1.00000000   1.00000000   1.00000000  10.00000000  10.00000000 
 5734.82186614 1000.00000000   1.00000000   1.00000000   1.00000000  10.00000000  10.00000000 
 5735.07186614 1000.00000000   1.00000000   1.00000000   1.00000000  10.00000000  10.00000000 
 5735.32186614 1000.00000000   1.00000000   1.00000000   1.00000000  10.00000000  10.00000000 
 5735.57186614 1000.00000000   1.00000000   1.00000000   1.00000000  10.00000000  10.00000000 
 5735.82186614 1000.00000000   1.00000000   1.00000000   1.00000000  10.00000000  10.00000000 
 5736.07186614 1000.00000000   1.00000000   1.00000000   1.00000000  10.00000000  10.00000000 
 5736.32186614 1000.00000000   1.00000000   1.00000000   1.00000000  10.00000000  10.00000000 
 5736.57186614 1000.00000000   1.00000000   1.00000000   1.00000000  10.00000000  10.00000000 
 5736.82186614 1000.00000000   1.00000000   1.00000000   1.00000000  10.00000000  10.00000000 
 5737.07186614 1000.00000000   1.00000000   1.00000000   1.00000000  10.00000000  10.00000000 
 5737.32186614 1000.00000000   1.00000000   1.00000000   1.00000000  10.00000000  10.00000000 
 5737.57186614 1000.00000000   1.00000000   1.00000000   1.00000000  10.00000000  10.00000000 
