~VERSION INFORMATION SECTION
VERS.           2.0  :CWLS Log ASCII Standard - 2.0
WRAP.           NO   :One line per depth
#               Created in UTAPWeLS
~WELL INFORMATION SECTION
#MNEM.UNIT  VALUE/NAME             :DESCRIPTION    
STRT.FT  2932.8219                 :Start Depth    
STOP.FT  6443.5719                 :Stop Depth     
STEP.FT  0.25                      :Step           
NULL.    -999.25                   :Null Value     
WELL.    Consortium23_Motivation   :Well Name      
CTRY.    UNKNOWN                   :Country        
CNTY.    UNKNOWN                   :County         
STAT.    UNKNOWN                   :State          
API .    UNKNOWN                   :API number     
UWI .    UNKNOWN                   :Unique well ID 
LOC .    UNKNOWN                   :Well Location  
FLD .    UNKNOWN                   :Field          
COMP.    UNKNOWN                   :Company        
SRVC.    UNKNOWN                   :Service Company
DATE.    19-Apr-2024               :Date           
~PARAMETER INFORMATION SECTION
#MNEM.UNITS  VALUE   :DESCRIPTION OF PARAMETER
~CURVE INFORMATION SECTION
#MNEM                                            .UNITS  API CODES   :DESCRIPTION OF MNEMONIC                          
Measured Depth                                   .FT                 :Measured Depth                                   
Resistivity Mud                                  .OHM-M              :Resistivity Mud                                  
Resistivity Invaded                              .OHM-M              :Resistivity Invaded                              
Resistivity Formation (Uninvaded)                .OHM-M              :Resistivity Formation (Uninvaded)                
Resistivity (Perpendicular) Mud                  .OHM-M              :Resistivity (Perpendicular) Mud                  
Resistivity (Perpendicular) Invaded              .OHM-M              :Resistivity (Perpendicular) Invaded              
Resistivity (Perpendicular) Formation (Uninvaded).OHM-M              :Resistivity (Perpendicular) Formation (Uninvaded)
~A Measured Dep Resistivity  Resistivity  Resistivity  Resistivity  Resistivity  Resistivity  
# ...
 4101.57186614 1000.00000000   1.00000000   1.00000000   1.00000000  10.00000000  10.00000000 
 4101.82186614 1000.00000000   1.00000000   1.00000000   1.00000000  10.00000000  10.00000000 
 4102.07186614 1000.00000000   1.00000000   1.00000000   1.00000000  10.00000000  10.00000000 
 4102.32186614 1000.00000000   1.00000000   1.00000000   1.00000000  10.00000000  10.00000000 
 4102.57186614 1000.00000000   1.00000000   1.00000000   1.00000000  10.00000000  10.00000000 
 4102.82186614 1000.00000000   1.00000000   1.00000000   1.00000000  10.00000000  10.00000000 
 4103.07186614 1000.00000000   1.00000000   1.00000000   1.00000000  10.00000000  10.00000000 
 4103.32186614 1000.00000000   1.00000000   1.00000000   1.00000000  10.00000000  10.00000000 
 4103.57186614 1000.00000000   1.00000000   1.00000000   1.00000000  10.00000000  10.00000000 
 4103.82186614 1000.00000000   1.00000000   1.00000000   1.00000000  10.00000000  10.00000000 
 4104.07186614 1000.00000000   1.00000000   1.00000000   1.00000000  10.00000000  10.00000000 
 4104.32186614 1000.00000000   1.00000000   1.00000000   1.00000000  10.00000000  10.00000000 
 4104.57186614 1000.00000000   1.00000000   1.00000000   1.00000000  10.00000000  10.00000000 
 4104.82186614 1000.00000000   1.00000000   1.00000000   1.00000000  10.00000000  10.00000000 
 4105.07186614 1000.00000000   1.00000000   1.00000000   1.00000000  10.00000000  10.00000000 
 4105.32186614 1000.00000000   1.00000000   1.00000000   1.00000000  10.00000000  10.00000000 
 4105.57186614 1000.00000000   1.00000000   1.00000000   1.00000000  10.00000000  10.00000000 
 4105.82186614 1000.00000000   1.00000000   1.00000000   1.00000000  10.00000000  10.00000000 
 4106.07186614 1000.00000000   1.00000000   1.00000000   1.00000000  10.00000000  10.00000000 
 4106.32186614 1000.00000000   1.00000000   1.00000000   1.00000000  10.00000000  10.00000000 
 4106.57186614 1000.00000000   1.00000000   1.00000000   1.00000000  10.00000000  10.00000000 
 4106.82186614 1000.00000000   1.00000000   1.00000000   1.00000000  10.00000000  10.00000000 
 4107.07186614 1000.00000000   1.00000000   1.00000000   1.00000000  10.00000000  10.00000000 
 4107.32186614 1000.00000000   1.00000000   1.00000000   1.00000000  10.00000000  10.00000000 
 4107.57186614 1000.00000000   1.00000000   1.00000000   1.00000000  10.00000000  10.00000000 
 4107.82186614 1000.00000000   1.00000000   1.00000000   1.00000000  10.00000000  10.00000000 
 4108.07186614 1000.00000000   1.00000000   1.00000000   1.00000000  10.00000000  10.00000000 
 4108.32186614 1000.00000000   1.00000000   1.00000000   1.00000000  10.00000000  10.00000000 
 4108.57186614 1000.00000000   1.00000000   1.00000000   1.00000000  10.00000000  10.00000000 
 4108.82186614 1000.00000000   1.00000000   1.00000000   1.00000000  10.00000000  10.00000000 
 4109.07186614 1000.00000000   1.00000000   1.00000000   1.00000000  10.00000000  10.00000000 
 4109.32186614 1000.00000000   1.00000000   1.00000000   1.00000000  10.00000000  10.00000000 
 4109.57186614 1000.00000000   1.00000000   1.00000000   1.00000000  10.00000000  10.00000000 
 4109.82186614 1000.00000000   1.00000000   1.00000000   1.00000000  10.00000000  10.00000000 
 4110.07186614 1000.00000000   1.00000000   1.00000000   1.00000000  10.00000000  10.00000000 
 4110.32186614 1000.00000000   1.00000000   1.00000000   1.00000000  10.00000000  10.00000000 
 4110.57186614 1000.00000000   1.00000000   1.00000000   1.00000000  10.00000000  10.00000000 
 4110.82186614 1000.00000000   1.00000000   1.00000000   1.00000000  10.00000000  10.00000000 
 4111.07186614 1000.00000000   1.00000000   1.00000000   1.00000000  10.00000000  10.00000000 
 4111.32186614 1000.00000000   1.00000000   1.00000000   1.00000000  10.00000000  10.00000000 
 4111.57186614 1000.00000000   1.00000000   1.00000000   1.00000000  10.00000000  10.00000000 
 4111.82186614 1000.00000000   1.00000000   1.00000000   1.00000000  10.00000000  10.00000000 
 4112.07186614 1000.00000000   1.00000000   1.00000000   1.00000000  10.00000000  10.00000000 
 4112.32186614 1000.00000000   1.00000000   1.00000000   1.00000000  10.00000000  10.00000000 
 4112.57186614 1000.00000000   1.00000000   1.00000000   1.00000000  10.00000000  10.00000000 
 4112.82186614 1000.00000000   1.00000000   1.00000000   1.00000000  10.00000000  10.00000000 
 4113.07186614 1000.00000000   1.00000000   1.00000000   1.00000000  10.00000000  10.00000000 
 4113.32186614 1000.00000000   1.00000000   1.00000000   1.00000000  10.00000000  10.00000000 
 4113.57186614 1000.00000000   1.00000000   1.00000000   1.00000000  10.00000000  10.00000000 
 4113.82186614 1000.00000000   1.00000000   1.00000000   1.00000000  10.00000000  10.00000000 
 4114.07186614 1000.00000000   1.00000000   1.00000000   1.00000000  10.00000000  10.00000000 
 4114.32186614 1000.00000000   1.00000000   1.00000000   1.00000000  10.00000000  10.00000000 
 4114.57186614 1000.00000000   1.00000000   1.00000000   1.00000000  10.00000000  10.00000000 
 4114.82186614 1000.00000000   1.00000000   1.00000000   1.00000000  10.00000000  10.00000000 
 4115.07186614 1000.00000000   1.00000000   1.00000000   1.00000000  10.00000000  10.00000000 
 4115.32186614 1000.00000000   1.00000000   1.00000000   1.00000000  10.00000000  10.00000000 
 4115.57186614 1000.00000000   1.00000000   1.00000000   1.00000000  10.00000000  10.00000000 
 4115.82186614 1000.00000000   1.00000000   1.00000000   1.00000000  10.00000000  10.00000000 
 4116.07186614 1000.00000000   1.00000000   1.00000000   1.00000000  10.00000000  10.00000000 
 4116.32186614 1000.00000000   1.00000000   1.00000000   1.00000000  10.00000000  10.00000000 
 4116.57186614 1000.00000000   1.00000000   1.00000000   1.00000000  10.00000000  10.00000000 
 4116.82186614 1000.00000000   1.00000000   1.00000000   1.00000000  10.00000000  10.00000000 
 4117.07186614 1000.00000000   1.00000000   1.00000000   1.00000000  10.00000000  10.00000000 
 4117.32186614 1000.00000000   1.00000000   1.00000000   1.00000000  10.00000000  10.00000000 
 4117.57186614 1000.00000000   1.00000000   1.00000000   1.00000000  10.00000000  10.00000000 
 4117.82186614 1000.00000000   1.00000000   1.00000000   1.00000000  10.00000000  10.00000000 
 4118.07186614 1000.00000000   1.00000000   1.00000000   1.00000000  10.00000000  10.00000000 
 4118.32186614 1000.00000000   1.00000000   1.00000000   1.00000000  10.00000000  10.00000000 
 4118.57186614 1000.00000000   1.00000000   1.00000000   1.00000000  10.00000000  10.00000000 
 4118.82186614 1000.00000000   1.00000000   1.00000000   1.00000000  10.00000000  10.00000000 
 4119.07186614 1000.00000000   1.00000000   1.00000000   1.00000000  10.00000000  10.00000000 
 4119.32186614 1000.00000000   1.00000000   1.00000000   1.00000000  10.00000000  10.00000000 
 4119.57186614 1000.00000000   1.00000000   1.00000000   1.00000000  10.00000000  10.00000000 
 4119.82186614 1000.00000000   1.00000000   1.00000000   1.00000000  10.00000000  10.00000000 
 4120.07186614 1000.00000000   1.00000000   1.00000000   1.00000000  10.00000000  10.00000000 
 4120.32186614 1000.00000000   1.00000000   1.00000000   1.00000000  10.00000000  10.00000000 
 4120.57186614 1000.00000000   1.00000000   1.00000000   1.00000000  10.00000000  10.00000000 
 4120.82186614 1000.00000000   1.00000000   1.00000000   1.00000000  10.00000000  10.00000000 
 4121.07186614 1000.00000000   1.00000000   1.00000000   1.00000000  10.00000000  10.00000000 
 4121.32186614 1000.00000000   1.00000000   1.00000000   1.00000000  10.00000000  10.00000000 
 4121.57186614 1000.00000000   1.00000000   1.00000000   1.00000000  10.00000000  10.00000000 
 4121.82186614 1000.00000000   1.00000000   1.00000000   1.00000000  10.00000000  10.00000000 
 4122.07186614 1000.00000000   1.00000000   1.00000000   1.00000000  10.00000000  10.00000000 
 4122.32186614 1000.00000000   1.00000000   1.00000000   1.00000000  10.00000000  10.00000000 
 4122.57186614 1000.00000000   1.00000000   1.00000000   1.00000000  10.00000000  10.00000000 
