~VERSION INFORMATION SECTION
VERS.           2.0  :CWLS Log ASCII Standard - 2.0
WRAP.           NO   :One line per depth
#               Created in UTAPWeLS
~WELL INFORMATION SECTION
#MNEM.UNIT  VALUE/NAME             :DESCRIPTION    
STRT.FT  2932.8219                 :Start Depth    
STOP.FT  6443.5719                 :Stop Depth     
STEP.FT  0.25                      :Step           
NULL.    -999.25                   :Null Value     
WELL.    Consortium23_Motivation   :Well Name      
CTRY.    UNKNOWN                   :Country        
CNTY.    UNKNOWN                   :County         
STAT.    UNKNOWN                   :State          
API .    UNKNOWN                   :API number     
UWI .    UNKNOWN                   :Unique well ID 
LOC .    UNKNOWN                   :Well Location  
FLD .    UNKNOWN                   :Field          
COMP.    UNKNOWN                   :Company        
SRVC.    UNKNOWN                   :Service Company
DATE.    19-Apr-2024               :Date           
~PARAMETER INFORMATION SECTION
#MNEM.UNITS  VALUE   :DESCRIPTION OF PARAMETER
~CURVE INFORMATION SECTION
#MNEM                                            .UNITS  API CODES   :DESCRIPTION OF MNEMONIC                          
Measured Depth                                   .FT                 :Measured Depth                                   
Resistivity Mud                                  .OHM-M              :Resistivity Mud                                  
Resistivity Invaded                              .OHM-M              :Resistivity Invaded                              
Resistivity Formation (Uninvaded)                .OHM-M              :Resistivity Formation (Uninvaded)                
Resistivity (Perpendicular) Mud                  .OHM-M              :Resistivity (Perpendicular) Mud                  
Resistivity (Perpendicular) Invaded              .OHM-M              :Resistivity (Perpendicular) Invaded              
Resistivity (Perpendicular) Formation (Uninvaded).OHM-M              :Resistivity (Perpendicular) Formation (Uninvaded)
~A Measured Dep Resistivity  Resistivity  Resistivity  Resistivity  Resistivity  Resistivity  
# ...
 5249.07186614 1000.00000000   1.00000000   1.00000000   1.00000000  10.00000000  10.00000000 
 5249.32186614 1000.00000000   1.00000000   1.00000000   1.00000000  10.00000000  10.00000000 
 5249.57186614 1000.00000000   1.00000000   1.00000000   1.00000000  10.00000000  10.00000000 
 5249.82186614 1000.00000000   1.00000000   1.00000000   1.00000000  10.00000000  10.00000000 
 5250.07186614 1000.00000000   1.00000000   1.00000000   1.00000000  10.00000000  10.00000000 
 5250.32186614 1000.00000000   1.00000000   1.00000000   1.00000000  10.00000000  10.00000000 
 5250.57186614 1000.00000000   1.00000000   1.00000000   1.00000000  10.00000000  10.00000000 
 5250.82186614 1000.00000000   1.00000000   1.00000000   1.00000000  10.00000000  10.00000000 
 5251.07186614 1000.00000000   1.00000000   1.00000000   1.00000000  10.00000000  10.00000000 
 5251.32186614 1000.00000000   1.00000000   1.00000000   1.00000000  10.00000000  10.00000000 
 5251.57186614 1000.00000000   1.00000000   1.00000000   1.00000000  10.00000000  10.00000000 
 5251.82186614 1000.00000000   1.00000000   1.00000000   1.00000000  10.00000000  10.00000000 
 5252.07186614 1000.00000000   1.00000000   1.00000000   1.00000000  10.00000000  10.00000000 
 5252.32186614 1000.00000000   1.00000000   1.00000000   1.00000000  10.00000000  10.00000000 
 5252.57186614 1000.00000000   1.00000000   1.00000000   1.00000000  10.00000000  10.00000000 
 5252.82186614 1000.00000000   1.00000000   1.00000000   1.00000000  10.00000000  10.00000000 
 5253.07186614 1000.00000000   1.00000000   1.00000000   1.00000000  10.00000000  10.00000000 
 5253.32186614 1000.00000000   1.00000000   1.00000000   1.00000000  10.00000000  10.00000000 
 5253.57186614 1000.00000000   1.00000000   1.00000000   1.00000000  10.00000000  10.00000000 
 5253.82186614 1000.00000000   1.00000000   1.00000000   1.00000000  10.00000000  10.00000000 
 5254.07186614 1000.00000000   1.00000000   1.00000000   1.00000000  10.00000000  10.00000000 
 5254.32186614 1000.00000000   1.00000000   1.00000000   1.00000000  10.00000000  10.00000000 
 5254.57186614 1000.00000000   1.00000000   1.00000000   1.00000000  10.00000000  10.00000000 
 5254.82186614 1000.00000000   1.00000000   1.00000000   1.00000000  10.00000000  10.00000000 
 5255.07186614 1000.00000000   1.00000000   1.00000000   1.00000000  10.00000000  10.00000000 
 5255.32186614 1000.00000000   1.00000000   1.00000000   1.00000000  10.00000000  10.00000000 
 5255.57186614 1000.00000000   1.00000000   1.00000000   1.00000000  10.00000000  10.00000000 
 5255.82186614 1000.00000000   1.00000000   1.00000000   1.00000000  10.00000000  10.00000000 
 5256.07186614 1000.00000000   1.00000000   1.00000000   1.00000000  10.00000000  10.00000000 
 5256.32186614 1000.00000000   1.00000000   1.00000000   1.00000000  10.00000000  10.00000000 
 5256.57186614 1000.00000000   1.00000000   1.00000000   1.00000000  10.00000000  10.00000000 
 5256.82186614 1000.00000000   1.00000000   1.00000000   1.00000000  10.00000000  10.00000000 
 5257.07186614 1000.00000000   1.00000000   1.00000000   1.00000000  10.00000000  10.00000000 
 5257.32186614 1000.00000000   1.00000000   1.00000000   1.00000000  10.00000000  10.00000000 
 5257.57186614 1000.00000000   1.00000000   1.00000000   1.00000000  10.00000000  10.00000000 
 5257.82186614 1000.00000000   1.00000000   1.00000000   1.00000000  10.00000000  10.00000000 
 5258.07186614 1000.00000000   1.00000000   1.00000000   1.00000000  10.00000000  10.00000000 
 5258.32186614 1000.00000000   1.00000000   1.00000000   1.00000000  10.00000000  10.00000000 
 5258.57186614 1000.00000000   1.00000000   1.00000000   1.00000000  10.00000000  10.00000000 
 5258.82186614 1000.00000000   1.00000000   1.00000000   1.00000000  10.00000000  10.00000000 
 5259.07186614 1000.00000000   1.00000000   1.00000000   1.00000000  10.00000000  10.00000000 
 5259.32186614 1000.00000000   1.00000000   1.00000000   1.00000000  10.00000000  10.00000000 
 5259.57186614 1000.00000000   1.00000000   1.00000000   1.00000000  10.00000000  10.00000000 
 5259.82186614 1000.00000000   1.00000000   1.00000000   1.00000000  10.00000000  10.00000000 
 5260.07186614 1000.00000000   1.00000000   1.00000000   1.00000000  10.00000000  10.00000000 
 5260.32186614 1000.00000000   1.00000000   1.00000000   1.00000000  10.00000000  10.00000000 
 5260.57186614 1000.00000000   1.00000000   1.00000000   1.00000000  10.00000000  10.00000000 
 5260.82186614 1000.00000000   1.00000000   1.00000000   1.00000000  10.00000000  10.00000000 
 5261.07186614 1000.00000000   1.00000000   1.00000000   1.00000000  10.00000000  10.00000000 
 5261.32186614 1000.00000000   1.00000000   1.00000000   1.00000000  10.00000000  10.00000000 
 5261.57186614 1000.00000000   1.00000000   1.00000000   1.00000000  10.00000000  10.00000000 
 5261.82186614 1000.00000000   1.00000000   1.00000000   1.00000000  10.00000000  10.00000000 
 5262.07186614 1000.00000000   1.00000000   1.00000000   1.00000000  10.00000000  10.00000000 
 5262.32186614 1000.00000000   1.00000000   1.00000000   1.00000000  10.00000000  10.00000000 
 5262.57186614 1000.00000000   1.00000000   1.00000000   1.00000000  10.00000000  10.00000000 
 5262.82186614 1000.00000000   1.00000000   1.00000000   1.00000000  10.00000000  10.00000000 
 5263.07186614 1000.00000000   1.00000000   1.00000000   1.00000000  10.00000000  10.00000000 
 5263.32186614 1000.00000000   1.00000000   1.00000000   1.00000000  10.00000000  10.00000000 
 5263.57186614 1000.00000000   1.00000000   1.00000000   1.00000000  10.00000000  10.00000000 
 5263.82186614 1000.00000000   1.00000000   1.00000000   1.00000000  10.00000000  10.00000000 
 5264.07186614 1000.00000000   1.00000000   1.00000000   1.00000000  10.00000000  10.00000000 
 5264.32186614 1000.00000000   1.00000000   1.00000000   1.00000000  10.00000000  10.00000000 
 5264.57186614 1000.00000000   1.00000000   1.00000000   1.00000000  10.00000000  10.00000000 
 5264.82186614 1000.00000000   1.00000000   1.00000000   1.00000000  10.00000000  10.00000000 
 5265.07186614 1000.00000000   1.00000000   1.00000000   1.00000000  10.00000000  10.00000000 
 5265.32186614 1000.00000000   1.00000000   1.00000000   1.00000000  10.00000000  10.00000000 
 5265.57186614 1000.00000000   1.00000000   1.00000000   1.00000000  10.00000000  10.00000000 
 5265.82186614 1000.00000000   1.00000000   1.00000000   1.00000000  10.00000000  10.00000000 
 5266.07186614 1000.00000000   1.00000000   1.00000000   1.00000000  10.00000000  10.00000000 
 5266.32186614 1000.00000000   1.00000000   1.00000000   1.00000000  10.00000000  10.00000000 
 5266.57186614 1000.00000000   1.00000000   1.00000000   1.00000000  10.00000000  10.00000000 
 5266.82186614 1000.00000000   1.00000000   1.00000000   1.00000000  10.00000000  10.00000000 
 5267.07186614 1000.00000000   1.00000000   1.00000000   1.00000000  10.00000000  10.00000000 
 5267.32186614 1000.00000000   1.00000000   1.00000000   1.00000000  10.00000000  10.00000000 
 5267.57186614 1000.00000000   1.00000000   1.00000000   1.00000000  10.00000000  10.00000000 
 5267.82186614 1000.00000000   1.00000000   1.00000000   1.00000000  10.00000000  10.00000000 
 5268.07186614 1000.00000000   1.00000000   1.00000000   1.00000000  10.00000000  10.00000000 
 5268.32186614 1000.00000000   1.00000000   1.00000000   1.00000000  10.00000000  10.00000000 
 5268.57186614 1000.00000000   1.00000000   1.00000000   1.00000000  10.00000000  10.00000000 
 5268.82186614 1000.00000000   1.00000000   1.00000000   1.00000000  10.00000000  10.00000000 
 5269.07186614 1000.00000000   1.00000000   1.00000000   1.00000000  10.00000000  10.00000000 
 5269.32186614 1000.00000000   1.00000000   1.00000000   1.00000000  10.00000000  10.00000000 
 5269.57186614 1000.00000000   1.00000000   1.00000000   1.00000000  10.00000000  10.00000000 
 5269.82186614 1000.00000000   1.00000000   1.00000000   1.00000000  10.00000000  10.00000000 
 5270.07186614 1000.00000000   1.00000000   1.00000000   1.00000000  10.00000000  10.00000000 
