~VERSION INFORMATION SECTION
VERS.           2.0  :CWLS Log ASCII Standard - 2.0
WRAP.           NO   :One line per depth
#               Created in UTAPWeLS
~WELL INFORMATION SECTION
#MNEM.UNIT  VALUE/NAME             :DESCRIPTION    
STRT.FT  2932.8219                 :Start Depth    
STOP.FT  6443.5719                 :Stop Depth     
STEP.FT  0.25                      :Step           
NULL.    -999.25                   :Null Value     
WELL.    Consortium23_Motivation   :Well Name      
CTRY.    UNKNOWN                   :Country        
CNTY.    UNKNOWN                   :County         
STAT.    UNKNOWN                   :State          
API .    UNKNOWN                   :API number     
UWI .    UNKNOWN                   :Unique well ID 
LOC .    UNKNOWN                   :Well Location  
FLD .    UNKNOWN                   :Field          
COMP.    UNKNOWN                   :Company        
SRVC.    UNKNOWN                   :Service Company
DATE.    19-Apr-2024               :Date           
~PARAMETER INFORMATION SECTION
#MNEM.UNITS  VALUE   :DESCRIPTION OF PARAMETER
~CURVE INFORMATION SECTION
#MNEM                                            .UNITS  API CODES   :DESCRIPTION OF MNEMONIC                          
Measured Depth                                   .FT                 :Measured Depth                                   
Resistivity Mud                                  .OHM-M              :Resistivity Mud                                  
Resistivity Invaded                              .OHM-M              :Resistivity Invaded                              
Resistivity Formation (Uninvaded)                .OHM-M              :Resistivity Formation (Uninvaded)                
Resistivity (Perpendicular) Mud                  .OHM-M              :Resistivity (Perpendicular) Mud                  
Resistivity (Perpendicular) Invaded              .OHM-M              :Resistivity (Perpendicular) Invaded              
Resistivity (Perpendicular) Formation (Uninvaded).OHM-M              :Resistivity (Perpendicular) Formation (Uninvaded)
~A Measured Dep Resistivity  Resistivity  Resistivity  Resistivity  Resistivity  Resistivity  
# ...
 3634.07186614 1000.00000000   1.00000000   1.00000000   1.00000000  10.00000000  10.00000000 
 3634.32186614 1000.00000000   1.00000000   1.00000000   1.00000000  10.00000000  10.00000000 
 3634.57186614 1000.00000000   1.00000000   1.00000000   1.00000000  10.00000000  10.00000000 
 3634.82186614 1000.00000000   1.00000000   1.00000000   1.00000000  10.00000000  10.00000000 
 3635.07186614 1000.00000000   1.00000000   1.00000000   1.00000000  10.00000000  10.00000000 
 3635.32186614 1000.00000000   1.00000000   1.00000000   1.00000000  10.00000000  10.00000000 
 3635.57186614 1000.00000000   1.00000000   1.00000000   1.00000000  10.00000000  10.00000000 
 3635.82186614 1000.00000000   1.00000000   1.00000000   1.00000000  10.00000000  10.00000000 
 3636.07186614 1000.00000000   1.00000000   1.00000000   1.00000000  10.00000000  10.00000000 
 3636.32186614 1000.00000000   1.00000000   1.00000000   1.00000000  10.00000000  10.00000000 
 3636.57186614 1000.00000000   1.00000000   1.00000000   1.00000000  10.00000000  10.00000000 
 3636.82186614 1000.00000000   1.00000000   1.00000000   1.00000000  10.00000000  10.00000000 
 3637.07186614 1000.00000000   1.00000000   1.00000000   1.00000000  10.00000000  10.00000000 
 3637.32186614 1000.00000000   1.00000000   1.00000000   1.00000000  10.00000000  10.00000000 
 3637.57186614 1000.00000000   1.00000000   1.00000000   1.00000000  10.00000000  10.00000000 
 3637.82186614 1000.00000000   1.00000000   1.00000000   1.00000000  10.00000000  10.00000000 
 3638.07186614 1000.00000000   1.00000000   1.00000000   1.00000000  10.00000000  10.00000000 
 3638.32186614 1000.00000000   1.00000000   1.00000000   1.00000000  10.00000000  10.00000000 
 3638.57186614 1000.00000000   1.00000000   1.00000000   1.00000000  10.00000000  10.00000000 
 3638.82186614 1000.00000000   1.00000000   1.00000000   1.00000000  10.00000000  10.00000000 
 3639.07186614 1000.00000000   1.00000000   1.00000000   1.00000000  10.00000000  10.00000000 
 3639.32186614 1000.00000000   1.00000000   1.00000000   1.00000000  10.00000000  10.00000000 
 3639.57186614 1000.00000000   1.00000000   1.00000000   1.00000000  10.00000000  10.00000000 
 3639.82186614 1000.00000000   1.00000000   1.00000000   1.00000000  10.00000000  10.00000000 
 3640.07186614 1000.00000000   1.00000000   1.00000000   1.00000000  10.00000000  10.00000000 
 3640.32186614 1000.00000000   1.00000000   1.00000000   1.00000000  10.00000000  10.00000000 
 3640.57186614 1000.00000000   1.00000000   1.00000000   1.00000000  10.00000000  10.00000000 
 3640.82186614 1000.00000000   1.00000000   1.00000000   1.00000000  10.00000000  10.00000000 
 3641.07186614 1000.00000000   1.00000000   1.00000000   1.00000000  10.00000000  10.00000000 
 3641.32186614 1000.00000000   1.00000000   1.00000000   1.00000000  10.00000000  10.00000000 
 3641.57186614 1000.00000000   1.00000000   1.00000000   1.00000000  10.00000000  10.00000000 
 3641.82186614 1000.00000000   1.00000000   1.00000000   1.00000000  10.00000000  10.00000000 
 3642.07186614 1000.00000000   1.00000000   1.00000000   1.00000000  10.00000000  10.00000000 
 3642.32186614 1000.00000000   1.00000000   1.00000000   1.00000000  10.00000000  10.00000000 
 3642.57186614 1000.00000000   1.00000000   1.00000000   1.00000000  10.00000000  10.00000000 
 3642.82186614 1000.00000000   1.00000000   1.00000000   1.00000000  10.00000000  10.00000000 
 3643.07186614 1000.00000000   1.00000000   1.00000000   1.00000000  10.00000000  10.00000000 
 3643.32186614 1000.00000000   1.00000000   1.00000000   1.00000000  10.00000000  10.00000000 
 3643.57186614 1000.00000000   1.00000000   1.00000000   1.00000000  10.00000000  10.00000000 
 3643.82186614 1000.00000000   1.00000000   1.00000000   1.00000000  10.00000000  10.00000000 
 3644.07186614 1000.00000000   1.00000000   1.00000000   1.00000000  10.00000000  10.00000000 
 3644.32186614 1000.00000000   1.00000000   1.00000000   1.00000000  10.00000000  10.00000000 
 3644.57186614 1000.00000000   1.00000000   1.00000000   1.00000000  10.00000000  10.00000000 
 3644.82186614 1000.00000000   1.00000000   1.00000000   1.00000000  10.00000000  10.00000000 
 3645.07186614 1000.00000000   1.00000000   1.00000000   1.00000000  10.00000000  10.00000000 
 3645.32186614 1000.00000000   1.00000000   1.00000000   1.00000000  10.00000000  10.00000000 
 3645.57186614 1000.00000000   1.00000000   1.00000000   1.00000000  10.00000000  10.00000000 
 3645.82186614 1000.00000000   1.00000000   1.00000000   1.00000000  10.00000000  10.00000000 
 3646.07186614 1000.00000000   1.00000000   1.00000000   1.00000000  10.00000000  10.00000000 
 3646.32186614 1000.00000000   1.00000000   1.00000000   1.00000000  10.00000000  10.00000000 
 3646.57186614 1000.00000000   1.00000000   1.00000000   1.00000000  10.00000000  10.00000000 
 3646.82186614 1000.00000000   1.00000000   1.00000000   1.00000000  10.00000000  10.00000000 
 3647.07186614 1000.00000000   1.00000000   1.00000000   1.00000000  10.00000000  10.00000000 
 3647.32186614 1000.00000000   1.00000000   1.00000000   1.00000000  10.00000000  10.00000000 
 3647.57186614 1000.00000000   1.00000000   1.00000000   1.00000000  10.00000000  10.00000000 
 3647.82186614 1000.00000000   1.00000000   1.00000000   1.00000000  10.00000000  10.00000000 
 3648.07186614 1000.00000000   1.00000000   1.00000000   1.00000000  10.00000000  10.00000000 
 3648.32186614 1000.00000000   1.00000000   1.00000000   1.00000000  10.00000000  10.00000000 
 3648.57186614 1000.00000000   1.00000000   1.00000000   1.00000000  10.00000000  10.00000000 
 3648.82186614 1000.00000000   1.00000000   1.00000000   1.00000000  10.00000000  10.00000000 
 3649.07186614 1000.00000000   1.00000000   1.00000000   1.00000000  10.00000000  10.00000000 
 3649.32186614 1000.00000000   1.00000000   1.00000000   1.00000000  10.00000000  10.00000000 
 3649.57186614 1000.00000000   1.00000000   1.00000000   1.00000000  10.00000000  10.00000000 
 3649.82186614 1000.00000000   1.00000000   1.00000000   1.00000000  10.00000000  10.00000000 
 3650.07186614 1000.00000000   1.00000000   1.00000000   1.00000000  10.00000000  10.00000000 
 3650.32186614 1000.00000000   1.00000000   1.00000000   1.00000000  10.00000000  10.00000000 
 3650.57186614 1000.00000000   1.00000000   1.00000000   1.00000000  10.00000000  10.00000000 
 3650.82186614 1000.00000000   1.00000000   1.00000000   1.00000000  10.00000000  10.00000000 
 3651.07186614 1000.00000000   1.00000000   1.00000000   1.00000000  10.00000000  10.00000000 
 3651.32186614 1000.00000000   1.00000000   1.00000000   1.00000000  10.00000000  10.00000000 
 3651.57186614 1000.00000000   1.00000000   1.00000000   1.00000000  10.00000000  10.00000000 
 3651.82186614 1000.00000000   1.00000000   1.00000000   1.00000000  10.00000000  10.00000000 
 3652.07186614 1000.00000000   1.00000000   1.00000000   1.00000000  10.00000000  10.00000000 
 3652.32186614 1000.00000000   1.00000000   1.00000000   1.00000000  10.00000000  10.00000000 
 3652.57186614 1000.00000000   1.00000000   1.00000000   1.00000000  10.00000000  10.00000000 
 3652.82186614 1000.00000000   1.00000000   1.00000000   1.00000000  10.00000000  10.00000000 
 3653.07186614 1000.00000000   1.00000000   1.00000000   1.00000000  10.00000000  10.00000000 
 3653.32186614 1000.00000000   1.00000000   1.00000000   1.00000000  10.00000000  10.00000000 
 3653.57186614 1000.00000000   1.00000000   1.00000000   1.00000000  10.00000000  10.00000000 
 3653.82186614 1000.00000000   1.00000000   1.00000000   1.00000000  10.00000000  10.00000000 
 3654.07186614 1000.00000000   1.00000000   1.00000000   1.00000000  10.00000000  10.00000000 
 3654.32186614 1000.00000000   1.00000000   1.00000000   1.00000000  10.00000000  10.00000000 
 3654.57186614 1000.00000000   1.00000000   1.00000000   1.00000000  10.00000000  10.00000000 
 3654.82186614 1000.00000000   1.00000000   1.00000000   1.00000000  10.00000000  10.00000000 
 3655.07186614 1000.00000000   1.00000000   1.00000000   1.00000000  10.00000000  10.00000000 
