~VERSION INFORMATION SECTION
VERS.           2.0  :CWLS Log ASCII Standard - 2.0
WRAP.           NO   :One line per depth
#               Created in UTAPWeLS
~WELL INFORMATION SECTION
#MNEM.UNIT  VALUE/NAME             :DESCRIPTION    
STRT.FT  2932.8219                 :Start Depth    
STOP.FT  6443.5719                 :Stop Depth     
STEP.FT  0.25                      :Step           
NULL.    -999.25                   :Null Value     
WELL.    Consortium23_Motivation   :Well Name      
CTRY.    UNKNOWN                   :Country        
CNTY.    UNKNOWN                   :County         
STAT.    UNKNOWN                   :State          
API .    UNKNOWN                   :API number     
UWI .    UNKNOWN                   :Unique well ID 
LOC .    UNKNOWN                   :Well Location  
FLD .    UNKNOWN                   :Field          
COMP.    UNKNOWN                   :Company        
SRVC.    UNKNOWN                   :Service Company
DATE.    19-Apr-2024               :Date           
~PARAMETER INFORMATION SECTION
#MNEM.UNITS  VALUE   :DESCRIPTION OF PARAMETER
~CURVE INFORMATION SECTION
#MNEM                                            .UNITS  API CODES   :DESCRIPTION OF MNEMONIC                          
Measured Depth                                   .FT                 :Measured Depth                                   
Resistivity Mud                                  .OHM-M              :Resistivity Mud                                  
Resistivity Invaded                              .OHM-M              :Resistivity Invaded                              
Resistivity Formation (Uninvaded)                .OHM-M              :Resistivity Formation (Uninvaded)                
Resistivity (Perpendicular) Mud                  .OHM-M              :Resistivity (Perpendicular) Mud                  
Resistivity (Perpendicular) Invaded              .OHM-M              :Resistivity (Perpendicular) Invaded              
Resistivity (Perpendicular) Formation (Uninvaded).OHM-M              :Resistivity (Perpendicular) Formation (Uninvaded)
~A Measured Dep Resistivity  Resistivity  Resistivity  Resistivity  Resistivity  Resistivity  
# ...
 5015.32186614 1000.00000000   1.00000000   1.00000000   1.00000000  10.00000000  10.00000000 
 5015.57186614 1000.00000000   1.00000000   1.00000000   1.00000000  10.00000000  10.00000000 
 5015.82186614 1000.00000000   1.00000000   1.00000000   1.00000000  10.00000000  10.00000000 
 5016.07186614 1000.00000000   1.00000000   1.00000000   1.00000000  10.00000000  10.00000000 
 5016.32186614 1000.00000000   1.00000000   1.00000000   1.00000000  10.00000000  10.00000000 
 5016.57186614 1000.00000000   1.00000000   1.00000000   1.00000000  10.00000000  10.00000000 
 5016.82186614 1000.00000000   1.00000000   1.00000000   1.00000000  10.00000000  10.00000000 
 5017.07186614 1000.00000000   1.00000000   1.00000000   1.00000000  10.00000000  10.00000000 
 5017.32186614 1000.00000000   1.00000000   1.00000000   1.00000000  10.00000000  10.00000000 
 5017.57186614 1000.00000000   1.00000000   1.00000000   1.00000000  10.00000000  10.00000000 
 5017.82186614 1000.00000000   1.00000000   1.00000000   1.00000000  10.00000000  10.00000000 
 5018.07186614 1000.00000000   1.00000000   1.00000000   1.00000000  10.00000000  10.00000000 
 5018.32186614 1000.00000000   1.00000000   1.00000000   1.00000000  10.00000000  10.00000000 
 5018.57186614 1000.00000000   1.00000000   1.00000000   1.00000000  10.00000000  10.00000000 
 5018.82186614 1000.00000000   1.00000000   1.00000000   1.00000000  10.00000000  10.00000000 
 5019.07186614 1000.00000000   1.00000000   1.00000000   1.00000000  10.00000000  10.00000000 
 5019.32186614 1000.00000000   1.00000000   1.00000000   1.00000000  10.00000000  10.00000000 
 5019.57186614 1000.00000000   1.00000000   1.00000000   1.00000000  10.00000000  10.00000000 
 5019.82186614 1000.00000000   1.00000000   1.00000000   1.00000000  10.00000000  10.00000000 
 5020.07186614 1000.00000000   1.00000000   1.00000000   1.00000000  10.00000000  10.00000000 
 5020.32186614 1000.00000000   1.00000000   1.00000000   1.00000000  10.00000000  10.00000000 
 5020.57186614 1000.00000000   1.00000000   1.00000000   1.00000000  10.00000000  10.00000000 
 5020.82186614 1000.00000000   1.00000000   1.00000000   1.00000000  10.00000000  10.00000000 
 5021.07186614 1000.00000000   1.00000000   1.00000000   1.00000000  10.00000000  10.00000000 
 5021.32186614 1000.00000000   1.00000000   1.00000000   1.00000000  10.00000000  10.00000000 
 5021.57186614 1000.00000000   1.00000000   1.00000000   1.00000000  10.00000000  10.00000000 
 5021.82186614 1000.00000000   1.00000000   1.00000000   1.00000000  10.00000000  10.00000000 
 5022.07186614 1000.00000000   1.00000000   1.00000000   1.00000000  10.00000000  10.00000000 
 5022.32186614 1000.00000000   1.00000000   1.00000000   1.00000000  10.00000000  10.00000000 
 5022.57186614 1000.00000000   1.00000000   1.00000000   1.00000000  10.00000000  10.00000000 
 5022.82186614 1000.00000000   1.00000000   1.00000000   1.00000000  10.00000000  10.00000000 
 5023.07186614 1000.00000000   1.00000000   1.00000000   1.00000000  10.00000000  10.00000000 
 5023.32186614 1000.00000000   1.00000000   1.00000000   1.00000000  10.00000000  10.00000000 
 5023.57186614 1000.00000000   1.00000000   1.00000000   1.00000000  10.00000000  10.00000000 
 5023.82186614 1000.00000000   1.00000000   1.00000000   1.00000000  10.00000000  10.00000000 
 5024.07186614 1000.00000000   1.00000000   1.00000000   1.00000000  10.00000000  10.00000000 
 5024.32186614 1000.00000000   1.00000000   1.00000000   1.00000000  10.00000000  10.00000000 
 5024.57186614 1000.00000000   1.00000000   1.00000000   1.00000000  10.00000000  10.00000000 
 5024.82186614 1000.00000000   1.00000000   1.00000000   1.00000000  10.00000000  10.00000000 
 5025.07186614 1000.00000000   1.00000000   1.00000000   1.00000000  10.00000000  10.00000000 
 5025.32186614 1000.00000000   1.00000000   1.00000000   1.00000000  10.00000000  10.00000000 
 5025.57186614 1000.00000000   1.00000000   1.00000000   1.00000000  10.00000000  10.00000000 
 5025.82186614 1000.00000000   1.00000000   1.00000000   1.00000000  10.00000000  10.00000000 
 5026.07186614 1000.00000000   1.00000000   1.00000000   1.00000000  10.00000000  10.00000000 
 5026.32186614 1000.00000000   1.00000000   1.00000000   1.00000000  10.00000000  10.00000000 
 5026.57186614 1000.00000000   1.00000000   1.00000000   1.00000000  10.00000000  10.00000000 
 5026.82186614 1000.00000000   1.00000000   1.00000000   1.00000000  10.00000000  10.00000000 
 5027.07186614 1000.00000000   1.00000000   1.00000000   1.00000000  10.00000000  10.00000000 
 5027.32186614 1000.00000000   1.00000000   1.00000000   1.00000000  10.00000000  10.00000000 
 5027.57186614 1000.00000000   1.00000000   1.00000000   1.00000000  10.00000000  10.00000000 
 5027.82186614 1000.00000000   1.00000000   1.00000000   1.00000000  10.00000000  10.00000000 
 5028.07186614 1000.00000000   1.00000000   1.00000000   1.00000000  10.00000000  10.00000000 
 5028.32186614 1000.00000000   1.00000000   1.00000000   1.00000000  10.00000000  10.00000000 
 5028.57186614 1000.00000000   1.00000000   1.00000000   1.00000000  10.00000000  10.00000000 
 5028.82186614 1000.00000000   1.00000000   1.00000000   1.00000000  10.00000000  10.00000000 
 5029.07186614 1000.00000000   1.00000000   1.00000000   1.00000000  10.00000000  10.00000000 
 5029.32186614 1000.00000000   1.00000000   1.00000000   1.00000000  10.00000000  10.00000000 
 5029.57186614 1000.00000000   1.00000000   1.00000000   1.00000000  10.00000000  10.00000000 
 5029.82186614 1000.00000000   1.00000000   1.00000000   1.00000000  10.00000000  10.00000000 
 5030.07186614 1000.00000000   1.00000000   1.00000000   1.00000000  10.00000000  10.00000000 
 5030.32186614 1000.00000000   1.00000000   1.00000000   1.00000000  10.00000000  10.00000000 
 5030.57186614 1000.00000000   1.00000000   1.00000000   1.00000000  10.00000000  10.00000000 
 5030.82186614 1000.00000000   1.00000000   1.00000000   1.00000000  10.00000000  10.00000000 
 5031.07186614 1000.00000000   1.00000000   1.00000000   1.00000000  10.00000000  10.00000000 
 5031.32186614 1000.00000000   1.00000000   1.00000000   1.00000000  10.00000000  10.00000000 
 5031.57186614 1000.00000000   1.00000000   1.00000000   1.00000000  10.00000000  10.00000000 
 5031.82186614 1000.00000000   1.00000000   1.00000000   1.00000000  10.00000000  10.00000000 
 5032.07186614 1000.00000000   1.00000000   1.00000000   1.00000000  10.00000000  10.00000000 
 5032.32186614 1000.00000000   1.00000000   1.00000000   1.00000000  10.00000000  10.00000000 
 5032.57186614 1000.00000000   1.00000000   1.00000000   1.00000000  10.00000000  10.00000000 
 5032.82186614 1000.00000000   1.00000000   1.00000000   1.00000000  10.00000000  10.00000000 
 5033.07186614 1000.00000000   1.00000000   1.00000000   1.00000000  10.00000000  10.00000000 
 5033.32186614 1000.00000000   1.00000000   1.00000000   1.00000000  10.00000000  10.00000000 
 5033.57186614 1000.00000000   1.00000000   1.00000000   1.00000000  10.00000000  10.00000000 
 5033.82186614 1000.00000000   1.00000000   1.00000000   1.00000000  10.00000000  10.00000000 
 5034.07186614 1000.00000000   1.00000000   1.00000000   1.00000000  10.00000000  10.00000000 
 5034.32186614 1000.00000000   1.00000000   1.00000000   1.00000000  10.00000000  10.00000000 
 5034.57186614 1000.00000000   1.00000000   1.00000000   1.00000000  10.00000000  10.00000000 
 5034.82186614 1000.00000000   1.00000000   1.00000000   1.00000000  10.00000000  10.00000000 
 5035.07186614 1000.00000000   1.00000000   1.00000000   1.00000000  10.00000000  10.00000000 
 5035.32186614 1000.00000000   1.00000000   1.00000000   1.00000000  10.00000000  10.00000000 
 5035.57186614 1000.00000000   1.00000000   1.00000000   1.00000000  10.00000000  10.00000000 
 5035.82186614 1000.00000000   1.00000000   1.00000000   1.00000000  10.00000000  10.00000000 
 5036.07186614 1000.00000000   1.00000000   1.00000000   1.00000000  10.00000000  10.00000000 
 5036.32186614 1000.00000000   1.00000000   1.00000000   1.00000000  10.00000000  10.00000000 
