~VERSION INFORMATION SECTION
VERS.           2.0  :CWLS Log ASCII Standard - 2.0
WRAP.           NO   :One line per depth
#               Created in UTAPWeLS
~WELL INFORMATION SECTION
#MNEM.UNIT  VALUE/NAME             :DESCRIPTION    
STRT.FT  2932.8219                 :Start Depth    
STOP.FT  6443.5719                 :Stop Depth     
STEP.FT  0.25                      :Step           
NULL.    -999.25                   :Null Value     
WELL.    Consortium23_Motivation   :Well Name      
CTRY.    UNKNOWN                   :Country        
CNTY.    UNKNOWN                   :County         
STAT.    UNKNOWN                   :State          
API .    UNKNOWN                   :API number     
UWI .    UNKNOWN                   :Unique well ID 
LOC .    UNKNOWN                   :Well Location  
FLD .    UNKNOWN                   :Field          
COMP.    UNKNOWN                   :Company        
SRVC.    UNKNOWN                   :Service Company
DATE.    19-Apr-2024               :Date           
~PARAMETER INFORMATION SECTION
#MNEM.UNITS  VALUE   :DESCRIPTION OF PARAMETER
~CURVE INFORMATION SECTION
#MNEM                                            .UNITS  API CODES   :DESCRIPTION OF MNEMONIC                          
Measured Depth                                   .FT                 :Measured Depth                                   
Resistivity Mud                                  .OHM-M              :Resistivity Mud                                  
Resistivity Invaded                              .OHM-M              :Resistivity Invaded                              
Resistivity Formation (Uninvaded)                .OHM-M              :Resistivity Formation (Uninvaded)                
Resistivity (Perpendicular) Mud                  .OHM-M              :Resistivity (Perpendicular) Mud                  
Resistivity (Perpendicular) Invaded              .OHM-M              :Resistivity (Perpendicular) Invaded              
Resistivity (Perpendicular) Formation (Uninvaded).OHM-M              :Resistivity (Perpendicular) Formation (Uninvaded)
~A Measured Dep Resistivity  Resistivity  Resistivity  Resistivity  Resistivity  Resistivity  
# ...
 6417.82186614 1000.00000000   1.00000000   1.00000000   1.00000000  10.00000000  10.00000000 
 6418.07186614 1000.00000000   1.00000000   1.00000000   1.00000000  10.00000000  10.00000000 
 6418.32186614 1000.00000000   1.00000000   1.00000000   1.00000000  10.00000000  10.00000000 
 6418.57186614 1000.00000000   1.00000000   1.00000000   1.00000000  10.00000000  10.00000000 
 6418.82186614 1000.00000000   1.00000000   1.00000000   1.00000000  10.00000000  10.00000000 
 6419.07186614 1000.00000000   1.00000000   1.00000000   1.00000000  10.00000000  10.00000000 
 6419.32186614 1000.00000000   1.00000000   1.00000000   1.00000000  10.00000000  10.00000000 
 6419.57186614 1000.00000000   1.00000000   1.00000000   1.00000000  10.00000000  10.00000000 
 6419.82186614 1000.00000000   1.00000000   1.00000000   1.00000000  10.00000000  10.00000000 
 6420.07186614 1000.00000000   1.00000000   1.00000000   1.00000000  10.00000000  10.00000000 
 6420.32186614 1000.00000000   1.00000000   1.00000000   1.00000000  10.00000000  10.00000000 
 6420.57186614 1000.00000000   1.00000000   1.00000000   1.00000000  10.00000000  10.00000000 
 6420.82186614 1000.00000000   1.00000000   1.00000000   1.00000000  10.00000000  10.00000000 
 6421.07186614 1000.00000000   1.00000000   1.00000000   1.00000000  10.00000000  10.00000000 
 6421.32186614 1000.00000000   1.00000000   1.00000000   1.00000000  10.00000000  10.00000000 
 6421.57186614 1000.00000000   1.00000000   1.00000000   1.00000000  10.00000000  10.00000000 
 6421.82186614 1000.00000000   1.00000000   1.00000000   1.00000000  10.00000000  10.00000000 
 6422.07186614 1000.00000000   1.00000000   1.00000000   1.00000000  10.00000000  10.00000000 
 6422.32186614 1000.00000000   1.00000000   1.00000000   1.00000000  10.00000000  10.00000000 
 6422.57186614 1000.00000000   1.00000000   1.00000000   1.00000000  10.00000000  10.00000000 
 6422.82186614 1000.00000000   1.00000000   1.00000000   1.00000000  10.00000000  10.00000000 
 6423.07186614 1000.00000000   1.00000000   1.00000000   1.00000000  10.00000000  10.00000000 
 6423.32186614 1000.00000000   1.00000000   1.00000000   1.00000000  10.00000000  10.00000000 
 6423.57186614 1000.00000000   1.00000000   1.00000000   1.00000000  10.00000000  10.00000000 
 6423.82186614 1000.00000000   1.00000000   1.00000000   1.00000000  10.00000000  10.00000000 
 6424.07186614 1000.00000000   1.00000000   1.00000000   1.00000000  10.00000000  10.00000000 
 6424.32186614 1000.00000000   1.00000000   1.00000000   1.00000000  10.00000000  10.00000000 
 6424.57186614 1000.00000000   1.00000000   1.00000000   1.00000000  10.00000000  10.00000000 
 6424.82186614 1000.00000000   1.00000000   1.00000000   1.00000000  10.00000000  10.00000000 
 6425.07186614 1000.00000000   1.00000000   1.00000000   1.00000000  10.00000000  10.00000000 
 6425.32186614 1000.00000000   1.00000000   1.00000000   1.00000000  10.00000000  10.00000000 
 6425.57186614 1000.00000000   1.00000000   1.00000000   1.00000000  10.00000000  10.00000000 
 6425.82186614 1000.00000000   1.00000000   1.00000000   1.00000000  10.00000000  10.00000000 
 6426.07186614 1000.00000000   1.00000000   1.00000000   1.00000000  10.00000000  10.00000000 
 6426.32186614 1000.00000000   1.00000000   1.00000000   1.00000000  10.00000000  10.00000000 
 6426.57186614 1000.00000000   1.00000000   1.00000000   1.00000000  10.00000000  10.00000000 
 6426.82186614 1000.00000000   1.00000000   1.00000000   1.00000000  10.00000000  10.00000000 
 6427.07186614 1000.00000000   1.00000000   1.00000000   1.00000000  10.00000000  10.00000000 
 6427.32186614 1000.00000000   1.00000000   1.00000000   1.00000000  10.00000000  10.00000000 
 6427.57186614 1000.00000000   1.00000000   1.00000000   1.00000000  10.00000000  10.00000000 
 6427.82186614 1000.00000000   1.00000000   1.00000000   1.00000000  10.00000000  10.00000000 
 6428.07186614 1000.00000000   1.00000000   1.00000000   1.00000000  10.00000000  10.00000000 
 6428.32186614 1000.00000000   1.00000000   1.00000000   1.00000000  10.00000000  10.00000000 
 6428.57186614 1000.00000000   1.00000000   1.00000000   1.00000000  10.00000000  10.00000000 
 6428.82186614 1000.00000000   1.00000000   1.00000000   1.00000000  10.00000000  10.00000000 
 6429.07186614 1000.00000000   1.00000000   1.00000000   1.00000000  10.00000000  10.00000000 
 6429.32186614 1000.00000000   1.00000000   1.00000000   1.00000000  10.00000000  10.00000000 
 6429.57186614 1000.00000000   1.00000000   1.00000000   1.00000000  10.00000000  10.00000000 
 6429.82186614 1000.00000000   1.00000000   1.00000000   1.00000000  10.00000000  10.00000000 
 6430.07186614 1000.00000000   1.00000000   1.00000000   1.00000000  10.00000000  10.00000000 
 6430.32186614 1000.00000000   1.00000000   1.00000000   1.00000000  10.00000000  10.00000000 
 6430.57186614 1000.00000000   1.00000000   1.00000000   1.00000000  10.00000000  10.00000000 
 6430.82186614 1000.00000000   1.00000000   1.00000000   1.00000000  10.00000000  10.00000000 
 6431.07186614 1000.00000000   1.00000000   1.00000000   1.00000000  10.00000000  10.00000000 
 6431.32186614 1000.00000000   1.00000000   1.00000000   1.00000000  10.00000000  10.00000000 
 6431.57186614 1000.00000000   1.00000000   1.00000000   1.00000000  10.00000000  10.00000000 
 6431.82186614 1000.00000000   1.00000000   1.00000000   1.00000000  10.00000000  10.00000000 
 6432.07186614 1000.00000000   1.00000000   1.00000000   1.00000000  10.00000000  10.00000000 
 6432.32186614 1000.00000000   1.00000000   1.00000000   1.00000000  10.00000000  10.00000000 
 6432.57186614 1000.00000000   1.00000000   1.00000000   1.00000000  10.00000000  10.00000000 
 6432.82186614 1000.00000000   1.00000000   1.00000000   1.00000000  10.00000000  10.00000000 
 6433.07186614 1000.00000000   1.00000000   1.00000000   1.00000000  10.00000000  10.00000000 
 6433.32186614 1000.00000000   1.00000000   1.00000000   1.00000000  10.00000000  10.00000000 
 6433.57186614 1000.00000000   1.00000000   1.00000000   1.00000000  10.00000000  10.00000000 
 6433.82186614 1000.00000000   1.00000000   1.00000000   1.00000000  10.00000000  10.00000000 
 6434.07186614 1000.00000000   1.00000000   1.00000000   1.00000000  10.00000000  10.00000000 
 6434.32186614 1000.00000000   1.00000000   1.00000000   1.00000000  10.00000000  10.00000000 
 6434.57186614 1000.00000000   1.00000000   1.00000000   1.00000000  10.00000000  10.00000000 
 6434.82186614 1000.00000000   1.00000000   1.00000000   1.00000000  10.00000000  10.00000000 
 6435.07186614 1000.00000000   1.00000000   1.00000000   1.00000000  10.00000000  10.00000000 
 6435.32186614 1000.00000000   1.00000000   1.00000000   1.00000000  10.00000000  10.00000000 
 6435.57186614 1000.00000000   1.00000000   1.00000000   1.00000000  10.00000000  10.00000000 
 6435.82186614 1000.00000000   1.00000000   1.00000000   1.00000000  10.00000000  10.00000000 
 6436.07186614 1000.00000000   1.00000000   1.00000000   1.00000000  10.00000000  10.00000000 
 6436.32186614 1000.00000000   1.00000000   1.00000000   1.00000000  10.00000000  10.00000000 
 6436.57186614 1000.00000000   1.00000000   1.00000000   1.00000000  10.00000000  10.00000000 
 6436.82186614 1000.00000000   1.00000000   1.00000000   1.00000000  10.00000000  10.00000000 
 6437.07186614 1000.00000000   1.00000000   1.00000000   1.00000000  10.00000000  10.00000000 
 6437.32186614 1000.00000000   1.00000000   1.00000000   1.00000000  10.00000000  10.00000000 
 6437.57186614 1000.00000000   1.00000000   1.00000000   1.00000000  10.00000000  10.00000000 
 6437.82186614 1000.00000000   1.00000000   1.00000000   1.00000000  10.00000000  10.00000000 
 6438.07186614 1000.00000000   1.00000000   1.00000000   1.00000000  10.00000000  10.00000000 
 6438.32186614 1000.00000000   1.00000000   1.00000000   1.00000000  10.00000000  10.00000000 
 6438.57186614 1000.00000000   1.00000000   1.00000000   1.00000000  10.00000000  10.00000000 
 6438.82186614 1000.00000000   1.00000000   1.00000000   1.00000000  10.00000000  10.00000000 
