~VERSION INFORMATION SECTION
VERS.           2.0  :CWLS Log ASCII Standard - 2.0
WRAP.           NO   :One line per depth
#               Created in UTAPWeLS
~WELL INFORMATION SECTION
#MNEM.UNIT  VALUE/NAME             :DESCRIPTION    
STRT.FT  2932.8219                 :Start Depth    
STOP.FT  6443.5719                 :Stop Depth     
STEP.FT  0.25                      :Step           
NULL.    -999.25                   :Null Value     
WELL.    Consortium23_Motivation   :Well Name      
CTRY.    UNKNOWN                   :Country        
CNTY.    UNKNOWN                   :County         
STAT.    UNKNOWN                   :State          
API .    UNKNOWN                   :API number     
UWI .    UNKNOWN                   :Unique well ID 
LOC .    UNKNOWN                   :Well Location  
FLD .    UNKNOWN                   :Field          
COMP.    UNKNOWN                   :Company        
SRVC.    UNKNOWN                   :Service Company
DATE.    19-Apr-2024               :Date           
~PARAMETER INFORMATION SECTION
#MNEM.UNITS  VALUE   :DESCRIPTION OF PARAMETER
~CURVE INFORMATION SECTION
#MNEM                                            .UNITS  API CODES   :DESCRIPTION OF MNEMONIC                          
Measured Depth                                   .FT                 :Measured Depth                                   
Resistivity Mud                                  .OHM-M              :Resistivity Mud                                  
Resistivity Invaded                              .OHM-M              :Resistivity Invaded                              
Resistivity Formation (Uninvaded)                .OHM-M              :Resistivity Formation (Uninvaded)                
Resistivity (Perpendicular) Mud                  .OHM-M              :Resistivity (Perpendicular) Mud                  
Resistivity (Perpendicular) Invaded              .OHM-M              :Resistivity (Perpendicular) Invaded              
Resistivity (Perpendicular) Formation (Uninvaded).OHM-M              :Resistivity (Perpendicular) Formation (Uninvaded)
~A Measured Dep Resistivity  Resistivity  Resistivity  Resistivity  Resistivity  Resistivity  
# ...
 5482.82186614 1000.00000000   1.00000000   1.00000000   1.00000000  10.00000000  10.00000000 
 5483.07186614 1000.00000000   1.00000000   1.00000000   1.00000000  10.00000000  10.00000000 
 5483.32186614 1000.00000000   1.00000000   1.00000000   1.00000000  10.00000000  10.00000000 
 5483.57186614 1000.00000000   1.00000000   1.00000000   1.00000000  10.00000000  10.00000000 
 5483.82186614 1000.00000000   1.00000000   1.00000000   1.00000000  10.00000000  10.00000000 
 5484.07186614 1000.00000000   1.00000000   1.00000000   1.00000000  10.00000000  10.00000000 
 5484.32186614 1000.00000000   1.00000000   1.00000000   1.00000000  10.00000000  10.00000000 
 5484.57186614 1000.00000000   1.00000000   1.00000000   1.00000000  10.00000000  10.00000000 
 5484.82186614 1000.00000000   1.00000000   1.00000000   1.00000000  10.00000000  10.00000000 
 5485.07186614 1000.00000000   1.00000000   1.00000000   1.00000000  10.00000000  10.00000000 
 5485.32186614 1000.00000000   1.00000000   1.00000000   1.00000000  10.00000000  10.00000000 
 5485.57186614 1000.00000000   1.00000000   1.00000000   1.00000000  10.00000000  10.00000000 
 5485.82186614 1000.00000000   1.00000000   1.00000000   1.00000000  10.00000000  10.00000000 
 5486.07186614 1000.00000000   1.00000000   1.00000000   1.00000000  10.00000000  10.00000000 
 5486.32186614 1000.00000000   1.00000000   1.00000000   1.00000000  10.00000000  10.00000000 
 5486.57186614 1000.00000000   1.00000000   1.00000000   1.00000000  10.00000000  10.00000000 
 5486.82186614 1000.00000000   1.00000000   1.00000000   1.00000000  10.00000000  10.00000000 
 5487.07186614 1000.00000000   1.00000000   1.00000000   1.00000000  10.00000000  10.00000000 
 5487.32186614 1000.00000000   1.00000000   1.00000000   1.00000000  10.00000000  10.00000000 
 5487.57186614 1000.00000000   1.00000000   1.00000000   1.00000000  10.00000000  10.00000000 
 5487.82186614 1000.00000000   1.00000000   1.00000000   1.00000000  10.00000000  10.00000000 
 5488.07186614 1000.00000000   1.00000000   1.00000000   1.00000000  10.00000000  10.00000000 
 5488.32186614 1000.00000000   1.00000000   1.00000000   1.00000000  10.00000000  10.00000000 
 5488.57186614 1000.00000000   1.00000000   1.00000000   1.00000000  10.00000000  10.00000000 
 5488.82186614 1000.00000000   1.00000000   1.00000000   1.00000000  10.00000000  10.00000000 
 5489.07186614 1000.00000000   1.00000000   1.00000000   1.00000000  10.00000000  10.00000000 
 5489.32186614 1000.00000000   1.00000000   1.00000000   1.00000000  10.00000000  10.00000000 
 5489.57186614 1000.00000000   1.00000000   1.00000000   1.00000000  10.00000000  10.00000000 
 5489.82186614 1000.00000000   1.00000000   1.00000000   1.00000000  10.00000000  10.00000000 
 5490.07186614 1000.00000000   1.00000000   1.00000000   1.00000000  10.00000000  10.00000000 
 5490.32186614 1000.00000000   1.00000000   1.00000000   1.00000000  10.00000000  10.00000000 
 5490.57186614 1000.00000000   1.00000000   1.00000000   1.00000000  10.00000000  10.00000000 
 5490.82186614 1000.00000000   1.00000000   1.00000000   1.00000000  10.00000000  10.00000000 
 5491.07186614 1000.00000000   1.00000000   1.00000000   1.00000000  10.00000000  10.00000000 
 5491.32186614 1000.00000000   1.00000000   1.00000000   1.00000000  10.00000000  10.00000000 
 5491.57186614 1000.00000000   1.00000000   1.00000000   1.00000000  10.00000000  10.00000000 
 5491.82186614 1000.00000000   1.00000000   1.00000000   1.00000000  10.00000000  10.00000000 
 5492.07186614 1000.00000000   1.00000000   1.00000000   1.00000000  10.00000000  10.00000000 
 5492.32186614 1000.00000000   1.00000000   1.00000000   1.00000000  10.00000000  10.00000000 
 5492.57186614 1000.00000000   1.00000000   1.00000000   1.00000000  10.00000000  10.00000000 
 5492.82186614 1000.00000000   1.00000000   1.00000000   1.00000000  10.00000000  10.00000000 
 5493.07186614 1000.00000000   1.00000000   1.00000000   1.00000000  10.00000000  10.00000000 
 5493.32186614 1000.00000000   1.00000000   1.00000000   1.00000000  10.00000000  10.00000000 
 5493.57186614 1000.00000000   1.00000000   1.00000000   1.00000000  10.00000000  10.00000000 
 5493.82186614 1000.00000000   1.00000000   1.00000000   1.00000000  10.00000000  10.00000000 
 5494.07186614 1000.00000000   1.00000000   1.00000000   1.00000000  10.00000000  10.00000000 
 5494.32186614 1000.00000000   1.00000000   1.00000000   1.00000000  10.00000000  10.00000000 
 5494.57186614 1000.00000000   1.00000000   1.00000000   1.00000000  10.00000000  10.00000000 
 5494.82186614 1000.00000000   1.00000000   1.00000000   1.00000000  10.00000000  10.00000000 
 5495.07186614 1000.00000000   1.00000000   1.00000000   1.00000000  10.00000000  10.00000000 
 5495.32186614 1000.00000000   1.00000000   1.00000000   1.00000000  10.00000000  10.00000000 
 5495.57186614 1000.00000000   1.00000000   1.00000000   1.00000000  10.00000000  10.00000000 
 5495.82186614 1000.00000000   1.00000000   1.00000000   1.00000000  10.00000000  10.00000000 
 5496.07186614 1000.00000000   1.00000000   1.00000000   1.00000000  10.00000000  10.00000000 
 5496.32186614 1000.00000000   1.00000000   1.00000000   1.00000000  10.00000000  10.00000000 
 5496.57186614 1000.00000000   1.00000000   1.00000000   1.00000000  10.00000000  10.00000000 
 5496.82186614 1000.00000000   1.00000000   1.00000000   1.00000000  10.00000000  10.00000000 
 5497.07186614 1000.00000000   1.00000000   1.00000000   1.00000000  10.00000000  10.00000000 
 5497.32186614 1000.00000000   1.00000000   1.00000000   1.00000000  10.00000000  10.00000000 
 5497.57186614 1000.00000000   1.00000000   1.00000000   1.00000000  10.00000000  10.00000000 
 5497.82186614 1000.00000000   1.00000000   1.00000000   1.00000000  10.00000000  10.00000000 
 5498.07186614 1000.00000000   1.00000000   1.00000000   1.00000000  10.00000000  10.00000000 
 5498.32186614 1000.00000000   1.00000000   1.00000000   1.00000000  10.00000000  10.00000000 
 5498.57186614 1000.00000000   1.00000000   1.00000000   1.00000000  10.00000000  10.00000000 
 5498.82186614 1000.00000000   1.00000000   1.00000000   1.00000000  10.00000000  10.00000000 
 5499.07186614 1000.00000000   1.00000000   1.00000000   1.00000000  10.00000000  10.00000000 
 5499.32186614 1000.00000000   1.00000000   1.00000000   1.00000000  10.00000000  10.00000000 
 5499.57186614 1000.00000000   1.00000000   1.00000000   1.00000000  10.00000000  10.00000000 
 5499.82186614 1000.00000000   1.00000000   1.00000000   1.00000000  10.00000000  10.00000000 
 5500.07186614 1000.00000000   1.00000000   1.00000000   1.00000000  10.00000000  10.00000000 
 5500.32186614 1000.00000000   1.00000000   1.00000000   1.00000000  10.00000000  10.00000000 
 5500.57186614 1000.00000000   1.00000000   1.00000000   1.00000000  10.00000000  10.00000000 
 5500.82186614 1000.00000000   1.00000000   1.00000000   1.00000000  10.00000000  10.00000000 
 5501.07186614 1000.00000000   1.00000000   1.00000000   1.00000000  10.00000000  10.00000000 
 5501.32186614 1000.00000000   1.00000000   1.00000000   1.00000000  10.00000000  10.00000000 
 5501.57186614 1000.00000000   1.00000000   1.00000000   1.00000000  10.00000000  10.00000000 
 5501.82186614 1000.00000000   2.36432155   2.36432155   1.00000000   2.36432155   2.36432155 
 5502.07186614 1000.00000000   2.36432155   2.36432155   1.00000000   2.36432155   2.36432155 
 5502.32186614 1000.00000000   2.36432155   2.36432155   1.00000000   2.36432155   2.36432155 
 5502.57186614 1000.00000000   2.36432155   2.36432155   1.00000000   2.36432155   2.36432155 
 5502.82186614 1000.00000000   2.36432155   2.36432155   1.00000000   2.36432155   2.36432155 
 5503.07186614 1000.00000000   2.36432155   2.36432155   1.00000000   2.36432155   2.36432155 
 5503.32186614 1000.00000000   2.36432155   2.36432155   1.00000000   2.36432155   2.36432155 
 5503.57186614 1000.00000000   2.36432155   2.36432155   1.00000000   2.36432155   2.36432155 
 5503.82186614 1000.00000000   2.36432155   2.36432155   1.00000000   2.36432155   2.36432155 
