~VERSION INFORMATION SECTION
VERS.           2.0  :CWLS Log ASCII Standard - 2.0
WRAP.           NO   :One line per depth
#               Created in UTAPWeLS
~WELL INFORMATION SECTION
#MNEM.UNIT  VALUE/NAME             :DESCRIPTION    
STRT.FT  2932.8219                 :Start Depth    
STOP.FT  6443.5719                 :Stop Depth     
STEP.FT  0.25                      :Step           
NULL.    -999.25                   :Null Value     
WELL.    Consortium23_Motivation   :Well Name      
CTRY.    UNKNOWN                   :Country        
CNTY.    UNKNOWN                   :County         
STAT.    UNKNOWN                   :State          
API .    UNKNOWN                   :API number     
UWI .    UNKNOWN                   :Unique well ID 
LOC .    UNKNOWN                   :Well Location  
FLD .    UNKNOWN                   :Field          
COMP.    UNKNOWN                   :Company        
SRVC.    UNKNOWN                   :Service Company
DATE.    19-Apr-2024               :Date           
~PARAMETER INFORMATION SECTION
#MNEM.UNITS  VALUE   :DESCRIPTION OF PARAMETER
~CURVE INFORMATION SECTION
#MNEM                                            .UNITS  API CODES   :DESCRIPTION OF MNEMONIC                          
Measured Depth                                   .FT                 :Measured Depth                                   
Resistivity Mud                                  .OHM-M              :Resistivity Mud                                  
Resistivity Invaded                              .OHM-M              :Resistivity Invaded                              
Resistivity Formation (Uninvaded)                .OHM-M              :Resistivity Formation (Uninvaded)                
Resistivity (Perpendicular) Mud                  .OHM-M              :Resistivity (Perpendicular) Mud                  
Resistivity (Perpendicular) Invaded              .OHM-M              :Resistivity (Perpendicular) Invaded              
Resistivity (Perpendicular) Formation (Uninvaded).OHM-M              :Resistivity (Perpendicular) Formation (Uninvaded)
~A Measured Dep Resistivity  Resistivity  Resistivity  Resistivity  Resistivity  Resistivity  
# ...
 4335.32186614 1000.00000000   1.00000000   1.00000000   1.00000000  10.00000000  10.00000000 
 4335.57186614 1000.00000000   1.00000000   1.00000000   1.00000000  10.00000000  10.00000000 
 4335.82186614 1000.00000000   1.00000000   1.00000000   1.00000000  10.00000000  10.00000000 
 4336.07186614 1000.00000000   1.00000000   1.00000000   1.00000000  10.00000000  10.00000000 
 4336.32186614 1000.00000000   1.00000000   1.00000000   1.00000000  10.00000000  10.00000000 
 4336.57186614 1000.00000000   1.00000000   1.00000000   1.00000000  10.00000000  10.00000000 
 4336.82186614 1000.00000000   1.00000000   1.00000000   1.00000000  10.00000000  10.00000000 
 4337.07186614 1000.00000000   1.00000000   1.00000000   1.00000000  10.00000000  10.00000000 
 4337.32186614 1000.00000000   1.00000000   1.00000000   1.00000000  10.00000000  10.00000000 
 4337.57186614 1000.00000000   1.00000000   1.00000000   1.00000000  10.00000000  10.00000000 
 4337.82186614 1000.00000000   1.00000000   1.00000000   1.00000000  10.00000000  10.00000000 
 4338.07186614 1000.00000000   1.00000000   1.00000000   1.00000000  10.00000000  10.00000000 
 4338.32186614 1000.00000000   1.00000000   1.00000000   1.00000000  10.00000000  10.00000000 
 4338.57186614 1000.00000000   1.00000000   1.00000000   1.00000000  10.00000000  10.00000000 
 4338.82186614 1000.00000000   1.00000000   1.00000000   1.00000000  10.00000000  10.00000000 
 4339.07186614 1000.00000000   1.00000000   1.00000000   1.00000000  10.00000000  10.00000000 
 4339.32186614 1000.00000000   1.00000000   1.00000000   1.00000000  10.00000000  10.00000000 
 4339.57186614 1000.00000000   1.00000000   1.00000000   1.00000000  10.00000000  10.00000000 
 4339.82186614 1000.00000000   1.00000000   1.00000000   1.00000000  10.00000000  10.00000000 
 4340.07186614 1000.00000000   1.00000000   1.00000000   1.00000000  10.00000000  10.00000000 
 4340.32186614 1000.00000000   1.00000000   1.00000000   1.00000000  10.00000000  10.00000000 
 4340.57186614 1000.00000000   1.00000000   1.00000000   1.00000000  10.00000000  10.00000000 
 4340.82186614 1000.00000000   1.00000000   1.00000000   1.00000000  10.00000000  10.00000000 
 4341.07186614 1000.00000000   1.00000000   1.00000000   1.00000000  10.00000000  10.00000000 
 4341.32186614 1000.00000000   1.00000000   1.00000000   1.00000000  10.00000000  10.00000000 
 4341.57186614 1000.00000000   1.00000000   1.00000000   1.00000000  10.00000000  10.00000000 
 4341.82186614 1000.00000000   1.00000000   1.00000000   1.00000000  10.00000000  10.00000000 
 4342.07186614 1000.00000000   1.00000000   1.00000000   1.00000000  10.00000000  10.00000000 
 4342.32186614 1000.00000000   1.00000000   1.00000000   1.00000000  10.00000000  10.00000000 
 4342.57186614 1000.00000000   1.00000000   1.00000000   1.00000000  10.00000000  10.00000000 
 4342.82186614 1000.00000000   1.00000000   1.00000000   1.00000000  10.00000000  10.00000000 
 4343.07186614 1000.00000000   1.00000000   1.00000000   1.00000000  10.00000000  10.00000000 
 4343.32186614 1000.00000000   1.00000000   1.00000000   1.00000000  10.00000000  10.00000000 
 4343.57186614 1000.00000000   1.00000000   1.00000000   1.00000000  10.00000000  10.00000000 
 4343.82186614 1000.00000000   1.00000000   1.00000000   1.00000000  10.00000000  10.00000000 
 4344.07186614 1000.00000000   1.00000000   1.00000000   1.00000000  10.00000000  10.00000000 
 4344.32186614 1000.00000000   1.00000000   1.00000000   1.00000000  10.00000000  10.00000000 
 4344.57186614 1000.00000000   1.00000000   1.00000000   1.00000000  10.00000000  10.00000000 
 4344.82186614 1000.00000000   1.00000000   1.00000000   1.00000000  10.00000000  10.00000000 
 4345.07186614 1000.00000000   1.00000000   1.00000000   1.00000000  10.00000000  10.00000000 
 4345.32186614 1000.00000000   1.00000000   1.00000000   1.00000000  10.00000000  10.00000000 
 4345.57186614 1000.00000000   1.00000000   1.00000000   1.00000000  10.00000000  10.00000000 
 4345.82186614 1000.00000000   1.00000000   1.00000000   1.00000000  10.00000000  10.00000000 
 4346.07186614 1000.00000000   1.00000000   1.00000000   1.00000000  10.00000000  10.00000000 
 4346.32186614 1000.00000000   1.00000000   1.00000000   1.00000000  10.00000000  10.00000000 
 4346.57186614 1000.00000000   1.00000000   1.00000000   1.00000000  10.00000000  10.00000000 
 4346.82186614 1000.00000000   1.00000000   1.00000000   1.00000000  10.00000000  10.00000000 
 4347.07186614 1000.00000000   1.00000000   1.00000000   1.00000000  10.00000000  10.00000000 
 4347.32186614 1000.00000000   1.00000000   1.00000000   1.00000000  10.00000000  10.00000000 
 4347.57186614 1000.00000000   1.00000000   1.00000000   1.00000000  10.00000000  10.00000000 
 4347.82186614 1000.00000000   1.00000000   1.00000000   1.00000000  10.00000000  10.00000000 
 4348.07186614 1000.00000000   1.00000000   1.00000000   1.00000000  10.00000000  10.00000000 
 4348.32186614 1000.00000000   1.00000000   1.00000000   1.00000000  10.00000000  10.00000000 
 4348.57186614 1000.00000000   1.00000000   1.00000000   1.00000000  10.00000000  10.00000000 
 4348.82186614 1000.00000000   1.00000000   1.00000000   1.00000000  10.00000000  10.00000000 
 4349.07186614 1000.00000000   1.00000000   1.00000000   1.00000000  10.00000000  10.00000000 
 4349.32186614 1000.00000000   1.00000000   1.00000000   1.00000000  10.00000000  10.00000000 
 4349.57186614 1000.00000000   1.00000000   1.00000000   1.00000000  10.00000000  10.00000000 
 4349.82186614 1000.00000000   1.00000000   1.00000000   1.00000000  10.00000000  10.00000000 
 4350.07186614 1000.00000000   1.00000000   1.00000000   1.00000000  10.00000000  10.00000000 
 4350.32186614 1000.00000000   1.00000000   1.00000000   1.00000000  10.00000000  10.00000000 
 4350.57186614 1000.00000000   1.00000000   1.00000000   1.00000000  10.00000000  10.00000000 
 4350.82186614 1000.00000000   1.00000000   1.00000000   1.00000000  10.00000000  10.00000000 
 4351.07186614 1000.00000000   1.00000000   1.00000000   1.00000000  10.00000000  10.00000000 
 4351.32186614 1000.00000000   1.00000000   1.00000000   1.00000000  10.00000000  10.00000000 
 4351.57186614 1000.00000000   1.00000000   1.00000000   1.00000000  10.00000000  10.00000000 
 4351.82186614 1000.00000000   1.00000000   1.00000000   1.00000000  10.00000000  10.00000000 
 4352.07186614 1000.00000000   1.00000000   1.00000000   1.00000000  10.00000000  10.00000000 
 4352.32186614 1000.00000000   1.00000000   1.00000000   1.00000000  10.00000000  10.00000000 
 4352.57186614 1000.00000000   1.00000000   1.00000000   1.00000000  10.00000000  10.00000000 
 4352.82186614 1000.00000000   1.00000000   1.00000000   1.00000000  10.00000000  10.00000000 
 4353.07186614 1000.00000000   1.00000000   1.00000000   1.00000000  10.00000000  10.00000000 
 4353.32186614 1000.00000000   1.00000000   1.00000000   1.00000000  10.00000000  10.00000000 
 4353.57186614 1000.00000000   1.00000000   1.00000000   1.00000000  10.00000000  10.00000000 
 4353.82186614 1000.00000000   1.00000000   1.00000000   1.00000000  10.00000000  10.00000000 
 4354.07186614 1000.00000000   1.00000000   1.00000000   1.00000000  10.00000000  10.00000000 
 4354.32186614 1000.00000000   1.00000000   1.00000000   1.00000000  10.00000000  10.00000000 
 4354.57186614 1000.00000000   1.00000000   1.00000000   1.00000000  10.00000000  10.00000000 
 4354.82186614 1000.00000000   1.00000000   1.00000000   1.00000000  10.00000000  10.00000000 
 4355.07186614 1000.00000000   1.00000000   1.00000000   1.00000000  10.00000000  10.00000000 
 4355.32186614 1000.00000000   1.00000000   1.00000000   1.00000000  10.00000000  10.00000000 
 4355.57186614 1000.00000000   1.00000000   1.00000000   1.00000000  10.00000000  10.00000000 
 4355.82186614 1000.00000000   1.00000000   1.00000000   1.00000000  10.00000000  10.00000000 
 4356.07186614 1000.00000000   1.00000000   1.00000000   1.00000000  10.00000000  10.00000000 
 4356.32186614 1000.00000000   1.00000000   1.00000000   1.00000000  10.00000000  10.00000000 
