~VERSION INFORMATION SECTION
VERS.           2.0  :CWLS Log ASCII Standard - 2.0
WRAP.           NO   :One line per depth
#               Created in UTAPWeLS
~WELL INFORMATION SECTION
#MNEM.UNIT  VALUE/NAME             :DESCRIPTION    
STRT.FT  2932.8219                 :Start Depth    
STOP.FT  6443.5719                 :Stop Depth     
STEP.FT  0.25                      :Step           
NULL.    -999.25                   :Null Value     
WELL.    Consortium23_Motivation   :Well Name      
CTRY.    UNKNOWN                   :Country        
CNTY.    UNKNOWN                   :County         
STAT.    UNKNOWN                   :State          
API .    UNKNOWN                   :API number     
UWI .    UNKNOWN                   :Unique well ID 
LOC .    UNKNOWN                   :Well Location  
FLD .    UNKNOWN                   :Field          
COMP.    UNKNOWN                   :Company        
SRVC.    UNKNOWN                   :Service Company
DATE.    19-Apr-2024               :Date           
~PARAMETER INFORMATION SECTION
#MNEM.UNITS  VALUE   :DESCRIPTION OF PARAMETER
~CURVE INFORMATION SECTION
#MNEM                                            .UNITS  API CODES   :DESCRIPTION OF MNEMONIC                          
Measured Depth                                   .FT                 :Measured Depth                                   
Resistivity Mud                                  .OHM-M              :Resistivity Mud                                  
Resistivity Invaded                              .OHM-M              :Resistivity Invaded                              
Resistivity Formation (Uninvaded)                .OHM-M              :Resistivity Formation (Uninvaded)                
Resistivity (Perpendicular) Mud                  .OHM-M              :Resistivity (Perpendicular) Mud                  
Resistivity (Perpendicular) Invaded              .OHM-M              :Resistivity (Perpendicular) Invaded              
Resistivity (Perpendicular) Formation (Uninvaded).OHM-M              :Resistivity (Perpendicular) Formation (Uninvaded)
~A Measured Dep Resistivity  Resistivity  Resistivity  Resistivity  Resistivity  Resistivity  
# ...
 6184.07186614 1000.00000000   1.00000000   1.00000000   1.00000000  10.00000000  10.00000000 
 6184.32186614 1000.00000000   1.00000000   1.00000000   1.00000000  10.00000000  10.00000000 
 6184.57186614 1000.00000000   1.00000000   1.00000000   1.00000000  10.00000000  10.00000000 
 6184.82186614 1000.00000000   1.00000000   1.00000000   1.00000000  10.00000000  10.00000000 
 6185.07186614 1000.00000000   1.00000000   1.00000000   1.00000000  10.00000000  10.00000000 
 6185.32186614 1000.00000000   1.00000000   1.00000000   1.00000000  10.00000000  10.00000000 
 6185.57186614 1000.00000000   1.00000000   1.00000000   1.00000000  10.00000000  10.00000000 
 6185.82186614 1000.00000000   1.00000000   1.00000000   1.00000000  10.00000000  10.00000000 
 6186.07186614 1000.00000000   1.00000000   1.00000000   1.00000000  10.00000000  10.00000000 
 6186.32186614 1000.00000000   1.00000000   1.00000000   1.00000000  10.00000000  10.00000000 
 6186.57186614 1000.00000000   1.00000000   1.00000000   1.00000000  10.00000000  10.00000000 
 6186.82186614 1000.00000000   1.00000000   1.00000000   1.00000000  10.00000000  10.00000000 
 6187.07186614 1000.00000000   1.00000000   1.00000000   1.00000000  10.00000000  10.00000000 
 6187.32186614 1000.00000000   1.00000000   1.00000000   1.00000000  10.00000000  10.00000000 
 6187.57186614 1000.00000000   1.00000000   1.00000000   1.00000000  10.00000000  10.00000000 
 6187.82186614 1000.00000000   1.00000000   1.00000000   1.00000000  10.00000000  10.00000000 
 6188.07186614 1000.00000000   1.00000000   1.00000000   1.00000000  10.00000000  10.00000000 
 6188.32186614 1000.00000000   1.00000000   1.00000000   1.00000000  10.00000000  10.00000000 
 6188.57186614 1000.00000000   1.00000000   1.00000000   1.00000000  10.00000000  10.00000000 
 6188.82186614 1000.00000000   1.00000000   1.00000000   1.00000000  10.00000000  10.00000000 
 6189.07186614 1000.00000000   1.00000000   1.00000000   1.00000000  10.00000000  10.00000000 
 6189.32186614 1000.00000000   1.00000000   1.00000000   1.00000000  10.00000000  10.00000000 
 6189.57186614 1000.00000000   1.00000000   1.00000000   1.00000000  10.00000000  10.00000000 
 6189.82186614 1000.00000000   1.00000000   1.00000000   1.00000000  10.00000000  10.00000000 
 6190.07186614 1000.00000000   1.00000000   1.00000000   1.00000000  10.00000000  10.00000000 
 6190.32186614 1000.00000000   1.00000000   1.00000000   1.00000000  10.00000000  10.00000000 
 6190.57186614 1000.00000000   1.00000000   1.00000000   1.00000000  10.00000000  10.00000000 
 6190.82186614 1000.00000000   1.00000000   1.00000000   1.00000000  10.00000000  10.00000000 
 6191.07186614 1000.00000000   1.00000000   1.00000000   1.00000000  10.00000000  10.00000000 
 6191.32186614 1000.00000000   1.00000000   1.00000000   1.00000000  10.00000000  10.00000000 
 6191.57186614 1000.00000000   1.00000000   1.00000000   1.00000000  10.00000000  10.00000000 
 6191.82186614 1000.00000000   1.00000000   1.00000000   1.00000000  10.00000000  10.00000000 
 6192.07186614 1000.00000000   1.00000000   1.00000000   1.00000000  10.00000000  10.00000000 
 6192.32186614 1000.00000000   1.00000000   1.00000000   1.00000000  10.00000000  10.00000000 
 6192.57186614 1000.00000000   1.00000000   1.00000000   1.00000000  10.00000000  10.00000000 
 6192.82186614 1000.00000000   1.00000000   1.00000000   1.00000000  10.00000000  10.00000000 
 6193.07186614 1000.00000000   1.00000000   1.00000000   1.00000000  10.00000000  10.00000000 
 6193.32186614 1000.00000000   1.00000000   1.00000000   1.00000000  10.00000000  10.00000000 
 6193.57186614 1000.00000000   1.00000000   1.00000000   1.00000000  10.00000000  10.00000000 
 6193.82186614 1000.00000000   1.00000000   1.00000000   1.00000000  10.00000000  10.00000000 
 6194.07186614 1000.00000000   1.00000000   1.00000000   1.00000000  10.00000000  10.00000000 
 6194.32186614 1000.00000000   1.00000000   1.00000000   1.00000000  10.00000000  10.00000000 
 6194.57186614 1000.00000000   1.00000000   1.00000000   1.00000000  10.00000000  10.00000000 
 6194.82186614 1000.00000000   1.00000000   1.00000000   1.00000000  10.00000000  10.00000000 
 6195.07186614 1000.00000000   1.00000000   1.00000000   1.00000000  10.00000000  10.00000000 
 6195.32186614 1000.00000000   1.00000000   1.00000000   1.00000000  10.00000000  10.00000000 
 6195.57186614 1000.00000000   1.00000000   1.00000000   1.00000000  10.00000000  10.00000000 
 6195.82186614 1000.00000000   1.00000000   1.00000000   1.00000000  10.00000000  10.00000000 
 6196.07186614 1000.00000000   1.00000000   1.00000000   1.00000000  10.00000000  10.00000000 
 6196.32186614 1000.00000000   1.00000000   1.00000000   1.00000000  10.00000000  10.00000000 
 6196.57186614 1000.00000000   1.00000000   1.00000000   1.00000000  10.00000000  10.00000000 
 6196.82186614 1000.00000000   1.00000000   1.00000000   1.00000000  10.00000000  10.00000000 
 6197.07186614 1000.00000000   1.00000000   1.00000000   1.00000000  10.00000000  10.00000000 
 6197.32186614 1000.00000000   1.00000000   1.00000000   1.00000000  10.00000000  10.00000000 
 6197.57186614 1000.00000000   1.00000000   1.00000000   1.00000000  10.00000000  10.00000000 
 6197.82186614 1000.00000000   1.00000000   1.00000000   1.00000000  10.00000000  10.00000000 
 6198.07186614 1000.00000000   1.00000000   1.00000000   1.00000000  10.00000000  10.00000000 
 6198.32186614 1000.00000000   1.00000000   1.00000000   1.00000000  10.00000000  10.00000000 
 6198.57186614 1000.00000000   1.00000000   1.00000000   1.00000000  10.00000000  10.00000000 
 6198.82186614 1000.00000000   1.00000000   1.00000000   1.00000000  10.00000000  10.00000000 
 6199.07186614 1000.00000000   1.00000000   1.00000000   1.00000000  10.00000000  10.00000000 
 6199.32186614 1000.00000000   1.00000000   1.00000000   1.00000000  10.00000000  10.00000000 
 6199.57186614 1000.00000000   1.00000000   1.00000000   1.00000000  10.00000000  10.00000000 
 6199.82186614 1000.00000000   1.00000000   1.00000000   1.00000000  10.00000000  10.00000000 
 6200.07186614 1000.00000000   1.00000000   1.00000000   1.00000000  10.00000000  10.00000000 
 6200.32186614 1000.00000000   1.00000000   1.00000000   1.00000000  10.00000000  10.00000000 
 6200.57186614 1000.00000000   1.00000000   1.00000000   1.00000000  10.00000000  10.00000000 
 6200.82186614 1000.00000000   1.00000000   1.00000000   1.00000000  10.00000000  10.00000000 
 6201.07186614 1000.00000000   1.00000000   1.00000000   1.00000000  10.00000000  10.00000000 
 6201.32186614 1000.00000000   1.00000000   1.00000000   1.00000000  10.00000000  10.00000000 
 6201.57186614 1000.00000000   1.00000000   1.00000000   1.00000000  10.00000000  10.00000000 
 6201.82186614 1000.00000000   1.00000000   1.00000000   1.00000000  10.00000000  10.00000000 
 6202.07186614 1000.00000000   1.00000000   1.00000000   1.00000000  10.00000000  10.00000000 
 6202.32186614 1000.00000000   1.00000000   1.00000000   1.00000000  10.00000000  10.00000000 
 6202.57186614 1000.00000000   1.00000000   1.00000000   1.00000000  10.00000000  10.00000000 
 6202.82186614 1000.00000000   1.00000000   1.00000000   1.00000000  10.00000000  10.00000000 
 6203.07186614 1000.00000000   1.00000000   1.00000000   1.00000000  10.00000000  10.00000000 
 6203.32186614 1000.00000000   1.00000000   1.00000000   1.00000000  10.00000000  10.00000000 
 6203.57186614 1000.00000000   1.00000000   1.00000000   1.00000000  10.00000000  10.00000000 
 6203.82186614 1000.00000000   1.00000000   1.00000000   1.00000000  10.00000000  10.00000000 
 6204.07186614 1000.00000000   1.00000000   1.00000000   1.00000000  10.00000000  10.00000000 
 6204.32186614 1000.00000000   1.00000000   1.00000000   1.00000000  10.00000000  10.00000000 
 6204.57186614 1000.00000000   1.00000000   1.00000000   1.00000000  10.00000000  10.00000000 
 6204.82186614 1000.00000000   1.00000000   1.00000000   1.00000000  10.00000000  10.00000000 
 6205.07186614 1000.00000000   1.00000000   1.00000000   1.00000000  10.00000000  10.00000000 
