~VERSION INFORMATION SECTION
VERS.           2.0  :CWLS Log ASCII Standard - 2.0
WRAP.           NO   :One line per depth
#               Created in UTAPWeLS
~WELL INFORMATION SECTION
#MNEM.UNIT  VALUE/NAME             :DESCRIPTION    
STRT.FT  2932.8219                 :Start Depth    
STOP.FT  6443.5719                 :Stop Depth     
STEP.FT  0.25                      :Step           
NULL.    -999.25                   :Null Value     
WELL.    Consortium23_Motivation   :Well Name      
CTRY.    UNKNOWN                   :Country        
CNTY.    UNKNOWN                   :County         
STAT.    UNKNOWN                   :State          
API .    UNKNOWN                   :API number     
UWI .    UNKNOWN                   :Unique well ID 
LOC .    UNKNOWN                   :Well Location  
FLD .    UNKNOWN                   :Field          
COMP.    UNKNOWN                   :Company        
SRVC.    UNKNOWN                   :Service Company
DATE.    19-Apr-2024               :Date           
~PARAMETER INFORMATION SECTION
#MNEM.UNITS  VALUE   :DESCRIPTION OF PARAMETER
~CURVE INFORMATION SECTION
#MNEM                                            .UNITS  API CODES   :DESCRIPTION OF MNEMONIC                          
Measured Depth                                   .FT                 :Measured Depth                                   
Resistivity Mud                                  .OHM-M              :Resistivity Mud                                  
Resistivity Invaded                              .OHM-M              :Resistivity Invaded                              
Resistivity Formation (Uninvaded)                .OHM-M              :Resistivity Formation (Uninvaded)                
Resistivity (Perpendicular) Mud                  .OHM-M              :Resistivity (Perpendicular) Mud                  
Resistivity (Perpendicular) Invaded              .OHM-M              :Resistivity (Perpendicular) Invaded              
Resistivity (Perpendicular) Formation (Uninvaded).OHM-M              :Resistivity (Perpendicular) Formation (Uninvaded)
~A Measured Dep Resistivity  Resistivity  Resistivity  Resistivity  Resistivity  Resistivity  
 2932.82186614 1000.00000000   1.00000000   1.00000000   1.00000000  10.00000000  10.00000000 
 2933.07186614 1000.00000000   1.00000000   1.00000000   1.00000000  10.00000000  10.00000000 
 2933.32186614 1000.00000000   1.00000000   1.00000000   1.00000000  10.00000000  10.00000000 
 2933.57186614 1000.00000000   1.00000000   1.00000000   1.00000000  10.00000000  10.00000000 
 2933.82186614 1000.00000000   1.00000000   1.00000000   1.00000000  10.00000000  10.00000000 
 2934.07186614 1000.00000000   1.00000000   1.00000000   1.00000000  10.00000000  10.00000000 
 2934.32186614 1000.00000000   1.00000000   1.00000000   1.00000000  10.00000000  10.00000000 
 2934.57186614 1000.00000000   1.00000000   1.00000000   1.00000000  10.00000000  10.00000000 
 2934.82186614 1000.00000000   1.00000000   1.00000000   1.00000000  10.00000000  10.00000000 
 2935.07186614 1000.00000000   1.00000000   1.00000000   1.00000000  10.00000000  10.00000000 
 2935.32186614 1000.00000000   1.00000000   1.00000000   1.00000000  10.00000000  10.00000000 
 2935.57186614 1000.00000000   1.00000000   1.00000000   1.00000000  10.00000000  10.00000000 
 2935.82186614 1000.00000000   1.00000000   1.00000000   1.00000000  10.00000000  10.00000000 
 2936.07186614 1000.00000000   1.00000000   1.00000000   1.00000000  10.00000000  10.00000000 
 2936.32186614 1000.00000000   1.00000000   1.00000000   1.00000000  10.00000000  10.00000000 
 2936.57186614 1000.00000000   1.00000000   1.00000000   1.00000000  10.00000000  10.00000000 
 2936.82186614 1000.00000000   1.00000000   1.00000000   1.00000000  10.00000000  10.00000000 
 2937.07186614 1000.00000000   1.00000000   1.00000000   1.00000000  10.00000000  10.00000000 
 2937.32186614 1000.00000000   1.00000000   1.00000000   1.00000000  10.00000000  10.00000000 
 2937.57186614 1000.00000000   1.00000000   1.00000000   1.00000000  10.00000000  10.00000000 
 2937.82186614 1000.00000000   1.00000000   1.00000000   1.00000000  10.00000000  10.00000000 
 2938.07186614 1000.00000000   1.00000000   1.00000000   1.00000000  10.00000000  10.00000000 
 2938.32186614 1000.00000000   1.00000000   1.00000000   1.00000000  10.00000000  10.00000000 
 2938.57186614 1000.00000000   1.00000000   1.00000000   1.00000000  10.00000000  10.00000000 
 2938.82186614 1000.00000000   1.00000000   1.00000000   1.00000000  10.00000000  10.00000000 
 2939.07186614 1000.00000000   1.00000000   1.00000000   1.00000000  10.00000000  10.00000000 
 2939.32186614 1000.00000000   1.00000000   1.00000000   1.00000000  10.00000000  10.00000000 
 2939.57186614 1000.00000000   1.00000000   1.00000000   1.00000000  10.00000000  10.00000000 
 2939.82186614 1000.00000000   1.00000000   1.00000000   1.00000000  10.00000000  10.00000000 
 2940.07186614 1000.00000000   1.00000000   1.00000000   1.00000000  10.00000000  10.00000000 
 2940.32186614 1000.00000000   1.00000000   1.00000000   1.00000000  10.00000000  10.00000000 
 2940.57186614 1000.00000000   1.00000000   1.00000000   1.00000000  10.00000000  10.00000000 
 2940.82186614 1000.00000000   1.00000000   1.00000000   1.00000000  10.00000000  10.00000000 
 2941.07186614 1000.00000000   1.00000000   1.00000000   1.00000000  10.00000000  10.00000000 
 2941.32186614 1000.00000000   1.00000000   1.00000000   1.00000000  10.00000000  10.00000000 
 2941.57186614 1000.00000000   1.00000000   1.00000000   1.00000000  10.00000000  10.00000000 
 2941.82186614 1000.00000000   1.00000000   1.00000000   1.00000000  10.00000000  10.00000000 
 2942.07186614 1000.00000000   1.00000000   1.00000000   1.00000000  10.00000000  10.00000000 
 2942.32186614 1000.00000000   1.00000000   1.00000000   1.00000000  10.00000000  10.00000000 
 2942.57186614 1000.00000000   1.00000000   1.00000000   1.00000000  10.00000000  10.00000000 
 2942.82186614 1000.00000000   1.00000000   1.00000000   1.00000000  10.00000000  10.00000000 
 2943.07186614 1000.00000000   1.00000000   1.00000000   1.00000000  10.00000000  10.00000000 
 2943.32186614 1000.00000000   1.00000000   1.00000000   1.00000000  10.00000000  10.00000000 
 2943.57186614 1000.00000000   1.00000000   1.00000000   1.00000000  10.00000000  10.00000000 
 2943.82186614 1000.00000000   1.00000000   1.00000000   1.00000000  10.00000000  10.00000000 
 2944.07186614 1000.00000000   1.00000000   1.00000000   1.00000000  10.00000000  10.00000000 
 2944.32186614 1000.00000000   1.00000000   1.00000000   1.00000000  10.00000000  10.00000000 
 2944.57186614 1000.00000000   1.00000000   1.00000000   1.00000000  10.00000000  10.00000000 
 2944.82186614 1000.00000000   1.00000000   1.00000000   1.00000000  10.00000000  10.00000000 
 2945.07186614 1000.00000000   1.00000000   1.00000000   1.00000000  10.00000000  10.00000000 
 2945.32186614 1000.00000000   1.00000000   1.00000000   1.00000000  10.00000000  10.00000000 
 2945.57186614 1000.00000000   1.00000000   1.00000000   1.00000000  10.00000000  10.00000000 
 2945.82186614 1000.00000000   1.00000000   1.00000000   1.00000000  10.00000000  10.00000000 
 2946.07186614 1000.00000000   1.00000000   1.00000000   1.00000000  10.00000000  10.00000000 
 2946.32186614 1000.00000000   1.00000000   1.00000000   1.00000000  10.00000000  10.00000000 
 2946.57186614 1000.00000000   1.00000000   1.00000000   1.00000000  10.00000000  10.00000000 
 2946.82186614 1000.00000000   1.00000000   1.00000000   1.00000000  10.00000000  10.00000000 
 2947.07186614 1000.00000000   1.00000000   1.00000000   1.00000000  10.00000000  10.00000000 
 2947.32186614 1000.00000000   1.00000000   1.00000000   1.00000000  10.00000000  10.00000000 
 2947.57186614 1000.00000000   1.00000000   1.00000000   1.00000000  10.00000000  10.00000000 
 2947.82186614 1000.00000000   1.00000000   1.00000000   1.00000000  10.00000000  10.00000000 
 2948.07186614 1000.00000000   1.00000000   1.00000000   1.00000000  10.00000000  10.00000000 
 2948.32186614 1000.00000000   1.00000000   1.00000000   1.00000000  10.00000000  10.00000000 
 2948.57186614 1000.00000000   1.00000000   1.00000000   1.00000000  10.00000000  10.00000000 
 2948.82186614 1000.00000000   1.00000000   1.00000000   1.00000000  10.00000000  10.00000000 
 2949.07186614 1000.00000000   1.00000000   1.00000000   1.00000000  10.00000000  10.00000000 
 2949.32186614 1000.00000000   1.00000000   1.00000000   1.00000000  10.00000000  10.00000000 
 2949.57186614 1000.00000000   1.00000000   1.00000000   1.00000000  10.00000000  10.00000000 
 2949.82186614 1000.00000000   1.00000000   1.00000000   1.00000000  10.00000000  10.00000000 
 2950.07186614 1000.00000000   1.00000000   1.00000000   1.00000000  10.00000000  10.00000000 
 2950.32186614 1000.00000000   1.00000000   1.00000000   1.00000000  10.00000000  10.00000000 
 2950.57186614 1000.00000000   1.00000000   1.00000000   1.00000000  10.00000000  10.00000000 
 2950.82186614 1000.00000000   1.00000000   1.00000000   1.00000000  10.00000000  10.00000000 
 2951.07186614 1000.00000000   1.00000000   1.00000000   1.00000000  10.00000000  10.00000000 
 2951.32186614 1000.00000000   1.00000000   1.00000000   1.00000000  10.00000000  10.00000000 
 2951.57186614 1000.00000000   1.00000000   1.00000000   1.00000000  10.00000000  10.00000000 
 2951.82186614 1000.00000000   1.00000000   1.00000000   1.00000000  10.00000000  10.00000000 
 2952.07186614 1000.00000000   1.00000000   1.00000000   1.00000000  10.00000000  10.00000000 
 2952.32186614 1000.00000000   1.00000000   1.00000000   1.00000000  10.00000000  10.00000000 
 2952.57186614 1000.00000000   1.00000000   1.00000000   1.00000000  10.00000000  10.00000000 
 2952.82186614 1000.00000000   1.00000000   1.00000000   1.00000000  10.00000000  10.00000000 
 2953.07186614 1000.00000000   1.00000000   1.00000000   1.00000000  10.00000000  10.00000000 
 2953.32186614 1000.00000000   1.00000000   1.00000000   1.00000000  10.00000000  10.00000000 
 2953.57186614 1000.00000000   1.00000000   1.00000000   1.00000000  10.00000000  10.00000000 
 2953.82186614 1000.00000000   1.00000000   1.00000000   1.00000000  10.00000000  10.00000000 
