~VERSION INFORMATION SECTION
VERS.           2.0  :CWLS Log ASCII Standard - 2.0
WRAP.           NO   :One line per depth
#               Created in UTAPWeLS
~WELL INFORMATION SECTION
#MNEM.UNIT  VALUE/NAME   :DESCRIPTION    
STRT.FT  3015.0919       :Start Depth    
STOP.FT  6361.3419       :Stop Depth     
STEP.FT  0.25            :Step           
NULL.    -999.25         :Null Value     
WELL.    UNKNOWN         :Well Name      
CTRY.    UNKNOWN         :Country        
CNTY.    UNKNOWN         :County         
STAT.    UNKNOWN         :State          
API .    UNKNOWN         :API number     
UWI .    UNKNOWN         :Unique well ID 
LOC .    UNKNOWN         :Well Location  
FLD .    UNKNOWN         :Field          
COMP.    UNKNOWN         :Company        
SRVC.    UNKNOWN         :Service Company
DATE.    22-Apr-2024     :Date           
~PARAMETER INFORMATION SECTION
#MNEM.UNITS  VALUE   :DESCRIPTION OF PARAMETER
~CURVE INFORMATION SECTION
#MNEM                          .UNITS     API CODES   :DESCRIPTION OF MNEMONIC                                                                    
DEPTH                          .FT                    :Gamma Ray (Longhorn Wireline) Simulated Depth                                              
ECGR^{(DOI)}                   .API                   :Gamma Ray (Longhorn Wireline) Simulated Environmentally-Corrected Gamma Ray (DOI Corrected)
Th^{(DOI)}                     .PPM                   :Gamma Ray (Longhorn Wireline) Simulated Thorium Concentration (DOI Corrected)              
U^{(DOI)}                      .PPM                   :Gamma Ray (Longhorn Wireline) Simulated Uranium Concentration (DOI Corrected)              
K^{(DOI)}                      .FRACTION              :Gamma Ray (Longhorn Wireline) Simulated Potassium Concentration (DOI Corrected)            
ECGR                           .API                   :Gamma Ray (Longhorn Wireline) Simulated Environmentally-Corrected Gamma Ray                
Th                             .PPM                   :Gamma Ray (Longhorn Wireline) Simulated Thorium Concentration                              
U                              .PPM                   :Gamma Ray (Longhorn Wireline) Simulated Uranium Concentration                              
K                              .FRACTION              :Gamma Ray (Longhorn Wireline) Simulated Potassium Concentration                            
GR_Field                       .                      :                                                                                           
GR                             .API                   :Custom Log Calculation                                                                     
RHOZ                           .G/CM3                 :Custom Log Calculation                                                                     
PEFZ                           .B/E-                  :Custom Log Calculation                                                                     
NPOR                           .FRACTION              :Custom Log Calculation                                                                     
RD_V                           .CM^2/S                :Ion Diffusivity (Na, Double Layer)                                                         
RD_H                           .CM^2/S                :Ion Diffusivity (Na, Shale)                                                                
Resistivity Mud                .OHM-M                 :Resistivity Mud                                                                            
RS_H                           .OHM-M                 :Resistivity Formation (Uninvaded)                                                          
Resistivity (Perpendicular) Mud.OHM-M                 :Resistivity (Perpendicular) Mud                                                            
RS_V                           .OHM-M                 :Resistivity (Perpendicular) Formation (Uninvaded)                                          
~A DEPTH        ECGR^{(DOI)} Th^{(DOI)}   U^{(DOI)}    K^{(DOI)}    ECGR         Th           U            K            GR_Field     GR           RHOZ         PEFZ         NPOR         RD_V         RD_H         Resistivity  RS_H         Resistivity  RS_V         
# ...
 5165.84186352  61.06366690   6.32148027   6.68622446   0.00028531  61.06366690   6.32148027   6.68622446   0.00028531  60.93291205  60.93291205   2.56593984   4.10336898   0.20007260   6.73644132   6.73644132   1.00000000   1.77034455   1.00000000   1.77034455 
 5166.09186352  61.06366690   6.32148027   6.68622446   0.00028531  61.06366690   6.32148027   6.68622446   0.00028531  59.65510453  59.65510453   2.57414380   4.12608978   0.19907754   6.73644132   6.73644132   1.00000000   1.77034455   1.00000000   1.77034455 
 5166.34186352  61.06366690   6.32148027   6.68622446   0.00028531  61.06366690   6.32148027   6.68622446   0.00028531  58.57191154  58.57191154   2.58183393   4.14803941   0.19829138   6.73644132   6.73644132   1.00000000   1.77034455   1.00000000   1.77034455 
 5166.59186352  61.06366690   6.32148027   6.68622446   0.00028531  61.06366690   6.32148027   6.68622446   0.00028531  59.71059070  59.71059070   2.58365784   4.16118474   0.19989031   6.73644132   6.73644132   1.00000000   1.77034455   1.00000000   1.77034455 
 5166.84186352  61.06366690   6.32148027   6.68622446   0.00028531  61.06366690   6.32148027   6.68622446   0.00028531  60.84926986  60.84926986   2.58548176   4.17433006   0.20148924   6.73644132   6.73644132   1.00000000   1.77034455   1.00000000   1.77034455 
 5167.09186352  61.06366690   6.32148027   6.68622446   0.00028531  61.06366690   6.32148027   6.68622446   0.00028531  61.87417887  61.87417887   2.58656843   4.18648449   0.20262229   6.73644132   6.73644132   1.00000000   1.77034455   1.00000000   1.77034455 
 5167.34186352  61.06366690   6.32148027   6.68622446   0.00028531  61.06366690   6.32148027   6.68622446   0.00028531  61.60019858  61.60019858   2.57923813   4.18732606   0.19843647   6.73644132   6.73644132   1.00000000   1.77034455   1.00000000   1.77034455 
 5167.59186352  61.06366690   6.32148027   6.68622446   0.00028531  61.06366690   6.32148027   6.68622446   0.00028531  61.32621828  61.32621828   2.57190784   4.18816763   0.19425066   6.73644132   6.73644132   1.00000000   1.77034455   1.00000000   1.77034455 
 5167.84186352  61.06926485   6.32140931   6.68710192   0.00028536  61.06926485   6.32140931   6.68710192   0.00028536  61.09061248  61.09061248   2.56618571   4.18792320   0.19058150   6.73644132   6.73644132   1.00000000   1.77034455   1.00000000   1.77034455 
 5168.09186352  61.13877345   6.32052828   6.69799718   0.00028604  61.13877345   6.32052828   6.69799718   0.00028604  61.29312001  61.29312001   2.57882368   4.17528021   0.19281088   6.73644132   6.73644132   1.00000000   1.77034455   1.00000000   1.77034455 
 5168.34186352  61.20828205   6.31964725   6.70889243   0.00028672  61.20828205   6.31964725   6.70889243   0.00028672  61.49562754  61.49562754   2.59146165   4.16263722   0.19504027   6.73644132   6.73644132   1.00000000   1.77034455   1.00000000   1.77034455 
 5168.59186352  61.39193493   6.31739009   6.73766117   0.00028847  61.39193493   6.31739009   6.73766117   0.00028847  61.77125187  61.77125187   2.60392140   4.15776222   0.19723749   6.73644132   6.73644132   1.00000000   1.77034455   1.00000000   1.77034455 
 5168.84186352  62.87874836   6.29942207   6.97048772   0.00030242  62.87874836   6.29942207   6.97048772   0.00030242  62.88163503  62.88163503   2.61434638   4.24157282   0.19906744   6.73146825   6.73146825   1.00000000   1.82753559   1.00000000   1.82753559 
 5169.09186352  64.36556179   6.28145405   7.20331427   0.00031637  64.36556179   6.28145405   7.20331427   0.00031637  63.99201818  63.99201818   2.62477137   4.32538342   0.20089739   6.71232948   6.71232948   1.00000000   2.04763444   1.00000000   2.04763444 
 5169.34186352  65.80478092   6.26407045   7.42868558   0.00032986  65.80478092   6.26407045   7.42868558   0.00032986  65.04379334  65.04379334   2.63475728   4.41136770   0.20268910   6.69816377   6.69816377   1.00000000   2.21054225   1.00000000   2.21054225 
 5169.59186352  66.70062622   6.25335894   7.56894198   0.00033817  66.70062622   6.25335894   7.56894198   0.00033817  65.42645367  65.42645367   2.63973036   4.52216835   0.20404419   6.69816377   6.69816377   1.00000000   2.21054225   1.00000000   2.21054225 
 5169.84186352  67.59647152   6.24264743   7.70919839   0.00034649  67.59647152   6.24264743   7.70919839   0.00034649  65.80911400  65.80911400   2.64470344   4.63296900   0.20539928   6.69816377   6.69816377   1.00000000   2.21054225   1.00000000   2.21054225 
 5170.09186352  68.42017869   6.23279855   7.83816058   0.00035413  68.42017869   6.23279855   7.83816058   0.00035413  66.25441278  66.25441278   2.64850770   4.73616987   0.20657530   6.69816377   6.69816377   1.00000000   2.21054225   1.00000000   2.21054225 
 5170.34186352  68.42030033   6.23279823   7.83817917   0.00035413  68.42030033   6.23279823   7.83817917   0.00035413  67.41484123  67.41484123   2.63896780   4.75260565   0.20570691   6.69816377   6.69816377   1.00000000   2.21054225   1.00000000   2.21054225 
 5170.59186352  68.42042198   6.23279791   7.83819777   0.00035414  68.42042198   6.23279791   7.83819777   0.00035414  68.57526968  68.57526968   2.62942789   4.76904142   0.20483852   6.69816377   6.69816377   1.00000000   2.21054225   1.00000000   2.21054225 
 5170.84186352  68.42053383   6.23279762   7.83821487   0.00035414  68.42053383   6.23279762   7.83821487   0.00035414  69.59081753  69.59081753   2.62014727   4.78243711   0.20417211   6.69816377   6.69816377   1.00000000   2.21054225   1.00000000   2.21054225 
 5171.09186352  68.42053383   6.23279762   7.83821487   0.00035414  68.42053383   6.23279762   7.83821487   0.00035414  68.95229484  68.95229484   2.61382692   4.76112486   0.20581173   6.69816377   6.69816377   1.00000000   2.21054225   1.00000000   2.21054225 
 5171.34186352  68.42053383   6.23279762   7.83821487   0.00035414  68.42053383   6.23279762   7.83821487   0.00035414  68.31377215  68.31377215   2.60750657   4.73981261   0.20745134   6.69816377   6.69816377   1.00000000   2.21054225   1.00000000   2.21054225 
 5171.59186352  68.42053383   6.23279762   7.83821487   0.00035414  68.42053383   6.23279762   7.83821487   0.00035414  67.73318551  67.73318551   2.60280071   4.71878927   0.20872565   6.69816377   6.69816377   1.00000000   2.21054225   1.00000000   2.21054225 
 5171.84186352  68.42053383   6.23279762   7.83821487   0.00035414  68.42053383   6.23279762   7.83821487   0.00035414  67.81404234  67.81404234   2.61652725   4.70106437   0.20582937   6.69816377   6.69816377   1.00000000   2.21054225   1.00000000   2.21054225 
 5172.09186352  68.42053383   6.23279762   7.83821487   0.00035414  68.42053383   6.23279762   7.83821487   0.00035414  67.89489917  67.89489917   2.63025379   4.68333947   0.20293308   6.69816377   6.69816377   1.00000000   2.21054225   1.00000000   2.21054225 
 5172.34186352  68.42053383   6.23279762   7.83821487   0.00035414  68.42053383   6.23279762   7.83821487   0.00035414  67.98754371  67.98754371   2.64357734   4.66904506   0.20039586   6.69816377   6.69816377   1.00000000   2.21054225   1.00000000   2.21054225 
 5172.59186352  68.42053383   6.23279762   7.83821487   0.00035414  68.42053383   6.23279762   7.83821487   0.00035414  68.21476600  68.21476600   2.65230011   4.69391574   0.20195800   6.69816377   6.69816377   1.00000000   2.21054225   1.00000000   2.21054225 
 5172.84186352  68.42053383   6.23279762   7.83821487   0.00035414  68.42053383   6.23279762   7.83821487   0.00035414  68.44198829  68.44198829   2.66102288   4.71878643   0.20352013   6.69816377   6.69816377   1.00000000   2.21054225   1.00000000   2.21054225 
 5173.09186352  68.42157881   6.23281489   7.83836625   0.00035415  68.42157881   6.23281489   7.83836625   0.00035415  68.73901284  68.73901284   2.66758659   4.74170030   0.20492331   6.69816377   6.69816377   1.00000000   2.21054225   1.00000000   2.21054225 
 5173.34186352  68.43455407   6.23302931   7.84024595   0.00035426  68.43455407   6.23302931   7.84024595   0.00035426  69.83295473  69.83295473   2.64950081   4.74227372   0.20451173   6.69816377   6.69816377   1.00000000   2.21054225   1.00000000   2.21054225 
