~VERSION INFORMATION SECTION
VERS.           2.0  :CWLS Log ASCII Standard - 2.0
WRAP.           NO   :One line per depth
#               Created in UTAPWeLS
~WELL INFORMATION SECTION
#MNEM.UNIT  VALUE/NAME   :DESCRIPTION    
STRT.FT  3015.0919       :Start Depth    
STOP.FT  6361.3419       :Stop Depth     
STEP.FT  0.25            :Step           
NULL.    -999.25         :Null Value     
WELL.    UNKNOWN         :Well Name      
CTRY.    UNKNOWN         :Country        
CNTY.    UNKNOWN         :County         
STAT.    UNKNOWN         :State          
API .    UNKNOWN         :API number     
UWI .    UNKNOWN         :Unique well ID 
LOC .    UNKNOWN         :Well Location  
FLD .    UNKNOWN         :Field          
COMP.    UNKNOWN         :Company        
SRVC.    UNKNOWN         :Service Company
DATE.    22-Apr-2024     :Date           
~PARAMETER INFORMATION SECTION
#MNEM.UNITS  VALUE   :DESCRIPTION OF PARAMETER
~CURVE INFORMATION SECTION
#MNEM                          .UNITS     API CODES   :DESCRIPTION OF MNEMONIC                                                                    
DEPTH                          .FT                    :Gamma Ray (Longhorn Wireline) Simulated Depth                                              
ECGR^{(DOI)}                   .API                   :Gamma Ray (Longhorn Wireline) Simulated Environmentally-Corrected Gamma Ray (DOI Corrected)
Th^{(DOI)}                     .PPM                   :Gamma Ray (Longhorn Wireline) Simulated Thorium Concentration (DOI Corrected)              
U^{(DOI)}                      .PPM                   :Gamma Ray (Longhorn Wireline) Simulated Uranium Concentration (DOI Corrected)              
K^{(DOI)}                      .FRACTION              :Gamma Ray (Longhorn Wireline) Simulated Potassium Concentration (DOI Corrected)            
ECGR                           .API                   :Gamma Ray (Longhorn Wireline) Simulated Environmentally-Corrected Gamma Ray                
Th                             .PPM                   :Gamma Ray (Longhorn Wireline) Simulated Thorium Concentration                              
U                              .PPM                   :Gamma Ray (Longhorn Wireline) Simulated Uranium Concentration                              
K                              .FRACTION              :Gamma Ray (Longhorn Wireline) Simulated Potassium Concentration                            
GR_Field                       .                      :                                                                                           
GR                             .API                   :Custom Log Calculation                                                                     
RHOZ                           .G/CM3                 :Custom Log Calculation                                                                     
PEFZ                           .B/E-                  :Custom Log Calculation                                                                     
NPOR                           .FRACTION              :Custom Log Calculation                                                                     
RD_V                           .CM^2/S                :Ion Diffusivity (Na, Double Layer)                                                         
RD_H                           .CM^2/S                :Ion Diffusivity (Na, Shale)                                                                
Resistivity Mud                .OHM-M                 :Resistivity Mud                                                                            
RS_H                           .OHM-M                 :Resistivity Formation (Uninvaded)                                                          
Resistivity (Perpendicular) Mud.OHM-M                 :Resistivity (Perpendicular) Mud                                                            
RS_V                           .OHM-M                 :Resistivity (Perpendicular) Formation (Uninvaded)                                          
~A DEPTH        ECGR^{(DOI)} Th^{(DOI)}   U^{(DOI)}    K^{(DOI)}    ECGR         Th           U            K            GR_Field     GR           RHOZ         PEFZ         NPOR         RD_V         RD_H         Resistivity  RS_H         Resistivity  RS_V         
# ...
 5103.84186352  97.36999268   8.19378281  10.85743713   0.00315699  97.36999268   8.19378281  10.85743713   0.00315699  99.52776215  99.52776215   2.54725812   6.36882997   0.32469656   9.19068554   1.04993230   1.00000000   0.78559319   1.00000000   9.02681515 
 5104.09186352  97.36999268   8.19378281  10.85743713   0.00315699  97.36999268   8.19378281  10.85743713   0.00315699 100.30089158 100.30089158   2.53522998   6.35604171   0.32558776   9.19068554   1.04993230   1.00000000   0.78559319   1.00000000   9.02681515 
 5104.34186352  97.36999268   8.19378281  10.85743713   0.00315699  97.36999268   8.19378281  10.85743713   0.00315699  99.65173860  99.65173860   2.53930723   6.34604488   0.32745176   9.19068554   1.04993230   1.00000000   0.78559319   1.00000000   9.02681515 
 5104.59186352  97.36999268   8.19378281  10.85743713   0.00315699  97.36999268   8.19378281  10.85743713   0.00315699  99.00258563  99.00258563   2.54338448   6.33604805   0.32931575   9.19068554   1.04993230   1.00000000   0.78559319   1.00000000   9.02681515 
 5104.84186352  97.36742329   8.19366056  10.85711734   0.00315688  97.36742329   8.19366056  10.85711734   0.00315688  98.33566386  98.33566386   2.54696736   6.32514384   0.33124272   9.19068554   1.04993230   1.00000000   0.78559319   1.00000000   9.02681515 
 5105.09186352  97.33551970   8.19214263  10.85314656   0.00315551  97.33551970   8.19214263  10.85314656   0.00315551  97.46587971  97.46587971   2.54490609   6.30388031   0.33388855   9.19068554   1.04993230   1.00000000   0.78559319   1.00000000   9.02681515 
 5105.34186352  97.30361612   8.19062469  10.84917578   0.00315415  97.30361612   8.19062469  10.84917578   0.00315415  96.59609555  96.59609555   2.54284481   6.28261678   0.33653438   9.19068554   1.04993230   1.00000000   0.78559319   1.00000000   9.02681515 
 5105.59186352  97.17062328   8.18444827  10.83253725   0.00314856  97.17062328   8.18444827  10.83253725   0.00314856  95.74983002  95.74983002   2.54060474   6.25804801   0.33877706   9.19068554   1.04993230   1.00000000   0.78559319   1.00000000   9.02681515 
 5105.84186352  95.88351613   8.12508681  10.67127378   0.00309475  95.88351613   8.12508681  10.67127378   0.00309475  95.17207156  95.17207156   2.53632341   6.19574408   0.33641703   9.19068554   1.04993230   1.00000000   0.78559319   1.00000000   9.02681515 
 5106.09186352  94.59640899   8.06572535  10.51001032   0.00304094  94.59640899   8.06572535  10.51001032   0.00304094  94.59431310  94.59431310   2.53204209   6.13344015   0.33405700   9.19068554   1.04993230   1.00000000   0.78559319   1.00000000   9.02681515 
 5106.34186352  93.29675847   8.00584745  10.34714096   0.00298664  93.29675847   8.00584745  10.34714096   0.00298664  93.89605424  93.89605424   2.52709533   6.07164708   0.33152375   9.07724373   1.05383154   1.00000000   0.76014100   1.00000000   8.89921132 
 5106.59186352  91.85390287   7.94007332  10.16593743   0.00292680  91.85390287   7.94007332  10.16593743   0.00292680  91.82206825  91.82206825   2.51455148   6.01568638   0.32701304   8.64066464   1.06883771   1.00000000   0.66218861   1.00000000   8.40812989 
 5106.84186352  90.41104728   7.87429920   9.98473391   0.00286696  90.41104728   7.87429920   9.98473391   0.00286696  89.74808226  89.74808226   2.50200763   5.95972568   0.32250233   8.31752736   1.07994464   1.00000000   0.58968842   1.00000000   8.04465229 
 5107.09186352  89.08269178   7.81374669   9.81790928   0.00281187  89.08269178   7.81374669   9.81790928   0.00281187  87.96931642  87.96931642   2.48973601   5.90984945   0.31836925   8.31752736   1.07994464   1.00000000   0.58968842   1.00000000   8.04465229 
 5107.34186352  89.06155920   7.81280828   9.81524535   0.00281099  89.06155920   7.81280828   9.81524535   0.00281099  89.56101546  89.56101546   2.48057232   5.92943826   0.31854746   8.31752736   1.07994464   1.00000000   0.58968842   1.00000000   8.04465229 
 5107.59186352  89.04042662   7.81186986   9.81258142   0.00281011  89.04042662   7.81186986   9.81258142   0.00281011  91.15271449  91.15271449   2.47140862   5.94902708   0.31872567   8.31752736   1.07994464   1.00000000   0.58968842   1.00000000   8.04465229 
 5107.84186352  88.96030947   7.80836721   9.80247511   0.00280670  88.96030947   7.80836721   9.80247511   0.00280670  92.37546775  92.37546775   2.46313290   5.96363150   0.31878048   8.31752736   1.07994464   1.00000000   0.58968842   1.00000000   8.04465229 
 5108.09186352  88.20677829   7.77558927   9.70740077   0.00277447  88.20677829   7.77558927   9.70740077   0.00277447  89.38604653  89.38604653   2.46499490   5.92133006   0.31742652   8.31752736   1.07994464   1.00000000   0.58968842   1.00000000   8.04465229 
 5108.34186352  87.45324710   7.74281132   9.61232644   0.00274224  87.45324710   7.74281132   9.61232644   0.00274224  86.39662531  86.39662531   2.46685691   5.87902862   0.31607256   8.21199510   1.08758905   1.00000000   0.57913580   1.00000000   7.91816074 
 5108.59186352  86.60665996   7.70612266   9.50543518   0.00270612  86.60665996   7.70612266   9.50543518   0.00270612  83.54907928  83.54907928   2.46851354   5.83104065   0.31476182   7.80585577   1.11700844   1.00000000   0.53852419   1.00000000   7.43135989 
 5108.84186352  84.69767295   7.62478616   9.26363264   0.00262553  84.69767295   7.62478616   9.26363264   0.00262553  82.32129179  82.32129179   2.46782551   5.71813071   0.31394445   7.50524870   1.13878343   1.00000000   0.50846521   1.00000000   7.07105060 
 5109.09186352  82.78868595   7.54344966   9.02183011   0.00254495  82.78868595   7.54344966   9.02183011   0.00254495  81.09350429  81.09350429   2.46713749   5.60522078   0.31312708   7.50524870   1.13878343   1.00000000   0.50846521   1.00000000   7.07105060 
 5109.34186352  81.02475838   7.46830456   8.79839768   0.00247048  81.02475838   7.46830456   8.79839768   0.00247048  80.01803858  80.01803858   2.46594945   5.50300327   0.31253501   7.50524870   1.13878343   1.00000000   0.50846521   1.00000000   7.07105060 
 5109.59186352  80.91694323   7.46384534   8.78469274   0.00246589  80.91694323   7.46384534   8.78469274   0.00246589  80.68159784  80.68159784   2.45905297   5.52285893   0.31451523   7.50524870   1.13878343   1.00000000   0.50846521   1.00000000   7.07105060 
 5109.84186352  80.80912808   7.45938612   8.77098780   0.00246131  80.80912808   7.45938612   8.77098780   0.00246131  81.34515710  81.34515710   2.45215649   5.54271460   0.31649544   7.50524870   1.13878343   1.00000000   0.50846521   1.00000000   7.07105060 
 5110.09186352  80.70999594   7.45528603   8.75838661   0.00245709  80.70999594   7.45528603   8.75838661   0.00245709  81.88629733  81.88629733   2.44588489   5.55899972   0.31822555   7.50524870   1.13878343   1.00000000   0.50846521   1.00000000   7.07105060 
 5110.34186352  80.70999594   7.45528603   8.75838661   0.00245709  80.70999594   7.45528603   8.75838661   0.00245709  81.02980585  81.02980585   2.44674741   5.53452072   0.31710020   7.50524870   1.13878343   1.00000000   0.50846521   1.00000000   7.07105060 
 5110.59186352  80.70999594   7.45528603   8.75838661   0.00245709  80.70999594   7.45528603   8.75838661   0.00245709  80.17331437  80.17331437   2.44760993   5.51004173   0.31597486   7.50524870   1.13878343   1.00000000   0.50846521   1.00000000   7.07105060 
 5110.84186352  80.70999594   7.45528603   8.75838661   0.00245709  80.70999594   7.45528603   8.75838661   0.00245709  79.42212508  79.42212508   2.44876016   5.48511052   0.31499573   7.50524870   1.13878343   1.00000000   0.50846521   1.00000000   7.07105060 
 5111.09186352  80.70999594   7.45528603   8.75838661   0.00245709  80.70999594   7.45528603   8.75838661   0.00245709  79.87314829  79.87314829   2.45319509   5.45501643   0.31568596   7.50524870   1.13878343   1.00000000   0.50846521   1.00000000   7.07105060 
 5111.34186352  80.70999594   7.45528603   8.75838661   0.00245709  80.70999594   7.45528603   8.75838661   0.00245709  80.32417150  80.32417150   2.45763002   5.42492234   0.31637620   7.50524870   1.13878343   1.00000000   0.50846521   1.00000000   7.07105060 
