~VERSION INFORMATION SECTION
VERS.           2.0  :CWLS Log ASCII Standard - 2.0
WRAP.           NO   :One line per depth
#               Created in UTAPWeLS
~WELL INFORMATION SECTION
#MNEM.UNIT  VALUE/NAME   :DESCRIPTION    
STRT.FT  3015.0919       :Start Depth    
STOP.FT  6361.3419       :Stop Depth     
STEP.FT  0.25            :Step           
NULL.    -999.25         :Null Value     
WELL.    UNKNOWN         :Well Name      
CTRY.    UNKNOWN         :Country        
CNTY.    UNKNOWN         :County         
STAT.    UNKNOWN         :State          
API .    UNKNOWN         :API number     
UWI .    UNKNOWN         :Unique well ID 
LOC .    UNKNOWN         :Well Location  
FLD .    UNKNOWN         :Field          
COMP.    UNKNOWN         :Company        
SRVC.    UNKNOWN         :Service Company
DATE.    22-Apr-2024     :Date           
~PARAMETER INFORMATION SECTION
#MNEM.UNITS  VALUE   :DESCRIPTION OF PARAMETER
~CURVE INFORMATION SECTION
#MNEM                          .UNITS     API CODES   :DESCRIPTION OF MNEMONIC                                                                    
DEPTH                          .FT                    :Gamma Ray (Longhorn Wireline) Simulated Depth                                              
ECGR^{(DOI)}                   .API                   :Gamma Ray (Longhorn Wireline) Simulated Environmentally-Corrected Gamma Ray (DOI Corrected)
Th^{(DOI)}                     .PPM                   :Gamma Ray (Longhorn Wireline) Simulated Thorium Concentration (DOI Corrected)              
U^{(DOI)}                      .PPM                   :Gamma Ray (Longhorn Wireline) Simulated Uranium Concentration (DOI Corrected)              
K^{(DOI)}                      .FRACTION              :Gamma Ray (Longhorn Wireline) Simulated Potassium Concentration (DOI Corrected)            
ECGR                           .API                   :Gamma Ray (Longhorn Wireline) Simulated Environmentally-Corrected Gamma Ray                
Th                             .PPM                   :Gamma Ray (Longhorn Wireline) Simulated Thorium Concentration                              
U                              .PPM                   :Gamma Ray (Longhorn Wireline) Simulated Uranium Concentration                              
K                              .FRACTION              :Gamma Ray (Longhorn Wireline) Simulated Potassium Concentration                            
GR_Field                       .                      :                                                                                           
GR                             .API                   :Custom Log Calculation                                                                     
RHOZ                           .G/CM3                 :Custom Log Calculation                                                                     
PEFZ                           .B/E-                  :Custom Log Calculation                                                                     
NPOR                           .FRACTION              :Custom Log Calculation                                                                     
RD_V                           .CM^2/S                :Ion Diffusivity (Na, Double Layer)                                                         
RD_H                           .CM^2/S                :Ion Diffusivity (Na, Shale)                                                                
Resistivity Mud                .OHM-M                 :Resistivity Mud                                                                            
RS_H                           .OHM-M                 :Resistivity Formation (Uninvaded)                                                          
Resistivity (Perpendicular) Mud.OHM-M                 :Resistivity (Perpendicular) Mud                                                            
RS_V                           .OHM-M                 :Resistivity (Perpendicular) Formation (Uninvaded)                                          
~A DEPTH        ECGR^{(DOI)} Th^{(DOI)}   U^{(DOI)}    K^{(DOI)}    ECGR         Th           U            K            GR_Field     GR           RHOZ         PEFZ         NPOR         RD_V         RD_H         Resistivity  RS_H         Resistivity  RS_V         
# ...
 5204.59186352  41.07711677   1.33312592   4.08751524   0.00764410  41.07711677   1.33312592   4.08751524   0.00764410  39.82328826  39.82328826   1.46605023   4.04036097   0.55909152   0.00001000   0.00000300   1.00000000   1.00000000   1.00000000   1.00000000 
 5204.84186352  34.67966886   1.20410272   3.01503484   0.00830188  34.67966886   1.20410272   3.01503484   0.00830188  34.13547922  34.13547922   1.31422308   3.22940480   0.62668451   0.00001000   0.00000300   1.00000000   1.00000000   1.00000000   1.00000000 
 5205.09186352  28.28222095   1.07507953   1.94255444   0.00895966  28.28222095   1.07507953   1.94255444   0.00895966  28.44767018  28.44767018   1.16239594   2.41844862   0.69427751   0.00001000   0.00000300   1.00000000   1.00000000   1.00000000   1.00000000 
 5205.34186352  22.39999886   0.95644736   0.95644748   0.00956447  22.39999886   0.95644736   0.95644748   0.00956447  23.19843422  23.19843422   1.02074426   1.67291594   0.76034545   0.00001000   0.00000300   1.00000000   1.00000000   1.00000000   1.00000000 
 5205.59186352  22.39999886   0.95644736   0.95644748   0.00956447  22.39999886   0.95644736   0.95644748   0.00956447  22.95629266  22.95629266   0.99526369   1.67430925   0.80900218   0.00001000   0.00000300   1.00000000   1.00000000   1.00000000   1.00000000 
 5205.84186352  22.39999886   0.95644736   0.95644748   0.00956447  22.39999886   0.95644736   0.95644748   0.00956447  22.71415110  22.71415110   0.96978312   1.67570256   0.85765891   0.00001000   0.00000300   1.00000000   1.00000000   1.00000000   1.00000000 
 5206.09186352  22.39999886   0.95644736   0.95644748   0.00956447  22.39999886   0.95644736   0.95644748   0.00956447  22.47506217  22.47506217   0.94639881   1.67771045   0.90434353   0.00001000   0.00000300   1.00000000   1.00000000   1.00000000   1.00000000 
 5206.34186352  22.39999886   0.95644736   0.95644748   0.00956447  22.39999886   0.95644736   0.95644748   0.00956447  22.27082447  22.27082447   0.94694695   1.68673484   0.92851306   0.00001000   0.00000300   1.00000000   1.00000000   1.00000000   1.00000000 
 5206.59186352  22.39999886   0.95644736   0.95644748   0.00956447  22.39999886   0.95644736   0.95644748   0.00956447  22.06658676  22.06658676   0.94749509   1.69575923   0.95268258   0.00001000   0.00000300   1.00000000   1.00000000   1.00000000   1.00000000 
 5206.84186352  22.39999886   0.95644736   0.95644748   0.00956447  22.39999886   0.95644736   0.95644748   0.00956447  21.89423996  21.89423996   0.94830084   1.70430837   0.97555569   0.00001000   0.00000300   1.00000000   1.00000000   1.00000000   1.00000000 
 5207.09186352  22.39999886   0.95644736   0.95644748   0.00956447  22.39999886   0.95644736   0.95644748   0.00956447  22.08598479  22.08598479   0.95204765   1.70743164   0.98362782   0.00001000   0.00000300   1.00000000   1.00000000   1.00000000   1.00000000 
 5207.34186352  22.39999886   0.95644736   0.95644748   0.00956447  22.39999886   0.95644736   0.95644748   0.00956447  22.27772962  22.27772962   0.95579446   1.71055491   0.99169995   0.00001000   0.00000300   1.00000000   1.00000000   1.00000000   1.00000000 
 5207.59186352  22.39999886   0.95644736   0.95644748   0.00956447  22.39999886   0.95644736   0.95644748   0.00956447  22.43522071  22.43522071   0.95892074   1.71296998   0.99901481   0.00001000   0.00000300   1.00000000   1.00000000   1.00000000   1.00000000 
 5207.84186352  22.39999886   0.95644736   0.95644748   0.00956447  22.39999886   0.95644736   0.95644748   0.00956447  22.20164424  22.20164424   0.95496255   1.70729961   0.99768412   0.00001000   0.00000300   1.00000000   1.00000000   1.00000000   1.00000000 
 5208.09186352  22.39999886   0.95644736   0.95644748   0.00956447  22.39999886   0.95644736   0.95644748   0.00956447  21.96806778  21.96806778   0.95100436   1.70162924   0.99635342   0.00001000   0.00000300   1.00000000   1.00000000   1.00000000   1.00000000 
 5208.34186352  22.39999886   0.95644736   0.95644748   0.00956447  22.39999886   0.95644736   0.95644748   0.00956447  21.77766719  21.77766719   0.94734263   1.69608287   0.99509844   0.00001000   0.00000300   1.00000000   1.00000000   1.00000000   1.00000000 
 5208.59186352  22.39999886   0.95644736   0.95644748   0.00956447  22.39999886   0.95644736   0.95644748   0.00956447  22.08019626  22.08019626   0.94706557   1.69195217   0.99470781   0.00001000   0.00000300   1.00000000   1.00000000   1.00000000   1.00000000 
 5208.84186352  22.39999886   0.95644736   0.95644748   0.00956447  22.39999886   0.95644736   0.95644748   0.00956447  22.38272533  22.38272533   0.94678851   1.68782146   0.99431718   0.00001000   0.00000300   1.00000000   1.00000000   1.00000000   1.00000000 
 5209.09186352 -999.25000000 -999.25000000 -999.25000000 -999.25000000 -999.25000000 -999.25000000 -999.25000000 -999.25000000 -999.25000000 -999.25000000 -999.25000000 -999.25000000 -999.25000000   0.00001000   0.00000300   1.00000000   1.00000000   1.00000000   1.00000000 
 5209.34186352 -999.25000000 -999.25000000 -999.25000000 -999.25000000 -999.25000000 -999.25000000 -999.25000000 -999.25000000 -999.25000000 -999.25000000 -999.25000000 -999.25000000 -999.25000000   0.00001000   0.00000300   1.00000000   1.00000000   1.00000000   1.00000000 
 5209.59186352 -999.25000000 -999.25000000 -999.25000000 -999.25000000 -999.25000000 -999.25000000 -999.25000000 -999.25000000 -999.25000000 -999.25000000 -999.25000000 -999.25000000 -999.25000000   0.00001000   0.00000300   1.00000000   1.00000000   1.00000000   1.00000000 
 5209.84186352 -999.25000000 -999.25000000 -999.25000000 -999.25000000 -999.25000000 -999.25000000 -999.25000000 -999.25000000 -999.25000000 -999.25000000 -999.25000000 -999.25000000 -999.25000000   0.00001000   0.00000300   1.00000000   1.00000000   1.00000000   1.00000000 
 5210.09186352 -999.25000000 -999.25000000 -999.25000000 -999.25000000 -999.25000000 -999.25000000 -999.25000000 -999.25000000 -999.25000000 -999.25000000 -999.25000000 -999.25000000 -999.25000000   0.00001000   0.00000300   1.00000000   1.00000000   1.00000000   1.00000000 
 5210.34186352 -999.25000000 -999.25000000 -999.25000000 -999.25000000 -999.25000000 -999.25000000 -999.25000000 -999.25000000 -999.25000000 -999.25000000 -999.25000000 -999.25000000 -999.25000000   0.00001000   0.00000300   1.00000000   1.00000000   1.00000000   1.00000000 
 5210.59186352 -999.25000000 -999.25000000 -999.25000000 -999.25000000 -999.25000000 -999.25000000 -999.25000000 -999.25000000 -999.25000000 -999.25000000 -999.25000000 -999.25000000 -999.25000000   0.00001000   0.00000300   1.00000000   1.00000000   1.00000000   1.00000000 
 5210.84186352 -999.25000000 -999.25000000 -999.25000000 -999.25000000 -999.25000000 -999.25000000 -999.25000000 -999.25000000 -999.25000000 -999.25000000 -999.25000000 -999.25000000 -999.25000000   0.00001000   0.00000300   1.00000000   1.00000000   1.00000000   1.00000000 
 5211.09186352 -999.25000000 -999.25000000 -999.25000000 -999.25000000 -999.25000000 -999.25000000 -999.25000000 -999.25000000 -999.25000000 -999.25000000 -999.25000000 -999.25000000 -999.25000000   0.00001000   0.00000300   1.00000000   1.00000000   1.00000000   1.00000000 
 5211.34186352 -999.25000000 -999.25000000 -999.25000000 -999.25000000 -999.25000000 -999.25000000 -999.25000000 -999.25000000 -999.25000000 -999.25000000 -999.25000000 -999.25000000 -999.25000000   0.00001000   0.00000300   1.00000000   1.00000000   1.00000000   1.00000000 
 5211.59186352 -999.25000000 -999.25000000 -999.25000000 -999.25000000 -999.25000000 -999.25000000 -999.25000000 -999.25000000 -999.25000000 -999.25000000 -999.25000000 -999.25000000 -999.25000000   0.00001000   0.00000300   1.00000000   1.00000000   1.00000000   1.00000000 
 5211.84186352 -999.25000000 -999.25000000 -999.25000000 -999.25000000 -999.25000000 -999.25000000 -999.25000000 -999.25000000 -999.25000000 -999.25000000 -999.25000000 -999.25000000 -999.25000000   0.00001000   0.00000300   1.00000000   1.00000000   1.00000000   1.00000000 
