~VERSION INFORMATION SECTION
VERS.           2.0  :CWLS Log ASCII Standard - 2.0
WRAP.           NO   :One line per depth
#               Created in UTAPWeLS
~WELL INFORMATION SECTION
#MNEM.UNIT  VALUE/NAME   :DESCRIPTION    
STRT.FT  3015.0919       :Start Depth    
STOP.FT  6361.3419       :Stop Depth     
STEP.FT  0.25            :Step           
NULL.    -999.25         :Null Value     
WELL.    UNKNOWN         :Well Name      
CTRY.    UNKNOWN         :Country        
CNTY.    UNKNOWN         :County         
STAT.    UNKNOWN         :State          
API .    UNKNOWN         :API number     
UWI .    UNKNOWN         :Unique well ID 
LOC .    UNKNOWN         :Well Location  
FLD .    UNKNOWN         :Field          
COMP.    UNKNOWN         :Company        
SRVC.    UNKNOWN         :Service Company
DATE.    22-Apr-2024     :Date           
~PARAMETER INFORMATION SECTION
#MNEM.UNITS  VALUE   :DESCRIPTION OF PARAMETER
~CURVE INFORMATION SECTION
#MNEM                          .UNITS     API CODES   :DESCRIPTION OF MNEMONIC                                                                    
DEPTH                          .FT                    :Gamma Ray (Longhorn Wireline) Simulated Depth                                              
ECGR^{(DOI)}                   .API                   :Gamma Ray (Longhorn Wireline) Simulated Environmentally-Corrected Gamma Ray (DOI Corrected)
Th^{(DOI)}                     .PPM                   :Gamma Ray (Longhorn Wireline) Simulated Thorium Concentration (DOI Corrected)              
U^{(DOI)}                      .PPM                   :Gamma Ray (Longhorn Wireline) Simulated Uranium Concentration (DOI Corrected)              
K^{(DOI)}                      .FRACTION              :Gamma Ray (Longhorn Wireline) Simulated Potassium Concentration (DOI Corrected)            
ECGR                           .API                   :Gamma Ray (Longhorn Wireline) Simulated Environmentally-Corrected Gamma Ray                
Th                             .PPM                   :Gamma Ray (Longhorn Wireline) Simulated Thorium Concentration                              
U                              .PPM                   :Gamma Ray (Longhorn Wireline) Simulated Uranium Concentration                              
K                              .FRACTION              :Gamma Ray (Longhorn Wireline) Simulated Potassium Concentration                            
GR_Field                       .                      :                                                                                           
GR                             .API                   :Custom Log Calculation                                                                     
RHOZ                           .G/CM3                 :Custom Log Calculation                                                                     
PEFZ                           .B/E-                  :Custom Log Calculation                                                                     
NPOR                           .FRACTION              :Custom Log Calculation                                                                     
RD_V                           .CM^2/S                :Ion Diffusivity (Na, Double Layer)                                                         
RD_H                           .CM^2/S                :Ion Diffusivity (Na, Shale)                                                                
Resistivity Mud                .OHM-M                 :Resistivity Mud                                                                            
RS_H                           .OHM-M                 :Resistivity Formation (Uninvaded)                                                          
Resistivity (Perpendicular) Mud.OHM-M                 :Resistivity (Perpendicular) Mud                                                            
RS_V                           .OHM-M                 :Resistivity (Perpendicular) Formation (Uninvaded)                                          
~A DEPTH        ECGR^{(DOI)} Th^{(DOI)}   U^{(DOI)}    K^{(DOI)}    ECGR         Th           U            K            GR_Field     GR           RHOZ         PEFZ         NPOR         RD_V         RD_H         Resistivity  RS_H         Resistivity  RS_V         
# ...
 5119.34186352  64.20996245   6.73247579   6.67637202   0.00176181  64.20996245   6.73247579   6.67637202   0.00176181  64.34312423  64.34312423   2.34522327   4.48609893   0.29479440   5.84208117   1.25488859   1.00000000   0.38296987   1.00000000   5.11841766 
 5119.59186352  64.12662141   6.72881130   6.66585633   0.00175833  64.12662141   6.72881130   6.66585633   0.00175833  63.87518756  63.87518756   2.35129455   4.51099490   0.29469017   5.84208117   1.25488859   1.00000000   0.38296987   1.00000000   5.11841766 
 5119.84186352  64.04999234   6.72544193   6.65618753   0.00175512  64.04999234   6.72544193   6.65618753   0.00175512  63.47066935  63.47066935   2.35699063   4.53406870   0.29468907   5.84208117   1.25488859   1.00000000   0.38296987   1.00000000   5.11841766 
 5120.09186352  64.04999234   6.72544193   6.65618753   0.00175512  64.04999234   6.72544193   6.65618753   0.00175512  63.79018595  63.79018595   2.35840298   4.53633930   0.29586548   5.84208117   1.25488859   1.00000000   0.38296987   1.00000000   5.11841766 
 5120.34186352  64.04999234   6.72544193   6.65618753   0.00175512  64.04999234   6.72544193   6.65618753   0.00175512  64.10970256  64.10970256   2.35981533   4.53860989   0.29704188   5.84208117   1.25488859   1.00000000   0.38296987   1.00000000   5.11841766 
 5120.59186352  64.04999234   6.72544193   6.65618753   0.00175512  64.04999234   6.72544193   6.65618753   0.00175512  64.42784336  64.42784336   2.36101854   4.53897594   0.29811617   5.84208117   1.25488859   1.00000000   0.38296987   1.00000000   5.11841766 
 5120.84186352  64.04999234   6.72544193   6.65618753   0.00175512  64.04999234   6.72544193   6.65618753   0.00175512  64.73027688  64.73027688   2.35983413   4.51759815   0.29802465   5.84208117   1.25488859   1.00000000   0.38296987   1.00000000   5.11841766 
 5121.09186352  64.04999234   6.72544193   6.65618753   0.00175512  64.04999234   6.72544193   6.65618753   0.00175512  65.03271041  65.03271041   2.35864972   4.49622036   0.29793312   5.84208117   1.25488859   1.00000000   0.38296987   1.00000000   5.11841766 
 5121.34186352  64.04959524   6.72542352   6.65613772   0.00175510  64.04959524   6.72542352   6.65613772   0.00175510  65.31068750  65.31068750   2.35723885   4.47647087   0.29782689   5.84208117   1.25488859   1.00000000   0.38296987   1.00000000   5.11841766 
 5121.59186352  64.04466451   6.72519496   6.65551927   0.00175490  64.04466451   6.72519496   6.65551927   0.00175490  65.30945074  65.30945074   2.35324257   4.47531135   0.29755277   5.84208117   1.25488859   1.00000000   0.38296987   1.00000000   5.11841766 
 5121.84186352  64.03973378   6.72496640   6.65490081   0.00175470  64.03973378   6.72496640   6.65490081   0.00175470  65.30821398  65.30821398   2.34924628   4.47415183   0.29727864   5.84208117   1.25488859   1.00000000   0.38296987   1.00000000   5.11841766 
 5122.09186352  63.97914095   6.72212105   6.64733150   0.00175216  63.97914095   6.72212105   6.64733150   0.00175216  65.23909811  65.23909811   2.34459799   4.46833180   0.29693949   5.84208117   1.25488859   1.00000000   0.38296987   1.00000000   5.11841766 
 5122.34186352  63.28306599   6.68940048   6.56040583   0.00172292  63.28306599   6.68940048   6.56040583   0.00172292  64.39502115  64.39502115   2.33250585   4.40930371   0.29585793   5.84208117   1.25488859   1.00000000   0.38296987   1.00000000   5.11841766 
 5122.59186352  62.58699103   6.65667992   6.47348017   0.00169368  62.58699103   6.65667992   6.47348017   0.00169368  63.55094419  63.55094419   2.32041371   4.35027562   0.29477637   5.84208117   1.25488859   1.00000000   0.38296987   1.00000000   5.11841766 
 5122.84186352  61.78997437   6.61936586   6.37386461   0.00166030  61.78997437   6.61936586   6.37386461   0.00166030  62.59366280  62.59366280   2.31085566   4.28790329   0.29393599   5.72651633   1.25886292   1.00000000   0.37529462   1.00000000   4.99051528 
 5123.09186352  59.84052811   6.52960890   6.12937129   0.00157963  59.84052811   6.52960890   6.12937129   0.00157963  60.34395083  60.34395083   2.33022884   4.18735042   0.29584903   5.28176679   1.27415809   1.00000000   0.34575655   1.00000000   4.49828488 
 5123.34186352  57.89108185   6.43985193   5.88487796   0.00149896  57.89108185   6.43985193   5.88487796   0.00149896  58.09423886  58.09423886   2.34960203   4.08679754   0.29776208   4.95258209   1.28547892   1.00000000   0.32389373   1.00000000   4.13395686 
 5123.59186352  56.08847176   6.35686889   5.65879570   0.00142437  56.08847176   6.35686889   5.65879570   0.00142437  55.99895187  55.99895187   2.36695331   3.99291975   0.29928163   4.95258209   1.28547892   1.00000000   0.32389373   1.00000000   4.13395686 
 5123.84186352  55.96225858   6.35122218   5.64290860   0.00141909  55.96225858   6.35122218   5.64290860   0.00141909  55.66670155  55.66670155   2.36122094   3.97524988   0.29630880   4.95258209   1.28547892   1.00000000   0.32389373   1.00000000   4.13395686 
 5124.09186352  55.83604540   6.34557547   5.62702150   0.00141382  55.83604540   6.34557547   5.62702150   0.00141382  55.33445122  55.33445122   2.35548858   3.95758001   0.29333598   4.95258209   1.28547892   1.00000000   0.32389373   1.00000000   4.13395686 
 5124.34186352  55.71999694   6.34038353   5.61241388   0.00140897  55.71999694   6.34038353   5.61241388   0.00140897  55.05421465  55.05421465   2.34909314   3.94201687   0.29059940   4.95258209   1.28547892   1.00000000   0.32389373   1.00000000   4.13395686 
 5124.59186352  55.71999694   6.34038353   5.61241388   0.00140897  55.71999694   6.34038353   5.61241388   0.00140897  55.36780787  55.36780787   2.33512747   3.95050576   0.29056008   4.95258209   1.28547892   1.00000000   0.32389373   1.00000000   4.13395686 
 5124.84186352  55.71999694   6.34038353   5.61241388   0.00140897  55.71999694   6.34038353   5.61241388   0.00140897  55.68140109  55.68140109   2.32116180   3.95899465   0.29052075   4.95258209   1.28547892   1.00000000   0.32389373   1.00000000   4.13395686 
 5125.09186352  55.71999694   6.34038353   5.61241388   0.00140897  55.71999694   6.34038353   5.61241388   0.00140897  55.94908915  55.94908915   2.30825525   3.96825300   0.29040051   4.95258209   1.28547892   1.00000000   0.32389373   1.00000000   4.13395686 
 5125.34186352  55.71999694   6.34038353   5.61241388   0.00140897  55.71999694   6.34038353   5.61241388   0.00140897  55.69268784  55.69268784   2.30744046   3.98629603   0.28935657   4.95258209   1.28547892   1.00000000   0.32389373   1.00000000   4.13395686 
 5125.59186352  55.71999694   6.34038353   5.61241388   0.00140897  55.71999694   6.34038353   5.61241388   0.00140897  55.43628653  55.43628653   2.30662567   4.00433906   0.28831263   4.95258209   1.28547892   1.00000000   0.32389373   1.00000000   4.13395686 
 5125.84186352  55.71999694   6.34038353   5.61241388   0.00140897  55.71999694   6.34038353   5.61241388   0.00140897  55.20454508  55.20454508   2.30612003   4.02006702   0.28737208   4.95258209   1.28547892   1.00000000   0.32389373   1.00000000   4.13395686 
 5126.09186352  55.71999694   6.34038353   5.61241388   0.00140897  55.71999694   6.34038353   5.61241388   0.00140897  55.25433993  55.25433993   2.30914384   4.00936421   0.28761198   4.95258209   1.28547892   1.00000000   0.32389373   1.00000000   4.13395686 
 5126.34186352  55.71999694   6.34038353   5.61241388   0.00140897  55.71999694   6.34038353   5.61241388   0.00140897  55.30413478  55.30413478   2.31216765   3.99866141   0.28785187   4.95258209   1.28547892   1.00000000   0.32389373   1.00000000   4.13395686 
 5126.59186352  55.71127157   6.34000679   5.61131469   0.00140858  55.71127157   6.34000679   5.61131469   0.00140858  55.37863467  55.37863467   2.31468358   3.98785719   0.28811666   4.95258209   1.28547892   1.00000000   0.32389373   1.00000000   4.13395686 
 5126.84186352  55.60293048   6.33532886   5.59766634   0.00140379  55.60293048   6.33532886   5.59766634   0.00140379  55.73518673  55.73518673   2.31140113   3.97589510   0.28866557   4.95258209   1.28547892   1.00000000   0.32389373   1.00000000   4.13395686 
