~VERSION INFORMATION SECTION
VERS.           2.0  :CWLS Log ASCII Standard - 2.0
WRAP.           NO   :One line per depth
#               Created in UTAPWeLS
~WELL INFORMATION SECTION
#MNEM.UNIT  VALUE/NAME   :DESCRIPTION    
STRT.FT  3015.0919       :Start Depth    
STOP.FT  6361.3419       :Stop Depth     
STEP.FT  0.25            :Step           
NULL.    -999.25         :Null Value     
WELL.    UNKNOWN         :Well Name      
CTRY.    UNKNOWN         :Country        
CNTY.    UNKNOWN         :County         
STAT.    UNKNOWN         :State          
API .    UNKNOWN         :API number     
UWI .    UNKNOWN         :Unique well ID 
LOC .    UNKNOWN         :Well Location  
FLD .    UNKNOWN         :Field          
COMP.    UNKNOWN         :Company        
SRVC.    UNKNOWN         :Service Company
DATE.    22-Apr-2024     :Date           
~PARAMETER INFORMATION SECTION
#MNEM.UNITS  VALUE   :DESCRIPTION OF PARAMETER
~CURVE INFORMATION SECTION
#MNEM                          .UNITS     API CODES   :DESCRIPTION OF MNEMONIC                                                                    
DEPTH                          .FT                    :Gamma Ray (Longhorn Wireline) Simulated Depth                                              
ECGR^{(DOI)}                   .API                   :Gamma Ray (Longhorn Wireline) Simulated Environmentally-Corrected Gamma Ray (DOI Corrected)
Th^{(DOI)}                     .PPM                   :Gamma Ray (Longhorn Wireline) Simulated Thorium Concentration (DOI Corrected)              
U^{(DOI)}                      .PPM                   :Gamma Ray (Longhorn Wireline) Simulated Uranium Concentration (DOI Corrected)              
K^{(DOI)}                      .FRACTION              :Gamma Ray (Longhorn Wireline) Simulated Potassium Concentration (DOI Corrected)            
ECGR                           .API                   :Gamma Ray (Longhorn Wireline) Simulated Environmentally-Corrected Gamma Ray                
Th                             .PPM                   :Gamma Ray (Longhorn Wireline) Simulated Thorium Concentration                              
U                              .PPM                   :Gamma Ray (Longhorn Wireline) Simulated Uranium Concentration                              
K                              .FRACTION              :Gamma Ray (Longhorn Wireline) Simulated Potassium Concentration                            
GR_Field                       .                      :                                                                                           
GR                             .API                   :Custom Log Calculation                                                                     
RHOZ                           .G/CM3                 :Custom Log Calculation                                                                     
PEFZ                           .B/E-                  :Custom Log Calculation                                                                     
NPOR                           .FRACTION              :Custom Log Calculation                                                                     
RD_V                           .CM^2/S                :Ion Diffusivity (Na, Double Layer)                                                         
RD_H                           .CM^2/S                :Ion Diffusivity (Na, Shale)                                                                
Resistivity Mud                .OHM-M                 :Resistivity Mud                                                                            
RS_H                           .OHM-M                 :Resistivity Formation (Uninvaded)                                                          
Resistivity (Perpendicular) Mud.OHM-M                 :Resistivity (Perpendicular) Mud                                                            
RS_V                           .OHM-M                 :Resistivity (Perpendicular) Formation (Uninvaded)                                          
~A DEPTH        ECGR^{(DOI)} Th^{(DOI)}   U^{(DOI)}    K^{(DOI)}    ECGR         Th           U            K            GR_Field     GR           RHOZ         PEFZ         NPOR         RD_V         RD_H         Resistivity  RS_H         Resistivity  RS_V         
# ...
 5181.34186352  51.56089212   5.16989994   5.71408892   0.00024771  51.56089212   5.16989994   5.71408892   0.00024771  50.69922991  50.69922991   2.41170070   3.54205884   0.23608279   3.65529673   2.58924434   1.00000000   0.54204780   1.00000000   1.34379513 
 5181.59186352  51.56089212   5.16989994   5.71408892   0.00024771  51.56089212   5.16989994   5.71408892   0.00024771  51.81187111  51.81187111   2.40359729   3.55742543   0.23763875   3.65529673   2.58924434   1.00000000   0.54204780   1.00000000   1.34379513 
 5181.84186352  51.56089212   5.16989994   5.71408892   0.00024771  51.56089212   5.16989994   5.71408892   0.00024771  52.92451232  52.92451232   2.39549387   3.57279202   0.23919471   3.65529673   2.58924434   1.00000000   0.54204780   1.00000000   1.34379513 
 5182.09186352  51.56127871   5.16987159   5.71415915   0.00024771  51.56127871   5.16987159   5.71415915   0.00024771  53.90014442  53.90014442   2.38676901   3.58853593   0.24058981   3.65529673   2.58924434   1.00000000   0.54204780   1.00000000   1.34379513 
 5182.34186352  51.56607890   5.16951952   5.71503112   0.00024777  51.56607890   5.16951952   5.71503112   0.00024777  53.31157311  53.31157311   2.37094931   3.60858761   0.24014842   3.65529673   2.58924434   1.00000000   0.54204780   1.00000000   1.34379513 
 5182.59186352  51.57087908   5.16916746   5.71590310   0.00024782  51.57087908   5.16916746   5.71590310   0.00024782  52.72300180  52.72300180   2.35512960   3.62863929   0.23970703   3.65529673   2.58924434   1.00000000   0.54204780   1.00000000   1.34379513 
 5182.84186352  51.64948663   5.16312434   5.73028577   0.00024877  51.64948663   5.16312434   5.73028577   0.00024877  52.23070544  52.23070544   2.34296252   3.65246028   0.23924783   3.65529673   2.58924434   1.00000000   0.54204780   1.00000000   1.34379513 
 5183.09186352  52.57073688   5.09210771   5.89891717   0.00025998  52.57073688   5.09210771   5.89891717   0.00025998  52.83755949  52.83755949   2.37249675   3.71931480   0.23858541   3.65529673   2.58924434   1.00000000   0.54204780   1.00000000   1.34379513 
 5183.34186352  53.49198713   5.02109108   6.06754856   0.00027119  53.49198713   5.02109108   6.06754856   0.00027119  53.44441354  53.44441354   2.40203098   3.78616931   0.23792300   3.65529673   2.58924434   1.00000000   0.54204780   1.00000000   1.34379513 
 5183.59186352  54.58340522   4.93755114   6.26709857   0.00028438  54.58340522   4.93755114   6.26709857   0.00028438  54.22060805  54.22060805   2.43030282   3.85736587   0.23751975   3.65529673   2.58924434   1.00000000   0.54204780   1.00000000   1.34379513 
 5183.84186352  57.61759284   4.71103521   6.81963983   0.00032030  57.61759284   4.71103521   6.81963983   0.00032030  56.93012614  56.93012614   2.44416214   3.97813456   0.24007540   3.94531514   2.54942277   1.00000000   0.58184162   1.00000000   1.59715874 
 5184.09186352  60.65178045   4.48451928   7.37218109   0.00035622  60.65178045   4.48451928   7.37218109   0.00035622  59.63964424  59.63964424   2.45802146   4.09890325   0.24263105   5.06144666   2.39617005   1.00000000   0.73498755   1.00000000   2.57222479 
 5184.34186352  63.46107593   4.27484476   7.88374666   0.00038948  63.46107593   4.27484476   7.88374666   0.00038948  62.22361523  62.22361523   2.47071483   4.21205632   0.24492360   5.88755976   2.28273890   1.00000000   0.84833965   1.00000000   3.29392724 
 5184.59186352  63.70282638   4.25744497   7.92750172   0.00039234  63.70282638   4.25744497   7.92750172   0.00039234  63.37424205  63.37424205   2.47009683   4.23826356   0.24421245   5.88755976   2.28273890   1.00000000   0.84833965   1.00000000   3.29392724 
 5184.84186352  63.94457684   4.24004518   7.97125677   0.00039519  63.94457684   4.24004518   7.97125677   0.00039519  64.52486887  64.52486887   2.46947884   4.26447079   0.24350131   5.88755976   2.28273890   1.00000000   0.84833965   1.00000000   3.29392724 
 5185.09186352  64.16772580   4.22413783   8.01158248   0.00039782  64.16772580   4.22413783   8.01158248   0.00039782  65.55747667  65.55747667   2.46801718   4.28758789   0.24259125   5.88755976   2.28273890   1.00000000   0.84833965   1.00000000   3.29392724 
 5185.34186352  64.17850550   4.22526920   8.01275614   0.00039787  64.17850550   4.22526920   8.01275614   0.00039787  65.24268683  65.24268683   2.45692363   4.27542556   0.23941015   5.88755976   2.28273890   1.00000000   0.84833965   1.00000000   3.29392724 
 5185.59186352  64.18928520   4.22640057   8.01392980   0.00039792  64.18928520   4.22640057   8.01392980   0.00039792  64.92789699  64.92789699   2.44583009   4.26326322   0.23622906   5.88755976   2.28273890   1.00000000   0.84833965   1.00000000   3.29392724 
 5185.84186352  64.27539776   4.23529989   8.02336340   0.00039833  64.27539776   4.23529989   8.02336340   0.00039833  64.62137992  64.62137992   2.43849270   4.25915033   0.23309282   5.88755976   2.28273890   1.00000000   0.84833965   1.00000000   3.29392724 
 5186.09186352  65.22156941   4.33288414   8.12709900   0.00040284  65.22156941   4.33288414   8.12709900   0.00040284  64.40931127  64.40931127   2.47403863   4.34693625   0.23046860   5.88755976   2.28273890   1.00000000   0.84833965   1.00000000   3.29392724 
 5186.34186352  66.16774105   4.43046839   8.23083460   0.00040735  66.16774105   4.43046839   8.23083460   0.00040735  64.19724263  64.19724263   2.50958455   4.43472216   0.22784438   6.20575319   2.47362326   1.00000000   1.04271661   1.00000000   3.42128717 
 5186.59186352  67.19610482   4.53629089   8.34368254   0.00041224  67.19610482   4.53629089   8.34368254   0.00041224  64.20676086  64.20676086   2.54489661   4.52599277   0.22533712   7.43031583   3.20823885   1.00000000   1.79077345   1.00000000   3.91142995 
 5186.84186352  69.16283835   4.73616767   8.56056397   0.00042151  69.16283835   4.73616767   8.56056397   0.00042151  66.74608868  66.74608868   2.57753876   4.65704729   0.22416506   8.33668504   3.75197008   1.00000000   2.34445332   1.00000000   4.27421280 
 5187.09186352  71.12957188   4.93604445   8.77744541   0.00043079  71.12957188   4.93604445   8.77744541   0.00043079  69.28541650  69.28541650   2.61018091   4.78810182   0.22299300   8.33668504   3.75197008   1.00000000   2.34445332   1.00000000   4.27421280 
 5187.34186352  72.94450852   5.12047615   8.97759492   0.00043935  72.94450852   5.12047615   8.97759492   0.00043935  71.77890730  71.77890730   2.64069143   4.91143157   0.22184474   8.33668504   3.75197008   1.00000000   2.34445332   1.00000000   4.27421280 
 5187.59186352  73.02641277   5.12857459   8.98671968   0.00043974  73.02641277   5.12857459   8.98671968   0.00043974  73.74908665  73.74908665   2.64686560   4.94656918   0.22096811   8.33668504   3.75197008   1.00000000   2.34445332   1.00000000   4.27421280 
 5187.84186352  73.10831701   5.13667303   8.99584443   0.00044013  73.10831701   5.13667303   8.99584443   0.00044013  75.71926600  75.71926600   2.65303977   4.98170679   0.22009148   8.33668504   3.75197008   1.00000000   2.34445332   1.00000000   4.27421280 
 5188.09186352  73.18362500   5.14411926   9.00423431   0.00044049  73.18362500   5.14411926   9.00423431   0.00044049  77.41361147  77.41361147   2.65792225   5.01265918   0.21925001   8.33668504   3.75197008   1.00000000   2.34445332   1.00000000   4.27421280 
 5188.34186352  73.18362500   5.14411926   9.00423431   0.00044049  73.18362500   5.14411926   9.00423431   0.00044049  75.95882090  75.95882090   2.64805779   4.99582978   0.21880991   8.33668504   3.75197008   1.00000000   2.34445332   1.00000000   4.27421280 
 5188.59186352  73.18362500   5.14411926   9.00423431   0.00044049  73.18362500   5.14411926   9.00423431   0.00044049  74.50403034  74.50403034   2.63819333   4.97900038   0.21836981   8.33668504   3.75197008   1.00000000   2.34445332   1.00000000   4.27421280 
 5188.84186352  73.18423651   5.14403882   9.00435989   0.00044050  73.18423651   5.14403882   9.00435989   0.00044050  73.08888480  73.08888480   2.62913658   4.96270414   0.21802021   8.33668504   3.75197008   1.00000000   2.34445332   1.00000000   4.27421280 
