~VERSION INFORMATION SECTION
VERS.           2.0  :CWLS Log ASCII Standard - 2.0
WRAP.           NO   :One line per depth
#               Created in UTAPWeLS
~WELL INFORMATION SECTION
#MNEM.UNIT  VALUE/NAME   :DESCRIPTION    
STRT.FT  3015.0919       :Start Depth    
STOP.FT  6361.3419       :Stop Depth     
STEP.FT  0.25            :Step           
NULL.    -999.25         :Null Value     
WELL.    UNKNOWN         :Well Name      
CTRY.    UNKNOWN         :Country        
CNTY.    UNKNOWN         :County         
STAT.    UNKNOWN         :State          
API .    UNKNOWN         :API number     
UWI .    UNKNOWN         :Unique well ID 
LOC .    UNKNOWN         :Well Location  
FLD .    UNKNOWN         :Field          
COMP.    UNKNOWN         :Company        
SRVC.    UNKNOWN         :Service Company
DATE.    22-Apr-2024     :Date           
~PARAMETER INFORMATION SECTION
#MNEM.UNITS  VALUE   :DESCRIPTION OF PARAMETER
~CURVE INFORMATION SECTION
#MNEM                          .UNITS     API CODES   :DESCRIPTION OF MNEMONIC                                                                    
DEPTH                          .FT                    :Gamma Ray (Longhorn Wireline) Simulated Depth                                              
ECGR^{(DOI)}                   .API                   :Gamma Ray (Longhorn Wireline) Simulated Environmentally-Corrected Gamma Ray (DOI Corrected)
Th^{(DOI)}                     .PPM                   :Gamma Ray (Longhorn Wireline) Simulated Thorium Concentration (DOI Corrected)              
U^{(DOI)}                      .PPM                   :Gamma Ray (Longhorn Wireline) Simulated Uranium Concentration (DOI Corrected)              
K^{(DOI)}                      .FRACTION              :Gamma Ray (Longhorn Wireline) Simulated Potassium Concentration (DOI Corrected)            
ECGR                           .API                   :Gamma Ray (Longhorn Wireline) Simulated Environmentally-Corrected Gamma Ray                
Th                             .PPM                   :Gamma Ray (Longhorn Wireline) Simulated Thorium Concentration                              
U                              .PPM                   :Gamma Ray (Longhorn Wireline) Simulated Uranium Concentration                              
K                              .FRACTION              :Gamma Ray (Longhorn Wireline) Simulated Potassium Concentration                            
GR_Field                       .                      :                                                                                           
GR                             .API                   :Custom Log Calculation                                                                     
RHOZ                           .G/CM3                 :Custom Log Calculation                                                                     
PEFZ                           .B/E-                  :Custom Log Calculation                                                                     
NPOR                           .FRACTION              :Custom Log Calculation                                                                     
RD_V                           .CM^2/S                :Ion Diffusivity (Na, Double Layer)                                                         
RD_H                           .CM^2/S                :Ion Diffusivity (Na, Shale)                                                                
Resistivity Mud                .OHM-M                 :Resistivity Mud                                                                            
RS_H                           .OHM-M                 :Resistivity Formation (Uninvaded)                                                          
Resistivity (Perpendicular) Mud.OHM-M                 :Resistivity (Perpendicular) Mud                                                            
RS_V                           .OHM-M                 :Resistivity (Perpendicular) Formation (Uninvaded)                                          
~A DEPTH        ECGR^{(DOI)} Th^{(DOI)}   U^{(DOI)}    K^{(DOI)}    ECGR         Th           U            K            GR_Field     GR           RHOZ         PEFZ         NPOR         RD_V         RD_H         Resistivity  RS_H         Resistivity  RS_V         
# ...
 5111.59186352  80.70999594   7.45528603   8.75838661   0.00245709  80.70999594   7.45528603   8.75838661   0.00245709  80.76645938  80.76645938   2.46182050   5.39887097   0.31694570   7.50524870   1.13878343   1.00000000   0.50846521   1.00000000   7.07105060 
 5111.84186352  80.70999594   7.45528603   8.75838661   0.00245709  80.70999594   7.45528603   8.75838661   0.00245709  81.10901792  81.10901792   2.46322009   5.41897436   0.31613691   7.50524870   1.13878343   1.00000000   0.50846521   1.00000000   7.07105060 
 5112.09186352  80.70999594   7.45528603   8.75838661   0.00245709  80.70999594   7.45528603   8.75838661   0.00245709  81.45157645  81.45157645   2.46461968   5.43907776   0.31532812   7.50524870   1.13878343   1.00000000   0.50846521   1.00000000   7.07105060 
 5112.34186352  80.69952750   7.45482812   8.75706971   0.00245663  80.69952750   7.45482812   8.75706971   0.00245663  81.78195225  81.78195225   2.46507238   5.45543971   0.31431513   7.50524870   1.13878343   1.00000000   0.50846521   1.00000000   7.07105060 
 5112.59186352  80.56954310   7.44914231   8.74071801   0.00245091  80.56954310   7.44914231   8.74071801   0.00245091  81.97324042  81.97324042   2.45471460   5.42908645   0.31097083   7.50524870   1.13878343   1.00000000   0.50846521   1.00000000   7.07105060 
 5112.84186352  80.43955871   7.44345650   8.72436631   0.00244519  80.43955871   7.44345650   8.72436631   0.00244519  82.16452858  82.16452858   2.44435682   5.40273320   0.30762653   7.50524870   1.13878343   1.00000000   0.50846521   1.00000000   7.07105060 
 5113.09186352  80.16779757   7.43184122   8.69001681   0.00243345  80.16779757   7.43184122   8.69001681   0.00243345  82.09677144  82.09677144   2.43447451   5.37437417   0.30463475   7.50524870   1.13878343   1.00000000   0.50846521   1.00000000   7.07105060 
 5113.34186352  78.27740191   7.35253032   8.45019029   0.00235303  78.27740191   7.35253032   8.45019029   0.00235303  79.07154992  79.07154992   2.43002067   5.32311566   0.30566751   7.40271554   1.14860861   1.00000000   0.50175786   1.00000000   6.94498080 
 5113.59186352  76.38700625   7.27321943   8.21036377   0.00227261  76.38700625   7.27321943   8.21036377   0.00227261  76.04632840  76.04632840   2.42556683   5.27185715   0.30670028   7.00811822   1.18642065   1.00000000   0.47594474   1.00000000   6.45980305 
 5113.84186352  74.58794747   7.19775906   7.98211570   0.00219609  74.58794747   7.19775906   7.98211570   0.00219609  73.23439353  73.23439353   2.42182239   5.22011985   0.30730081   6.71605405   1.21440751   1.00000000   0.45683896   1.00000000   6.10069510 
 5114.09186352  73.83166217   7.16625936   7.88605638   0.00216399  73.83166217   7.16625936   7.88605638   0.00216399  72.85750632  72.85750632   2.42617697   5.16291639   0.30296667   6.71605405   1.21440751   1.00000000   0.45683896   1.00000000   6.10069510 
 5114.34186352  73.07537686   7.13475965   7.78999706   0.00213190  73.07537686   7.13475965   7.78999706   0.00213190  72.48061911  72.48061911   2.43053154   5.10571293   0.29863252   6.71605405   1.21440751   1.00000000   0.45683896   1.00000000   6.10069510 
 5114.59186352  72.37999986   7.10579681   7.70167398   0.00210239  72.37999986   7.10579681   7.70167398   0.00210239  72.12235679  72.12235679   2.43429033   5.05199249   0.29484014   6.71605405   1.21440751   1.00000000   0.45683896   1.00000000   6.10069510 
 5114.84186352  72.37999986   7.10579681   7.70167398   0.00210239  72.37999986   7.10579681   7.70167398   0.00210239  71.97673073  71.97673073   2.43124704   5.03803683   0.29723295   6.71605405   1.21440751   1.00000000   0.45683896   1.00000000   6.10069510 
 5115.09186352  72.37999986   7.10579681   7.70167398   0.00210239  72.37999986   7.10579681   7.70167398   0.00210239  71.83110467  71.83110467   2.42820376   5.02408117   0.29962576   6.71605405   1.21440751   1.00000000   0.45683896   1.00000000   6.10069510 
 5115.34186352  72.37999986   7.10579681   7.70167398   0.00210239  72.37999986   7.10579681   7.70167398   0.00210239  71.71109734  71.71109734   2.42443374   5.01033872   0.30184934   6.71605405   1.21440751   1.00000000   0.45683896   1.00000000   6.10069510 
 5115.59186352  72.37999986   7.10579681   7.70167398   0.00210239  72.37999986   7.10579681   7.70167398   0.00210239  71.88357357  71.88357357   2.41236668   4.99903039   0.30214086   6.71605405   1.21440751   1.00000000   0.45683896   1.00000000   6.10069510 
 5115.84186352  72.37999986   7.10579681   7.70167398   0.00210239  72.37999986   7.10579681   7.70167398   0.00210239  72.05604980  72.05604980   2.40029963   4.98772207   0.30243238   6.71605405   1.21440751   1.00000000   0.45683896   1.00000000   6.10069510 
 5116.09186352  72.37999986   7.10579681   7.70167398   0.00210239  72.37999986   7.10579681   7.70167398   0.00210239  72.23343350  72.23343350   2.39061551   4.98047537   0.30275521   6.71605405   1.21440751   1.00000000   0.45683896   1.00000000   6.10069510 
 5116.34186352  72.37999986   7.10579681   7.70167398   0.00210239  72.37999986   7.10579681   7.70167398   0.00210239  72.46684471  72.46684471   2.40813682   5.01959937   0.30343545   6.71605405   1.21440751   1.00000000   0.45683896   1.00000000   6.10069510 
 5116.59186352  72.37999986   7.10579681   7.70167398   0.00210239  72.37999986   7.10579681   7.70167398   0.00210239  72.70025592  72.70025592   2.42565813   5.05872338   0.30411569   6.71605405   1.21440751   1.00000000   0.45683896   1.00000000   6.10069510 
 5116.84186352  72.37928319   7.10576300   7.70158454   0.00210236  72.37928319   7.10576300   7.70158454   0.00210236  72.87576228  72.87576228   2.44088241   5.09327774   0.30440022   6.71605405   1.21440751   1.00000000   0.45683896   1.00000000   6.10069510 
 5117.09186352  72.37038451   7.10534323   7.70047399   0.00210199  72.37038451   7.10534323   7.70047399   0.00210199  72.39018146  72.39018146   2.42988195   5.07566148   0.30016703   6.71605405   1.21440751   1.00000000   0.45683896   1.00000000   6.10069510 
 5117.34186352  72.36148582   7.10492346   7.69936343   0.00210161  72.36148582   7.10492346   7.69936343   0.00210161  71.90460063  71.90460063   2.41888149   5.05804521   0.29593384   6.71605405   1.21440751   1.00000000   0.45683896   1.00000000   6.10069510 
 5117.59186352  72.28546411   7.10139843   7.68985037   0.00209842  72.28546411   7.10139843   7.68985037   0.00209842  71.44431482  71.44431482   2.40797853   5.03249944   0.29209950   6.71605405   1.21440751   1.00000000   0.45683896   1.00000000   6.10069510 
 5117.84186352  71.44311335   7.06242145   7.58440769   0.00206300  71.44311335   7.06242145   7.58440769   0.00206300  71.27281672  71.27281672   2.39818860   4.91642427   0.29281874   6.71605405   1.21440751   1.00000000   0.45683896   1.00000000   6.10069510 
 5118.09186352  70.60076258   7.02344446   7.47896501   0.00202758  70.60076258   7.02344446   7.47896501   0.00202758  71.10131861  71.10131861   2.38839867   4.80034909   0.29353799   6.71605405   1.21440751   1.00000000   0.45683896   1.00000000   6.10069510 
 5118.34186352  69.67789758   6.98086375   7.36337607   0.00198886  69.67789758   6.98086375   7.36337607   0.00198886  70.78001276  70.78001276   2.37830366   4.68732895   0.29421831   6.60250640   1.21966686   1.00000000   0.44724180   1.00000000   5.97307638 
 5118.59186352  67.83581890   6.89714004   7.13194951   0.00191238  67.83581890   6.89714004   7.13194951   0.00191238  68.74838423  68.74838423   2.36472561   4.60918754   0.29445422   6.16551996   1.23990740   1.00000000   0.41030725   1.00000000   5.48193766 
 5118.84186352  65.99374022   6.81341633   6.90052295   0.00183590  65.99374022   6.81341633   6.90052295   0.00183590  66.71675570  66.71675570   2.35114756   4.53104613   0.29469012   5.84208117   1.25488859   1.00000000   0.38296987   1.00000000   5.11841766 
 5119.09186352  64.29330349   6.73614029   6.68688771   0.00176530  64.29330349   6.73614029   6.68688771   0.00176530  64.81106089  64.81106089   2.33915199   4.46120296   0.29489864   5.84208117   1.25488859   1.00000000   0.38296987   1.00000000   5.11841766 
