~VERSION INFORMATION SECTION
VERS.           2.0  :CWLS Log ASCII Standard - 2.0
WRAP.           NO   :One line per depth
#               Created in UTAPWeLS
~WELL INFORMATION SECTION
#MNEM.UNIT  VALUE/NAME   :DESCRIPTION    
STRT.FT  3015.0919       :Start Depth    
STOP.FT  6361.3419       :Stop Depth     
STEP.FT  0.25            :Step           
NULL.    -999.25         :Null Value     
WELL.    UNKNOWN         :Well Name      
CTRY.    UNKNOWN         :Country        
CNTY.    UNKNOWN         :County         
STAT.    UNKNOWN         :State          
API .    UNKNOWN         :API number     
UWI .    UNKNOWN         :Unique well ID 
LOC .    UNKNOWN         :Well Location  
FLD .    UNKNOWN         :Field          
COMP.    UNKNOWN         :Company        
SRVC.    UNKNOWN         :Service Company
DATE.    22-Apr-2024     :Date           
~PARAMETER INFORMATION SECTION
#MNEM.UNITS  VALUE   :DESCRIPTION OF PARAMETER
~CURVE INFORMATION SECTION
#MNEM                          .UNITS     API CODES   :DESCRIPTION OF MNEMONIC                                                                    
DEPTH                          .FT                    :Gamma Ray (Longhorn Wireline) Simulated Depth                                              
ECGR^{(DOI)}                   .API                   :Gamma Ray (Longhorn Wireline) Simulated Environmentally-Corrected Gamma Ray (DOI Corrected)
Th^{(DOI)}                     .PPM                   :Gamma Ray (Longhorn Wireline) Simulated Thorium Concentration (DOI Corrected)              
U^{(DOI)}                      .PPM                   :Gamma Ray (Longhorn Wireline) Simulated Uranium Concentration (DOI Corrected)              
K^{(DOI)}                      .FRACTION              :Gamma Ray (Longhorn Wireline) Simulated Potassium Concentration (DOI Corrected)            
ECGR                           .API                   :Gamma Ray (Longhorn Wireline) Simulated Environmentally-Corrected Gamma Ray                
Th                             .PPM                   :Gamma Ray (Longhorn Wireline) Simulated Thorium Concentration                              
U                              .PPM                   :Gamma Ray (Longhorn Wireline) Simulated Uranium Concentration                              
K                              .FRACTION              :Gamma Ray (Longhorn Wireline) Simulated Potassium Concentration                            
GR_Field                       .                      :                                                                                           
GR                             .API                   :Custom Log Calculation                                                                     
RHOZ                           .G/CM3                 :Custom Log Calculation                                                                     
PEFZ                           .B/E-                  :Custom Log Calculation                                                                     
NPOR                           .FRACTION              :Custom Log Calculation                                                                     
RD_V                           .CM^2/S                :Ion Diffusivity (Na, Double Layer)                                                         
RD_H                           .CM^2/S                :Ion Diffusivity (Na, Shale)                                                                
Resistivity Mud                .OHM-M                 :Resistivity Mud                                                                            
RS_H                           .OHM-M                 :Resistivity Formation (Uninvaded)                                                          
Resistivity (Perpendicular) Mud.OHM-M                 :Resistivity (Perpendicular) Mud                                                            
RS_V                           .OHM-M                 :Resistivity (Perpendicular) Formation (Uninvaded)                                          
~A DEPTH        ECGR^{(DOI)} Th^{(DOI)}   U^{(DOI)}    K^{(DOI)}    ECGR         Th           U            K            GR_Field     GR           RHOZ         PEFZ         NPOR         RD_V         RD_H         Resistivity  RS_H         Resistivity  RS_V         
# ...
 5134.84186352  39.06071432   5.64983878   3.49601976   0.00069758  39.06071432   5.64983878   3.49601976   0.00069758  39.49552651  39.49552651   2.25679047   2.91298923   0.25432964   3.43210810   1.54584918   1.00000000   0.29604102   1.00000000   2.20139020 
 5135.09186352  39.06046964   5.64983703   3.49598622   0.00069756  39.06046964   5.64983703   3.49598622   0.00069756  39.51825339  39.51825339   2.25448373   2.91577784   0.25609623   3.43210810   1.54584918   1.00000000   0.29604102   1.00000000   2.20139020 
 5135.34186352  39.06022495   5.64983529   3.49595269   0.00069755  39.06022495   5.64983529   3.49595269   0.00069755  39.54098026  39.54098026   2.25217699   2.91856645   0.25786282   3.43210810   1.54584918   1.00000000   0.29604102   1.00000000   2.20139020 
 5135.59186352  39.05999997   5.64983368   3.49592185   0.00069753  39.05999997   5.64983368   3.49592185   0.00069753  39.55223367  39.55223367   2.24948824   2.91895307   0.25955816   3.43210810   1.54584918   1.00000000   0.29604102   1.00000000   2.20139020 
 5135.84186352  39.05999997   5.64983368   3.49592185   0.00069753  39.05999997   5.64983368   3.49592185   0.00069753  39.43249697  39.43249697   2.24243809   2.89191680   0.26044012   3.43210810   1.54584918   1.00000000   0.29604102   1.00000000   2.20139020 
 5136.09186352  39.05999997   5.64983368   3.49592185   0.00069753  39.05999997   5.64983368   3.49592185   0.00069753  39.31276027  39.31276027   2.23538794   2.86488053   0.26132208   3.43210810   1.54584918   1.00000000   0.29604102   1.00000000   2.20139020 
 5136.34186352  39.05999997   5.64983368   3.49592185   0.00069753  39.05999997   5.64983368   3.49592185   0.00069753  39.15631732  39.15631732   2.22941981   2.83985119   0.26214563   3.43210810   1.54584918   1.00000000   0.29604102   1.00000000   2.20139020 
 5136.59186352  39.05999997   5.64983368   3.49592185   0.00069753  39.05999997   5.64983368   3.49592185   0.00069753  38.58080689  38.58080689   2.23580489   2.83773446   0.26230239   3.43210810   1.54584918   1.00000000   0.29604102   1.00000000   2.20139020 
 5136.84186352  39.05999997   5.64983368   3.49592185   0.00069753  39.05999997   5.64983368   3.49592185   0.00069753  38.00529646  38.00529646   2.24218996   2.83561774   0.26245914   3.43210810   1.54584918   1.00000000   0.29604102   1.00000000   2.20139020 
 5137.09186352  39.05999997   5.64983368   3.49592185   0.00069753  39.05999997   5.64983368   3.49592185   0.00069753  37.54011054  37.54011054   2.24835966   2.83494649   0.26269836   3.43210810   1.54584918   1.00000000   0.29604102   1.00000000   2.20139020 
 5137.34186352  39.05999997   5.64983368   3.49592185   0.00069753  39.05999997   5.64983368   3.49592185   0.00069753  38.33447566  38.33447566   2.25207042   2.85077785   0.26387910   3.43210810   1.54584918   1.00000000   0.29604102   1.00000000   2.20139020 
 5137.59186352  39.05999997   5.64983368   3.49592185   0.00069753  39.05999997   5.64983368   3.49592185   0.00069753  39.12884078  39.12884078   2.25578118   2.86660921   0.26505983   3.43210810   1.54584918   1.00000000   0.29604102   1.00000000   2.20139020 
 5137.84186352  39.05999997   5.64983368   3.49592185   0.00069753  39.05999997   5.64983368   3.49592185   0.00069753  39.76455188  39.76455188   2.25991681   2.88184916   0.26611143   3.43210810   1.54584918   1.00000000   0.29604102   1.00000000   2.20139020 
 5138.09186352  39.05999997   5.64983368   3.49592185   0.00069753  39.05999997   5.64983368   3.49592185   0.00069753  38.58894412  38.58894412   2.26890306   2.89033720   0.26568882   3.43210810   1.54584918   1.00000000   0.29604102   1.00000000   2.20139020 
 5138.34186352  39.05999997   5.64983368   3.49592185   0.00069753  39.05999997   5.64983368   3.49592185   0.00069753  37.41333635  37.41333635   2.27788931   2.89882523   0.26526621   3.43210810   1.54584918   1.00000000   0.29604102   1.00000000   2.20139020 
 5138.59186352  39.03904642   5.64877032   3.49333712   0.00069665  39.03904642   5.64877032   3.49333712   0.00069665  36.38692751  36.38692751   2.28463487   2.90328156   0.26489155   3.43210810   1.54584918   1.00000000   0.29604102   1.00000000   2.20139020 
 5138.84186352  38.77887065   5.63556686   3.46124304   0.00068577  38.77887065   5.63556686   3.46124304   0.00068577  37.06389060  37.06389060   2.26579880   2.86170879   0.26506426   3.43210810   1.54584918   1.00000000   0.29604102   1.00000000   2.20139020 
 5139.09186352  38.51869488   5.62236340   3.42914896   0.00067488  38.51869488   5.62236340   3.42914896   0.00067488  37.74085368  37.74085368   2.24696273   2.82013601   0.26523697   3.43210810   1.54584918   1.00000000   0.29604102   1.00000000   2.20139020 
 5139.34186352  38.11200343   5.60195761   3.37883835   0.00065807  38.11200343   5.60195761   3.37883835   0.00065807  38.16688945  38.16688945   2.22808591   2.77415652   0.26564294   3.29145505   1.53055407   1.00000000   0.28732132   1.00000000   2.06995979 
 5139.59186352  36.03257408   5.49932445   3.12055354   0.00057366  36.03257408   5.49932445   3.12055354   0.00057366  35.72814208  35.72814208   2.20874381   2.67786650   0.26871205   2.75015391   1.47169106   1.00000000   0.25376367   1.00000000   1.56415182 
 5139.84186352  33.95314473   5.39669130   2.86226873   0.00048925  33.95314473   5.39669130   2.86226873   0.00048925  33.28939470  33.28939470   2.18940170   2.58157648   0.27178116   2.34950582   1.42812316   1.00000000   0.22892572   1.00000000   1.18977426 
 5140.09186352  32.00598532   5.30060380   2.62040966   0.00041019  32.00598532   5.30060380   2.62040966   0.00041019  31.03268412  31.03268412   2.17096232   2.48685122   0.27484076   2.34950582   1.42812316   1.00000000   0.22892572   1.00000000   1.18977426 
 5140.34186352  31.56892328   5.27924674   2.56607971   0.00039224  31.56892328   5.27924674   2.56607971   0.00039224  30.85424835  30.85424835   2.16282903   2.40999063   0.27779170   2.34950582   1.42812316   1.00000000   0.22892572   1.00000000   1.18977426 
 5140.59186352  31.13186124   5.25788968   2.51174976   0.00037429  31.13186124   5.25788968   2.51174976   0.00037429  30.67581257  30.67581257   2.15469574   2.33313004   0.28074264   2.34950582   1.42812316   1.00000000   0.22892572   1.00000000   1.18977426 
 5140.84186352  30.72999849   5.23825264   2.46179533   0.00035778  30.72999849   5.23825264   2.46179533   0.00035778  30.54068141  30.54068141   2.14641244   2.26388385   0.28325533   2.34950582   1.42812316   1.00000000   0.22892572   1.00000000   1.18977426 
 5141.09186352  30.72999849   5.23825264   2.46179533   0.00035778  30.72999849   5.23825264   2.46179533   0.00035778  30.89994959  30.89994959   2.13641641   2.28156968   0.28076458   2.34950582   1.42812316   1.00000000   0.22892572   1.00000000   1.18977426 
 5141.34186352  30.72999849   5.23825264   2.46179533   0.00035778  30.72999849   5.23825264   2.46179533   0.00035778  31.25921777  31.25921777   2.12642038   2.29925550   0.27827384   2.34950582   1.42812316   1.00000000   0.22892572   1.00000000   1.18977426 
 5141.59186352  30.72993429   5.23825026   2.46178703   0.00035778  30.72993429   5.23825026   2.46178703   0.00035778  31.55794139  31.55794139   2.11826471   2.31529196   0.27586180   2.34950582   1.42812316   1.00000000   0.22892572   1.00000000   1.18977426 
 5141.84186352  30.72913712   5.23822070   2.46168395   0.00035774  30.72913712   5.23822070   2.46168395   0.00035774  31.16544071  31.16544071   2.13112007   2.31249798   0.27434828   2.34950582   1.42812316   1.00000000   0.22892572   1.00000000   1.18977426 
 5142.09186352  30.72833996   5.23819113   2.46158088   0.00035771  30.72833996   5.23819113   2.46158088   0.00035771  30.77294004  30.77294004   2.14397542   2.30970400   0.27283477   2.34950582   1.42812316   1.00000000   0.22892572   1.00000000   1.18977426 
 5142.34186352  30.69005212   5.23661822   2.45671847   0.00035604  30.69005212   5.23661822   2.45671847   0.00035604  30.41315566  30.41315566   2.15458853   2.29946316   0.27149383   2.34950582   1.42812316   1.00000000   0.22892572   1.00000000   1.18977426 
