~VERSION INFORMATION SECTION
VERS.           2.0  :CWLS Log ASCII Standard - 2.0
WRAP.           NO   :One line per depth
#               Created in UTAPWeLS
~WELL INFORMATION SECTION
#MNEM.UNIT  VALUE/NAME   :DESCRIPTION    
STRT.FT  3015.0919       :Start Depth    
STOP.FT  6361.3419       :Stop Depth     
STEP.FT  0.25            :Step           
NULL.    -999.25         :Null Value     
WELL.    UNKNOWN         :Well Name      
CTRY.    UNKNOWN         :Country        
CNTY.    UNKNOWN         :County         
STAT.    UNKNOWN         :State          
API .    UNKNOWN         :API number     
UWI .    UNKNOWN         :Unique well ID 
LOC .    UNKNOWN         :Well Location  
FLD .    UNKNOWN         :Field          
COMP.    UNKNOWN         :Company        
SRVC.    UNKNOWN         :Service Company
DATE.    22-Apr-2024     :Date           
~PARAMETER INFORMATION SECTION
#MNEM.UNITS  VALUE   :DESCRIPTION OF PARAMETER
~CURVE INFORMATION SECTION
#MNEM                          .UNITS     API CODES   :DESCRIPTION OF MNEMONIC                                                                    
DEPTH                          .FT                    :Gamma Ray (Longhorn Wireline) Simulated Depth                                              
ECGR^{(DOI)}                   .API                   :Gamma Ray (Longhorn Wireline) Simulated Environmentally-Corrected Gamma Ray (DOI Corrected)
Th^{(DOI)}                     .PPM                   :Gamma Ray (Longhorn Wireline) Simulated Thorium Concentration (DOI Corrected)              
U^{(DOI)}                      .PPM                   :Gamma Ray (Longhorn Wireline) Simulated Uranium Concentration (DOI Corrected)              
K^{(DOI)}                      .FRACTION              :Gamma Ray (Longhorn Wireline) Simulated Potassium Concentration (DOI Corrected)            
ECGR                           .API                   :Gamma Ray (Longhorn Wireline) Simulated Environmentally-Corrected Gamma Ray                
Th                             .PPM                   :Gamma Ray (Longhorn Wireline) Simulated Thorium Concentration                              
U                              .PPM                   :Gamma Ray (Longhorn Wireline) Simulated Uranium Concentration                              
K                              .FRACTION              :Gamma Ray (Longhorn Wireline) Simulated Potassium Concentration                            
GR_Field                       .                      :                                                                                           
GR                             .API                   :Custom Log Calculation                                                                     
RHOZ                           .G/CM3                 :Custom Log Calculation                                                                     
PEFZ                           .B/E-                  :Custom Log Calculation                                                                     
NPOR                           .FRACTION              :Custom Log Calculation                                                                     
RD_V                           .CM^2/S                :Ion Diffusivity (Na, Double Layer)                                                         
RD_H                           .CM^2/S                :Ion Diffusivity (Na, Shale)                                                                
Resistivity Mud                .OHM-M                 :Resistivity Mud                                                                            
RS_H                           .OHM-M                 :Resistivity Formation (Uninvaded)                                                          
Resistivity (Perpendicular) Mud.OHM-M                 :Resistivity (Perpendicular) Mud                                                            
RS_V                           .OHM-M                 :Resistivity (Perpendicular) Formation (Uninvaded)                                          
~A DEPTH        ECGR^{(DOI)} Th^{(DOI)}   U^{(DOI)}    K^{(DOI)}    ECGR         Th           U            K            GR_Field     GR           RHOZ         PEFZ         NPOR         RD_V         RD_H         Resistivity  RS_H         Resistivity  RS_V         
# ...
 5173.59186352  68.44752933   6.23324373   7.84212564   0.00035437  68.44752933   6.23324373   7.84212564   0.00035437  70.92689662  70.92689662   2.63141504   4.74284714   0.20410015   6.69816377   6.69816377   1.00000000   2.21054225   1.00000000   2.21054225 
 5173.84186352  68.52657824   6.23451759   7.85359465   0.00035503  68.52657824   6.23451759   7.85359465   0.00035503  71.99399821  71.99399821   2.61534653   4.74682228   0.20349312   6.69816377   6.69816377   1.00000000   2.21054225   1.00000000   2.21054225 
 5174.09186352  69.35997587   6.24788683   7.97454281   0.00036192  69.35997587   6.24788683   7.97454281   0.00036192  72.75466983  72.75466983   2.62230868   4.78963414   0.20065460   6.69816377   6.69816377   1.00000000   2.21054225   1.00000000   2.21054225 
 5174.34186352  70.19337350   6.26125607   8.09549096   0.00036882  70.19337350   6.26125607   8.09549096   0.00036882  73.51534145  73.51534145   2.62927084   4.83244599   0.19781608   6.49864251   6.49864251   1.00000000   2.59405840   1.00000000   2.59405840 
 5174.59186352  71.06964576   6.27528503   8.22267512   0.00037606  71.06964576   6.27528503   8.22267512   0.00037606  74.18422014  74.18422014   2.63968573   4.87748252   0.19503389   5.73078792   5.73078792   1.00000000   4.07001458   1.00000000   4.07001458 
 5174.84186352  72.43540847   6.29684586   8.42105431   0.00038725  72.43540847   6.29684586   8.42105431   0.00038725  73.80511882  73.80511882   2.68951975   4.94791769   0.19289487   5.16245460   5.16245460   1.00000000   5.16245460   1.00000000   5.16245460 
 5175.09186352  73.80117118   6.31840669   8.61943351   0.00039843  73.80117118   6.31840669   8.61943351   0.00039843  73.42601750  73.42601750   2.73935376   5.01835286   0.19075585   5.16245460   5.16245460   1.00000000   5.16245460   1.00000000   5.16245460 
 5175.34186352  75.05994042   6.33827702   8.80227234   0.00040874  75.05994042   6.33827702   8.80227234   0.00040874  73.11445216  73.11445216   2.78501759   5.08063336   0.18858694   5.16245460   5.16245460   1.00000000   5.16245460   1.00000000   5.16245460 
 5175.59186352  75.09718832   6.33884732   8.80769017   0.00040905  75.09718832   6.33884732   8.80769017   0.00040905  73.57393052  73.57393052   2.78307132   5.04981379   0.18607680   5.16245460   5.16245460   1.00000000   5.16245460   1.00000000   5.16245460 
 5175.84186352  75.13443622   6.33941761   8.81310799   0.00040935  75.13443622   6.33941761   8.81310799   0.00040935  74.03340889  74.03340889   2.78112504   5.01899421   0.18356665   5.16245460   5.16245460   1.00000000   5.16245460   1.00000000   5.16245460 
 5176.09186352  75.16868432   6.33994198   8.81808949   0.00040963  75.16868432   6.33994198   8.81808949   0.00040963  74.51486747  74.51486747   2.77992259   4.99280454   0.18130605   5.16245460   5.16245460   1.00000000   5.16245460   1.00000000   5.16245460 
 5176.34186352  75.16868432   6.33994198   8.81808949   0.00040963  75.16868432   6.33994198   8.81808949   0.00040963  75.24726940  75.24726940   2.78721218   5.01947344   0.18189452   5.16245460   5.16245460   1.00000000   5.16245460   1.00000000   5.16245460 
 5176.59186352  75.16868432   6.33994198   8.81808949   0.00040963  75.16868432   6.33994198   8.81808949   0.00040963  75.97967133  75.97967133   2.79450177   5.04614234   0.18248298   5.16245460   5.16245460   1.00000000   5.16245460   1.00000000   5.16245460 
 5176.84186352  75.16868432   6.33994198   8.81808949   0.00040963  75.16868432   6.33994198   8.81808949   0.00040963  76.52957450  76.52957450   2.80123820   5.07285785   0.18297309   5.16245460   5.16245460   1.00000000   5.16245460   1.00000000   5.16245460 
 5177.09186352  75.16868432   6.33994198   8.81808949   0.00040963  75.16868432   6.33994198   8.81808949   0.00040963  74.99592867  74.99592867   2.80165921   5.10010554   0.18234028   5.16245460   5.16245460   1.00000000   5.16245460   1.00000000   5.16245460 
 5177.34186352  75.16868432   6.33994198   8.81808949   0.00040963  75.16868432   6.33994198   8.81808949   0.00040963  73.46228284  73.46228284   2.80208023   5.12735323   0.18170748   5.16245460   5.16245460   1.00000000   5.16245460   1.00000000   5.16245460 
 5177.59186352  75.16868432   6.33994198   8.81808949   0.00040963  75.16868432   6.33994198   8.81808949   0.00040963  72.18602267  72.18602267   2.80107454   5.15257981   0.18105417   5.16245460   5.16245460   1.00000000   5.16245460   1.00000000   5.16245460 
 5177.84186352  75.16868432   6.33994198   8.81808949   0.00040963  75.16868432   6.33994198   8.81808949   0.00040963  73.84827918  73.84827918   2.78378050   5.15473181   0.18016671   5.16245460   5.16245460   1.00000000   5.16245460   1.00000000   5.16245460 
 5178.09186352  75.16868432   6.33994198   8.81808949   0.00040963  75.16868432   6.33994198   8.81808949   0.00040963  75.51053569  75.51053569   2.76648646   5.15688380   0.17927925   5.16245460   5.16245460   1.00000000   5.16245460   1.00000000   5.16245460 
 5178.34186352  75.16850220   6.33993370   8.81806522   0.00040963  75.16850220   6.33993370   8.81806522   0.00040963  76.97580964  76.97580964   2.75078777   5.15742890   0.17869936   5.16245460   5.16245460   1.00000000   5.16245460   1.00000000   5.16245460 
 5178.59186352  75.16624082   6.33983086   8.81776386   0.00040962  75.16624082   6.33983086   8.81776386   0.00040962  76.19217618  76.19217618   2.75330291   5.13962844   0.18163095   5.16245460   5.16245460   1.00000000   5.16245460   1.00000000   5.16245460 
 5178.84186352  75.16397944   6.33972802   8.81746249   0.00040960  75.16397944   6.33972802   8.81746249   0.00040960  75.40854272  75.40854272   2.75581804   5.12182798   0.18456254   5.16245460   5.16245460   1.00000000   5.16245460   1.00000000   5.16245460 
 5179.09186352  75.05552009   6.33426233   8.80324217   0.00040885  75.05552009   6.33426233   8.80324217   0.00040885  74.64785284  74.64785284   2.75513917   5.08692021   0.18757593   5.16245460   5.16245460   1.00000000   5.16245460   1.00000000   5.16245460 
 5179.34186352  73.73462130   6.26757013   8.63011214   0.00039963  73.73462130   6.26757013   8.63011214   0.00039963  74.14910488  74.14910488   2.71799501   4.85670204   0.19152328   5.16245460   5.16245460   1.00000000   5.16245460   1.00000000   5.16245460 
 5179.59186352  72.41372252   6.20087794   8.45698211   0.00039041  72.41372252   6.20087794   8.45698211   0.00039041  73.65035692  73.65035692   2.68085084   4.62648386   0.19547062   5.16245460   5.16245460   1.00000000   5.16245460   1.00000000   5.16245460 
 5179.84186352  70.72583116   6.11612780   8.23553870   0.00037871  70.72583116   6.11612780   8.23553870   0.00037871  72.63960682  72.63960682   2.64135782   4.39340256   0.19957859   4.96664276   4.82813990   1.00000000   4.56216555   1.00000000   4.66632957 
 5180.09186352  64.84806465   5.82521390   7.46251191   0.00033858  64.84806465   5.82521390   7.46251191   0.00033858  65.78343857  65.78343857   2.57504845   4.12763353   0.20552039   4.21306382   3.54153477   1.00000000   2.25196215   1.00000000   2.75699984 
 5180.34186352  58.97029814   5.53430000   6.68948513   0.00029845  58.97029814   5.53430000   6.68948513   0.00029845  58.92727032  58.92727032   2.50873908   3.86186450   0.21146218   3.65529673   2.58924434   1.00000000   0.54204780   1.00000000   1.34379513 
 5180.59186352  53.51207899   5.26421346   5.97161095   0.00026118  53.51207899   5.26421346   5.97161095   0.00026118  52.56921426  52.56921426   2.44681924   3.61544102   0.21743637   3.65529673   2.58924434   1.00000000   0.54204780   1.00000000   1.34379513 
 5180.84186352  52.84374159   5.23190838   5.88340228   0.00025657  52.84374159   5.23190838   5.88340228   0.00025657  51.89799780  51.89799780   2.43501367   3.58988162   0.22378038   3.65529673   2.58924434   1.00000000   0.54204780   1.00000000   1.34379513 
 5181.09186352  52.17540420   5.19960330   5.79519361   0.00025195  52.17540420   5.19960330   5.79519361   0.00025195  51.22678134  51.22678134   2.42320811   3.56432222   0.23012439   3.65529673   2.58924434   1.00000000   0.54204780   1.00000000   1.34379513 
