~VERSION INFORMATION SECTION
VERS.           2.0  :CWLS Log ASCII Standard - 2.0
WRAP.           NO   :One line per depth
#               Created in UTAPWeLS
~WELL INFORMATION SECTION
#MNEM.UNIT  VALUE/NAME   :DESCRIPTION    
STRT.FT  3015.0919       :Start Depth    
STOP.FT  6361.3419       :Stop Depth     
STEP.FT  0.25            :Step           
NULL.    -999.25         :Null Value     
WELL.    UNKNOWN         :Well Name      
CTRY.    UNKNOWN         :Country        
CNTY.    UNKNOWN         :County         
STAT.    UNKNOWN         :State          
API .    UNKNOWN         :API number     
UWI .    UNKNOWN         :Unique well ID 
LOC .    UNKNOWN         :Well Location  
FLD .    UNKNOWN         :Field          
COMP.    UNKNOWN         :Company        
SRVC.    UNKNOWN         :Service Company
DATE.    22-Apr-2024     :Date           
~PARAMETER INFORMATION SECTION
#MNEM.UNITS  VALUE   :DESCRIPTION OF PARAMETER
~CURVE INFORMATION SECTION
#MNEM                          .UNITS     API CODES   :DESCRIPTION OF MNEMONIC                                                                    
DEPTH                          .FT                    :Gamma Ray (Longhorn Wireline) Simulated Depth                                              
ECGR^{(DOI)}                   .API                   :Gamma Ray (Longhorn Wireline) Simulated Environmentally-Corrected Gamma Ray (DOI Corrected)
Th^{(DOI)}                     .PPM                   :Gamma Ray (Longhorn Wireline) Simulated Thorium Concentration (DOI Corrected)              
U^{(DOI)}                      .PPM                   :Gamma Ray (Longhorn Wireline) Simulated Uranium Concentration (DOI Corrected)              
K^{(DOI)}                      .FRACTION              :Gamma Ray (Longhorn Wireline) Simulated Potassium Concentration (DOI Corrected)            
ECGR                           .API                   :Gamma Ray (Longhorn Wireline) Simulated Environmentally-Corrected Gamma Ray                
Th                             .PPM                   :Gamma Ray (Longhorn Wireline) Simulated Thorium Concentration                              
U                              .PPM                   :Gamma Ray (Longhorn Wireline) Simulated Uranium Concentration                              
K                              .FRACTION              :Gamma Ray (Longhorn Wireline) Simulated Potassium Concentration                            
GR_Field                       .                      :                                                                                           
GR                             .API                   :Custom Log Calculation                                                                     
RHOZ                           .G/CM3                 :Custom Log Calculation                                                                     
PEFZ                           .B/E-                  :Custom Log Calculation                                                                     
NPOR                           .FRACTION              :Custom Log Calculation                                                                     
RD_V                           .CM^2/S                :Ion Diffusivity (Na, Double Layer)                                                         
RD_H                           .CM^2/S                :Ion Diffusivity (Na, Shale)                                                                
Resistivity Mud                .OHM-M                 :Resistivity Mud                                                                            
RS_H                           .OHM-M                 :Resistivity Formation (Uninvaded)                                                          
Resistivity (Perpendicular) Mud.OHM-M                 :Resistivity (Perpendicular) Mud                                                            
RS_V                           .OHM-M                 :Resistivity (Perpendicular) Formation (Uninvaded)                                          
~A DEPTH        ECGR^{(DOI)} Th^{(DOI)}   U^{(DOI)}    K^{(DOI)}    ECGR         Th           U            K            GR_Field     GR           RHOZ         PEFZ         NPOR         RD_V         RD_H         Resistivity  RS_H         Resistivity  RS_V         
# ...
 5196.84186352  22.40000041   4.90153170   1.40043771   0.00000000  22.40000041   4.90153170   1.40043771   0.00000000  22.20586742  22.20586742   2.66823342   1.69696435  -0.00634301   0.00001000   0.00000300   1.00000000   1.00000000   1.00000000   1.00000000 
 5197.09186352  22.41401572   4.90113496   1.40271752   0.00000018  22.41401572   4.90113496   1.40271752   0.00000018  22.21438080  22.21438080   2.66877534   1.69953499  -0.00637683   0.00001000   0.00000300   1.00000000   1.00000000   1.00000000   1.00000000 
 5197.34186352  22.58804081   4.89620876   1.43102548   0.00000235  22.58804081   4.89620876   1.43102548   0.00000235  22.48740565  22.48740565   2.66869211   1.71288086  -0.00204369   0.00001000   0.00000300   1.00000000   1.00000000   1.00000000   1.00000000 
 5197.59186352  22.76206590   4.89128255   1.45933344   0.00000453  22.76206590   4.89128255   1.45933344   0.00000453  22.76043051  22.76043051   2.66860888   1.72622674   0.00228945   0.00001000   0.00000300   1.00000000   1.00000000   1.00000000   1.00000000 
 5197.84186352  23.77529225   4.86345515   1.62388526   0.00001679  23.77529225   4.86345515   1.62388526   0.00001679  23.86031750  23.86031750   2.66614949   1.79811677   0.00751359   0.00001000   0.00000300   1.00000000   1.00000000   1.00000000   1.00000000 
 5198.09186352  34.36949853   4.57416981   3.34390396   0.00014414  34.36949853   4.57416981   3.34390396   0.00014414  34.40031143  34.40031143   2.63656207   2.53839280   0.02291020   0.00001000   0.00000300   1.00000000   1.00000000   1.00000000   1.00000000 
 5198.34186352  44.96370481   4.28488447   5.06392267   0.00027150  44.96370481   4.28488447   5.06392267   0.00027150  44.94030535  44.94030535   2.60697464   3.27866882   0.03830681   0.00001000   0.00000300   1.00000000   1.00000000   1.00000000   1.00000000 
 5198.59186352  56.04059809   3.98305395   6.86208446   0.00040447  56.04059809   3.98305395   6.86208446   0.00040447  55.94006631  55.94006631   2.58002342   4.03219916   0.05559711   0.00001000   0.00000300   1.00000000   1.00000000   1.00000000   1.00000000 
 5198.84186352  72.62822488   3.53799775   9.55238906   0.00060155  72.62822488   3.53799775   9.55238906   0.00060155  72.18888842  72.18888842   2.58316917   4.93705114   0.09450736   0.00001000   0.00000300   1.00000000   1.00000000   1.00000000   1.00000000 
 5199.09186352  89.21585166   3.09294155  12.24269365   0.00079863  89.21585166   3.09294155  12.24269365   0.00079863  88.43771054  88.43771054   2.58631492   5.84190312   0.13341760   0.00001000   0.00000300   1.00000000   1.00000000   1.00000000   1.00000000 
 5199.34186352 104.50065951   2.68286859  14.72168629   0.00098022 104.50065951   2.68286859  14.72168629   0.00098022 103.44746513 103.44746513   2.58978248   6.67634323   0.17265506   0.00001000   0.00000300   1.00000000   1.00000000   1.00000000   1.00000000 
 5199.59186352 104.91146419   2.67219172  14.78817583   0.00098507 104.91146419   2.67219172  14.78817583   0.00098507 104.31105269 104.31105269   2.59692396   6.70690633   0.21562813   0.00001000   0.00000300   1.00000000   1.00000000   1.00000000   1.00000000 
 5199.84186352 105.32226887   2.66151486  14.85466536   0.00098993 105.32226887   2.66151486  14.85466536   0.00098993 105.17464025 105.17464025   2.60406545   6.73746942   0.25860120   0.00001000   0.00000300   1.00000000   1.00000000   1.00000000   1.00000000 
 5200.09186352 105.69998893   2.65169787  14.91580009   0.00099439 105.69998893   2.65169787  14.91580009   0.00099439 106.08138094 106.08138094   2.61036007   6.76776682   0.29911115   0.00001000   0.00000300   1.00000000   1.00000000   1.00000000   1.00000000 
 5200.34186352 105.69998893   2.65169787  14.91580009   0.00099439 105.69998893   2.65169787  14.91580009   0.00099439 107.48079151 107.48079151   2.60698624   6.79503082   0.31150020   0.00001000   0.00000300   1.00000000   1.00000000   1.00000000   1.00000000 
 5200.59186352 105.69998893   2.65169787  14.91580009   0.00099439 105.69998893   2.65169787  14.91580009   0.00099439 108.88020208 108.88020208   2.60361240   6.82229483   0.32388926   0.00001000   0.00000300   1.00000000   1.00000000   1.00000000   1.00000000 
 5200.84186352 105.69998893   2.65169787  14.91580009   0.00099439 105.69998893   2.65169787  14.91580009   0.00099439 110.07771164 110.07771164   2.60075899   6.84564930   0.33531595   0.00001000   0.00000300   1.00000000   1.00000000   1.00000000   1.00000000 
 5201.09186352 105.69998893   2.65169787  14.91580009   0.00099439 105.69998893   2.65169787  14.91580009   0.00099439 108.97016082 108.97016082   2.60384723   6.82436935   0.33575544   0.00001000   0.00000300   1.00000000   1.00000000   1.00000000   1.00000000 
 5201.34186352 105.69998893   2.65169787  14.91580009   0.00099439 105.69998893   2.65169787  14.91580009   0.00099439 107.86261000 107.86261000   2.60693547   6.80308941   0.33619494   0.00001000   0.00000300   1.00000000   1.00000000   1.00000000   1.00000000 
 5201.59186352 105.69998893   2.65169787  14.91580009   0.00099439 105.69998893   2.65169787  14.91580009   0.00099439 106.77636190 106.77636190   2.61054541   6.78386841   0.33680697   0.00001000   0.00000300   1.00000000   1.00000000   1.00000000   1.00000000 
 5201.84186352 105.69998893   2.65169787  14.91580009   0.00099439 105.69998893   2.65169787  14.91580009   0.00099439 105.93332249 105.93332249   2.62011154   6.78815388   0.33938876   0.00001000   0.00000300   1.00000000   1.00000000   1.00000000   1.00000000 
 5202.09186352 105.69998893   2.65169787  14.91580009   0.00099439 105.69998893   2.65169787  14.91580009   0.00099439 105.09028308 105.09028308   2.62967767   6.79243936   0.34197056   0.00001000   0.00000300   1.00000000   1.00000000   1.00000000   1.00000000 
 5202.34186352 105.69998893   2.65169787  14.91580009   0.00099439 105.69998893   2.65169787  14.91580009   0.00099439 104.30296890 104.30296890   2.63803297   6.79922606   0.34486149   0.00001000   0.00000300   1.00000000   1.00000000   1.00000000   1.00000000 
 5202.59186352 105.69998893   2.65169787  14.91580009   0.00099439 105.69998893   2.65169787  14.91580009   0.00099439 104.15185776 104.15185776   2.63256452   6.83456872   0.35128169   0.00001000   0.00000300   1.00000000   1.00000000   1.00000000   1.00000000 
 5202.84186352 105.69998893   2.65169787  14.91580009   0.00099439 105.69998893   2.65169787  14.91580009   0.00099439 104.00074662 104.00074662   2.62709607   6.86991138   0.35770190   0.00001000   0.00000300   1.00000000   1.00000000   1.00000000   1.00000000 
 5203.09186352 105.56878979   2.64889338  14.89374531   0.00100846 105.56878979   2.64889338  14.89374531   0.00100846 103.76702213 103.76702213   2.61248096   6.89268650   0.36497189   0.00001000   0.00000300   1.00000000   1.00000000   1.00000000   1.00000000 
 5203.34186352 103.93971833   2.61407060  14.61989582   0.00118315 103.93971833   2.61407060  14.61989582   0.00118315 102.59011879 102.59011879   2.49344044   6.77198067   0.38194371   0.00001000   0.00000300   1.00000000   1.00000000   1.00000000   1.00000000 
 5203.59186352 102.31064688   2.57924782  14.34604633   0.00135783 102.31064688   2.57924782  14.34604633   0.00135783 101.41321545 101.41321545   2.37439992   6.65127484   0.39891553   0.00001000   0.00000300   1.00000000   1.00000000   1.00000000   1.00000000 
 5203.84186352  99.22297940   2.51491541  13.82793569   0.00168147  99.22297940   2.51491541  13.82793569   0.00168147  98.71903731  98.71903731   2.24382804   6.47493195   0.41825544   0.00001000   0.00000300   1.00000000   1.00000000   1.00000000   1.00000000 
 5204.09186352  79.48283540   2.11367788  10.52114804   0.00370570  79.48283540   2.11367788  10.52114804   0.00370570  78.70245968  78.70245968   1.98160515   5.66339264   0.46463121   0.00001000   0.00000300   1.00000000   1.00000000   1.00000000   1.00000000 
 5204.34186352  59.74269141   1.71244035   7.21436039   0.00572992  59.74269141   1.71244035   7.21436039   0.00572992  58.68588205  58.68588205   1.71938227   4.85185332   0.51100699   0.00001000   0.00000300   1.00000000   1.00000000   1.00000000   1.00000000 
