~VERSION INFORMATION SECTION
VERS.           2.0  :CWLS Log ASCII Standard - 2.0
WRAP.           NO   :One line per depth
#               Created in UTAPWeLS
~WELL INFORMATION SECTION
#MNEM.UNIT  VALUE/NAME   :DESCRIPTION    
STRT.FT  3015.0919       :Start Depth    
STOP.FT  6361.3419       :Stop Depth     
STEP.FT  0.25            :Step           
NULL.    -999.25         :Null Value     
WELL.    UNKNOWN         :Well Name      
CTRY.    UNKNOWN         :Country        
CNTY.    UNKNOWN         :County         
STAT.    UNKNOWN         :State          
API .    UNKNOWN         :API number     
UWI .    UNKNOWN         :Unique well ID 
LOC .    UNKNOWN         :Well Location  
FLD .    UNKNOWN         :Field          
COMP.    UNKNOWN         :Company        
SRVC.    UNKNOWN         :Service Company
DATE.    22-Apr-2024     :Date           
~PARAMETER INFORMATION SECTION
#MNEM.UNITS  VALUE   :DESCRIPTION OF PARAMETER
~CURVE INFORMATION SECTION
#MNEM                          .UNITS     API CODES   :DESCRIPTION OF MNEMONIC                                                                    
DEPTH                          .FT                    :Gamma Ray (Longhorn Wireline) Simulated Depth                                              
ECGR^{(DOI)}                   .API                   :Gamma Ray (Longhorn Wireline) Simulated Environmentally-Corrected Gamma Ray (DOI Corrected)
Th^{(DOI)}                     .PPM                   :Gamma Ray (Longhorn Wireline) Simulated Thorium Concentration (DOI Corrected)              
U^{(DOI)}                      .PPM                   :Gamma Ray (Longhorn Wireline) Simulated Uranium Concentration (DOI Corrected)              
K^{(DOI)}                      .FRACTION              :Gamma Ray (Longhorn Wireline) Simulated Potassium Concentration (DOI Corrected)            
ECGR                           .API                   :Gamma Ray (Longhorn Wireline) Simulated Environmentally-Corrected Gamma Ray                
Th                             .PPM                   :Gamma Ray (Longhorn Wireline) Simulated Thorium Concentration                              
U                              .PPM                   :Gamma Ray (Longhorn Wireline) Simulated Uranium Concentration                              
K                              .FRACTION              :Gamma Ray (Longhorn Wireline) Simulated Potassium Concentration                            
GR_Field                       .                      :                                                                                           
GR                             .API                   :Custom Log Calculation                                                                     
RHOZ                           .G/CM3                 :Custom Log Calculation                                                                     
PEFZ                           .B/E-                  :Custom Log Calculation                                                                     
NPOR                           .FRACTION              :Custom Log Calculation                                                                     
RD_V                           .CM^2/S                :Ion Diffusivity (Na, Double Layer)                                                         
RD_H                           .CM^2/S                :Ion Diffusivity (Na, Shale)                                                                
Resistivity Mud                .OHM-M                 :Resistivity Mud                                                                            
RS_H                           .OHM-M                 :Resistivity Formation (Uninvaded)                                                          
Resistivity (Perpendicular) Mud.OHM-M                 :Resistivity (Perpendicular) Mud                                                            
RS_V                           .OHM-M                 :Resistivity (Perpendicular) Formation (Uninvaded)                                          
~A DEPTH        ECGR^{(DOI)} Th^{(DOI)}   U^{(DOI)}    K^{(DOI)}    ECGR         Th           U            K            GR_Field     GR           RHOZ         PEFZ         NPOR         RD_V         RD_H         Resistivity  RS_H         Resistivity  RS_V         
# ...
 5096.09186352 105.69999175   8.55011463  11.91166115   0.00351005 105.69999175   8.55011463  11.91166115   0.00351005 106.27697500 106.27697500   2.57917782   6.97080310   0.33532906  10.00000000   1.00000000   1.00000000   1.00000000   1.00000000  10.00000000 
 5096.34186352 105.69999175   8.55011463  11.91166115   0.00351005 105.69999175   8.55011463  11.91166115   0.00351005 107.86795025 107.86795025   2.58712878   7.02122826   0.33252697  10.00000000   1.00000000   1.00000000   1.00000000   1.00000000  10.00000000 
 5096.59186352 105.69999175   8.55011463  11.91166115   0.00351005 105.69999175   8.55011463  11.91166115   0.00351005 109.27984924 109.27984924   2.59326205   7.06795786   0.33013114  10.00000000   1.00000000   1.00000000   1.00000000   1.00000000  10.00000000 
 5096.84186352 105.69999175   8.55011463  11.91166115   0.00351005 105.69999175   8.55011463  11.91166115   0.00351005 108.64727319 108.64727319   2.57864318   7.07249601   0.33237354  10.00000000   1.00000000   1.00000000   1.00000000   1.00000000  10.00000000 
 5097.09186352 105.69999175   8.55011463  11.91166115   0.00351005 105.69999175   8.55011463  11.91166115   0.00351005 108.01469713 108.01469713   2.56402430   7.07703416   0.33461594  10.00000000   1.00000000   1.00000000   1.00000000   1.00000000  10.00000000 
 5097.34186352 105.69999175   8.55011463  11.91166115   0.00351005 105.69999175   8.55011463  11.91166115   0.00351005 107.38969214 107.38969214   2.55189240   7.07513353   0.33692479  10.00000000   1.00000000   1.00000000   1.00000000   1.00000000  10.00000000 
 5097.59186352 105.69999175   8.55011463  11.91166115   0.00351005 105.69999175   8.55011463  11.91166115   0.00351005 106.85112429 106.85112429   2.56815381   6.99972266   0.33999220  10.00000000   1.00000000   1.00000000   1.00000000   1.00000000  10.00000000 
 5097.84186352 105.69999175   8.55011463  11.91166115   0.00351005 105.69999175   8.55011463  11.91166115   0.00351005 106.31255645 106.31255645   2.58441522   6.92431180   0.34305962  10.00000000   1.00000000   1.00000000   1.00000000   1.00000000  10.00000000 
 5098.09186352 105.69999175   8.55011463  11.91166115   0.00351005 105.69999175   8.55011463  11.91166115   0.00351005 105.79417165 105.79417165   2.59935997   6.85490979   0.34584471  10.00000000   1.00000000   1.00000000   1.00000000   1.00000000  10.00000000 
 5098.34186352 105.69999175   8.55011463  11.91166115   0.00351005 105.69999175   8.55011463  11.91166115   0.00351005 105.50621234 105.50621234   2.59927265   6.85410967   0.34540655  10.00000000   1.00000000   1.00000000   1.00000000   1.00000000  10.00000000 
 5098.59186352 105.69999175   8.55011463  11.91166115   0.00351005 105.69999175   8.55011463  11.91166115   0.00351005 105.21825303 105.21825303   2.59918534   6.85330954   0.34496839  10.00000000   1.00000000   1.00000000   1.00000000   1.00000000  10.00000000 
 5098.84186352 105.69999175   8.55011463  11.91166115   0.00351005 105.69999175   8.55011463  11.91166115   0.00351005 105.06961326 105.06961326   2.59821952   6.85285350   0.34445946  10.00000000   1.00000000   1.00000000   1.00000000   1.00000000  10.00000000 
 5099.09186352 105.69999175   8.55011463  11.91166115   0.00351005 105.69999175   8.55011463  11.91166115   0.00351005 106.51155466 106.51155466   2.58722402   6.85632570   0.34314249  10.00000000   1.00000000   1.00000000   1.00000000   1.00000000  10.00000000 
 5099.34186352 105.69999175   8.55011463  11.91166115   0.00351005 105.69999175   8.55011463  11.91166115   0.00351005 107.95349606 107.95349606   2.57622851   6.85979791   0.34182553  10.00000000   1.00000000   1.00000000   1.00000000   1.00000000  10.00000000 
 5099.59186352 105.69869557   8.55005723  11.91149832   0.00350999 105.69869557   8.55005723  11.91149832   0.00350999 109.22225922 109.22225922   2.56637765   6.86254915   0.34080332  10.00000000   1.00000000   1.00000000   1.00000000   1.00000000  10.00000000 
 5099.84186352 105.68260113   8.54934452  11.90947653   0.00350929 105.68260113   8.54934452  11.90947653   0.00350929 108.51388361 108.51388361   2.56959499   6.85706922   0.34314619  10.00000000   1.00000000   1.00000000   1.00000000   1.00000000  10.00000000 
 5100.09186352 105.66650669   8.54863180  11.90745474   0.00350858 105.66650669   8.54863180  11.90745474   0.00350858 107.80550800 107.80550800   2.57281233   6.85158930   0.34548906  10.00000000   1.00000000   1.00000000   1.00000000   1.00000000  10.00000000 
 5100.34186352 105.56876257   8.54439568  11.89511596   0.00350440 105.56876257   8.54439568  11.89511596   0.00350440 106.99605792 106.99605792   2.57607061   6.84138981   0.34724693  10.00000000   1.00000000   1.00000000   1.00000000   1.00000000  10.00000000 
 5100.59186352 104.53884158   8.49993347  11.76499028   0.00346052 104.53884158   8.49993347  11.76499028   0.00346052 105.03266233 105.03266233   2.57979621   6.77730806   0.34232605  10.00000000   1.00000000   1.00000000   1.00000000   1.00000000  10.00000000 
 5100.84186352 103.50892060   8.45547127  11.63486459   0.00341664 103.50892060   8.45547127  11.63486459   0.00341664 103.06926674 103.06926674   2.58352181   6.71322631   0.33740518   9.89485285   1.00648727   1.00000000   0.97214400   1.00000000   9.87356260 
 5101.09186352 102.42625702   8.40881505  11.49802974   0.00337056 102.42625702   8.40881505  11.49802974   0.00337056 101.18371120 101.18371120   2.58745388   6.65202723   0.33284307   9.49019562   1.03145342   1.00000000   0.86494059   1.00000000   9.38697018 
 5101.34186352 100.74144270   8.33711018  11.28459775   0.00329940 100.74144270   8.33711018  11.28459775   0.00329940 100.18683868 100.18683868   2.59374305   6.62373904   0.33237700   9.19068554   1.04993230   1.00000000   0.78559319   1.00000000   9.02681515 
 5101.59186352  99.05662838   8.26540532  11.07116575   0.00322823  99.05662838   8.26540532  11.07116575   0.00322823  99.18996616  99.18996616   2.60003223   6.59545085   0.33191093   9.19068554   1.04993230   1.00000000   0.78559319   1.00000000   9.02681515 
 5101.84186352  97.50381102   8.19932247  10.87445334   0.00316264  97.50381102   8.19932247  10.87445334   0.00316264  98.20322750  98.20322750   2.60432094   6.56833783   0.33129151   9.19068554   1.04993230   1.00000000   0.78559319   1.00000000   9.02681515 
 5102.09186352  97.45797440   8.19742498  10.86862480   0.00316071  97.45797440   8.19742498  10.86862480   0.00316071  97.33218502  97.33218502   2.58577079   6.55464149   0.32892123   9.19068554   1.04993230   1.00000000   0.78559319   1.00000000   9.02681515 
 5102.34186352  97.41213779   8.19552749  10.86279626   0.00315877  97.41213779   8.19552749  10.86279626   0.00315877  96.46114254  96.46114254   2.56722063   6.54094514   0.32655095   9.19068554   1.04993230   1.00000000   0.78559319   1.00000000   9.02681515 
 5102.59186352  97.36999268   8.19378281  10.85743713   0.00315699  97.36999268   8.19378281  10.85743713   0.00315699  95.71393582  95.71393582   2.55083700   6.52479734   0.32433528   9.19068554   1.04993230   1.00000000   0.78559319   1.00000000   9.02681515 
 5102.84186352  97.36999268   8.19378281  10.85743713   0.00315699  97.36999268   8.19378281  10.85743713   0.00315699  96.38053533  96.38053533   2.55918822   6.48066176   0.32388464   9.19068554   1.04993230   1.00000000   0.78559319   1.00000000   9.02681515 
 5103.09186352  97.36999268   8.19378281  10.85743713   0.00315699  97.36999268   8.19378281  10.85743713   0.00315699  97.04713484  97.04713484   2.56753943   6.43652618   0.32343400   9.19068554   1.04993230   1.00000000   0.78559319   1.00000000   9.02681515 
 5103.34186352  97.36999268   8.19378281  10.85743713   0.00315699  97.36999268   8.19378281  10.85743713   0.00315699  97.73234690  97.73234690   2.57413576   6.39489550   0.32308456   9.19068554   1.04993230   1.00000000   0.78559319   1.00000000   9.02681515 
 5103.59186352  97.36999268   8.19378281  10.85743713   0.00315699  97.36999268   8.19378281  10.85743713   0.00315699  98.63005453  98.63005453   2.56069694   6.38186274   0.32389056   9.19068554   1.04993230   1.00000000   0.78559319   1.00000000   9.02681515 
