~VERSION INFORMATION SECTION
VERS.           2.0  :CWLS Log ASCII Standard - 2.0
WRAP.           NO   :One line per depth
#               Created in UTAPWeLS
~WELL INFORMATION SECTION
#MNEM.UNIT  VALUE/NAME   :DESCRIPTION    
STRT.FT  3015.0919       :Start Depth    
STOP.FT  6361.3419       :Stop Depth     
STEP.FT  0.25            :Step           
NULL.    -999.25         :Null Value     
WELL.    UNKNOWN         :Well Name      
CTRY.    UNKNOWN         :Country        
CNTY.    UNKNOWN         :County         
STAT.    UNKNOWN         :State          
API .    UNKNOWN         :API number     
UWI .    UNKNOWN         :Unique well ID 
LOC .    UNKNOWN         :Well Location  
FLD .    UNKNOWN         :Field          
COMP.    UNKNOWN         :Company        
SRVC.    UNKNOWN         :Service Company
DATE.    22-Apr-2024     :Date           
~PARAMETER INFORMATION SECTION
#MNEM.UNITS  VALUE   :DESCRIPTION OF PARAMETER
~CURVE INFORMATION SECTION
#MNEM                          .UNITS     API CODES   :DESCRIPTION OF MNEMONIC                                                                    
DEPTH                          .FT                    :Gamma Ray (Longhorn Wireline) Simulated Depth                                              
ECGR^{(DOI)}                   .API                   :Gamma Ray (Longhorn Wireline) Simulated Environmentally-Corrected Gamma Ray (DOI Corrected)
Th^{(DOI)}                     .PPM                   :Gamma Ray (Longhorn Wireline) Simulated Thorium Concentration (DOI Corrected)              
U^{(DOI)}                      .PPM                   :Gamma Ray (Longhorn Wireline) Simulated Uranium Concentration (DOI Corrected)              
K^{(DOI)}                      .FRACTION              :Gamma Ray (Longhorn Wireline) Simulated Potassium Concentration (DOI Corrected)            
ECGR                           .API                   :Gamma Ray (Longhorn Wireline) Simulated Environmentally-Corrected Gamma Ray                
Th                             .PPM                   :Gamma Ray (Longhorn Wireline) Simulated Thorium Concentration                              
U                              .PPM                   :Gamma Ray (Longhorn Wireline) Simulated Uranium Concentration                              
K                              .FRACTION              :Gamma Ray (Longhorn Wireline) Simulated Potassium Concentration                            
GR_Field                       .                      :                                                                                           
GR                             .API                   :Custom Log Calculation                                                                     
RHOZ                           .G/CM3                 :Custom Log Calculation                                                                     
PEFZ                           .B/E-                  :Custom Log Calculation                                                                     
NPOR                           .FRACTION              :Custom Log Calculation                                                                     
RD_V                           .CM^2/S                :Ion Diffusivity (Na, Double Layer)                                                         
RD_H                           .CM^2/S                :Ion Diffusivity (Na, Shale)                                                                
Resistivity Mud                .OHM-M                 :Resistivity Mud                                                                            
RS_H                           .OHM-M                 :Resistivity Formation (Uninvaded)                                                          
Resistivity (Perpendicular) Mud.OHM-M                 :Resistivity (Perpendicular) Mud                                                            
RS_V                           .OHM-M                 :Resistivity (Perpendicular) Formation (Uninvaded)                                          
~A DEPTH        ECGR^{(DOI)} Th^{(DOI)}   U^{(DOI)}    K^{(DOI)}    ECGR         Th           U            K            GR_Field     GR           RHOZ         PEFZ         NPOR         RD_V         RD_H         Resistivity  RS_H         Resistivity  RS_V         
# ...
 5189.09186352  73.19182949   5.14304001   9.00591915   0.00044061  73.19182949   5.14304001   9.00591915   0.00044061  72.12635801  72.12635801   2.62930120   4.95249483   0.21870378   8.33668504   3.75197008   1.00000000   2.34445332   1.00000000   4.27421280 
 5189.34186352  73.19942246   5.14204119   9.00747841   0.00044071  73.19942246   5.14204119   9.00747841   0.00044071  71.16383123  71.16383123   2.62946582   4.94228551   0.21938735   8.33668504   3.75197008   1.00000000   2.34445332   1.00000000   4.27421280 
 5189.59186352  73.30008272   5.12834235   9.02832470   0.00044217  73.30008272   5.12834235   9.02832470   0.00044217  70.41452619  70.41452619   2.62891518   4.94353254   0.22043881   8.33668504   3.75197008   1.00000000   2.34445332   1.00000000   4.27421280 
 5189.84186352  74.46327206   4.96964999   9.26936683   0.00045912  74.46327206   4.96964999   9.26936683   0.00045912  72.09952798  72.09952798   2.62019864   5.07557413   0.22569053   8.33668504   3.75197008   1.00000000   2.34445332   1.00000000   4.27421280 
 5190.09186352  75.62646141   4.81095763   9.51040897   0.00047606  75.62646141   4.81095763   9.51040897   0.00047606  73.78452977  73.78452977   2.61148209   5.20761573   0.23094224   8.33668504   3.75197008   1.00000000   2.34445332   1.00000000   4.27421280 
 5190.34186352  76.97562160   4.62818221   9.78947810   0.00049560  76.97562160   4.62818221   9.78947810   0.00049560  75.63040540  75.63040540   2.60396323   5.34230674   0.23652675   8.35019773   3.45971676   1.00000000   2.19033199   1.00000000   4.57734302 
 5190.59186352  80.44797093   4.17045573  10.50269329   0.00054472  80.44797093   4.17045573  10.50269329   0.00054472  79.31294294  79.31294294   2.61011815   5.50724559   0.24591068   8.40220113   2.33498422   1.00000000   1.59719835   1.00000000   5.74393513 
 5190.84186352  83.92032027   3.71272925  11.21590848   0.00059384  83.92032027   3.71272925  11.21590848   0.00059384  82.99548049  82.99548049   2.61627306   5.67218444   0.25529461   8.44069183   1.50250501   1.00000000   1.15818605   1.00000000   6.60739702 
 5191.09186352  87.13268265   3.28938351  11.87567769   0.00063929  87.13268265   3.28938351  11.87567769   0.00063929  86.45350257  86.45350257   2.62051609   5.82363371   0.26414339   8.44069183   1.50250501   1.00000000   1.15818605   1.00000000   6.60739702 
 5191.34186352  87.37683002   3.25855519  11.92526557   0.00064272  87.37683002   3.25855519  11.92526557   0.00064272  87.34828009  87.34828009   2.60293162   5.82107533   0.26688238   8.44069183   1.50250501   1.00000000   1.15818605   1.00000000   6.60739702 
 5191.59186352  87.62097738   3.22772687  11.97485346   0.00064615  87.62097738   3.22772687  11.97485346   0.00064615  88.24305761  88.24305761   2.58534715   5.81851695   0.26962138   8.44069183   1.50250501   1.00000000   1.15818605   1.00000000   6.60739702 
 5191.84186352  87.84546206   3.19938135  12.02044773   0.00064931  87.84546206   3.19938135  12.02044773   0.00064931  89.02533727  89.02533727   2.56922851   5.81483056   0.27219979   8.44069183   1.50250501   1.00000000   1.15818605   1.00000000   6.60739702 
 5192.09186352  87.84546206   3.19938135  12.02044773   0.00064931  87.84546206   3.19938135  12.02044773   0.00064931  88.52325298  88.52325298   2.56984487   5.79826593   0.27294483   8.44069183   1.50250501   1.00000000   1.15818605   1.00000000   6.60739702 
 5192.34186352  87.84546206   3.19938135  12.02044773   0.00064931  87.84546206   3.19938135  12.02044773   0.00064931  88.02116870  88.02116870   2.57046124   5.78170130   0.27368987   8.44069183   1.50250501   1.00000000   1.15818605   1.00000000   6.60739702 
 5192.59186352  87.84546206   3.19938135  12.02044773   0.00064931  87.84546206   3.19938135  12.02044773   0.00064931  87.57198742  87.57198742   2.57069865   5.76667901   0.27408181   8.44069183   1.50250501   1.00000000   1.15818605   1.00000000   6.60739702 
 5192.84186352  87.84546206   3.19938135  12.02044773   0.00064931  87.84546206   3.19938135  12.02044773   0.00064931  87.72678830  87.72678830   2.56660972   5.76926536   0.27044261   8.44069183   1.50250501   1.00000000   1.15818605   1.00000000   6.60739702 
 5193.09186352  87.84546206   3.19938135  12.02044773   0.00064931  87.84546206   3.19938135  12.02044773   0.00064931  87.88158918  87.88158918   2.56252078   5.77185171   0.26680341   8.44069183   1.50250501   1.00000000   1.15818605   1.00000000   6.60739702 
 5193.34186352  87.84546206   3.19938135  12.02044773   0.00064931  87.84546206   3.19938135  12.02044773   0.00064931  88.01828986  88.01828986   2.55972296   5.77428020   0.26160409   8.44069183   1.50250501   1.00000000   1.15818605   1.00000000   6.60739702 
 5193.59186352  87.84546206   3.19938135  12.02044773   0.00064931  87.84546206   3.19938135  12.02044773   0.00064931  87.94834431  87.94834431   2.57166551   5.77490656   0.23859320   8.44069183   1.50250501   1.00000000   1.15818605   1.00000000   6.60739702 
 5193.84186352  87.84546206   3.19938135  12.02044773   0.00064931  87.84546206   3.19938135  12.02044773   0.00064931  87.87839877  87.87839877   2.58360807   5.77553292   0.21558230   8.44069183   1.50250501   1.00000000   1.15818605   1.00000000   6.60739702 
 5194.09186352  87.72281728   3.20271993  12.00049462   0.00064804  87.72281728   3.20271993  12.00049462   0.00064804  87.64934573  87.64934573   2.59461475   5.76485824   0.19139388   8.44069183   1.50250501   1.00000000   1.15818605   1.00000000   6.60739702 
 5194.34186352  86.19996344   3.24417441  11.75274116   0.00063233  86.19996344   3.24417441  11.75274116   0.00063233  85.60379670  85.60379670   2.59493672   5.62516204   0.15376177   8.44069183   1.50250501   1.00000000   1.15818605   1.00000000   6.60739702 
 5194.59186352  84.67710960   3.28562888  11.50498770   0.00061661  84.67710960   3.28562888  11.50498770   0.00061661  83.55824766  83.55824766   2.59525868   5.48546584   0.11612966   8.44069183   1.50250501   1.00000000   1.15818605   1.00000000   6.60739702 
 5194.84186352  81.99644798   3.35699452  11.06941500   0.00058951  81.99644798   3.35699452  11.06941500   0.00058951  80.46232891  80.46232891   2.59644570   5.30637880   0.07978470   8.44069183   1.50250501   1.00000000   1.15818605   1.00000000   6.60739702 
 5195.09186352  66.09734438   3.76984951   8.48955050   0.00043245  66.09734438   3.76984951   8.48955050   0.00043245  65.37456536  65.37456536   2.60750877   4.67757506   0.05813483   8.44069183   1.50250501   1.00000000   1.15818605   1.00000000   6.60739702 
 5195.34186352  50.19824078   4.18270450   5.90968599   0.00027539  50.19824078   4.18270450   5.90968599   0.00027539  50.28680181  50.28680181   2.61857185   4.04877133   0.03648496   7.34406786   1.30729806   1.00000000   1.13763432   1.00000000   5.87887697 
 5195.59186352  35.22577863   4.57141628   3.48022107   0.00012746  35.22577863   4.57141628   3.48022107   0.00012746  36.03354041  36.03354041   2.62977073   3.42290399   0.01598660   3.12372695   0.55604706   1.00000000   1.05854129   1.00000000   3.07517846 
 5195.84186352  30.83258218   4.68449027   2.76783569   0.00008380  30.83258218   4.68449027   2.76783569   0.00008380  31.30761028  31.30761028   2.64252009   2.83056087   0.00863476   0.00001000   0.00000300   1.00000000   1.00000000   1.00000000   1.00000000 
 5196.09186352  26.43938574   4.79756426   2.05545031   0.00004014  26.43938574   4.79756426   2.05545031   0.00004014  26.58168016  26.58168016   2.65526945   2.23821775   0.00128291   0.00001000   0.00000300   1.00000000   1.00000000   1.00000000   1.00000000 
 5196.34186352  22.40000041   4.90153170   1.40043771   0.00000000  22.40000041   4.90153170   1.40043771   0.00000000  22.23517796  22.23517796   2.66704007   1.69371069  -0.00551037   0.00001000   0.00000300   1.00000000   1.00000000   1.00000000   1.00000000 
 5196.59186352  22.40000041   4.90153170   1.40043771   0.00000000  22.40000041   4.90153170   1.40043771   0.00000000  22.22052269  22.22052269   2.66763675   1.69533752  -0.00592669   0.00001000   0.00000300   1.00000000   1.00000000   1.00000000   1.00000000 
