~VERSION INFORMATION SECTION
VERS.           2.0  :CWLS Log ASCII Standard - 2.0
WRAP.           NO   :One line per depth
#               Created in UTAPWeLS
~WELL INFORMATION SECTION
#MNEM.UNIT  VALUE/NAME   :DESCRIPTION    
STRT.FT  3015.0919       :Start Depth    
STOP.FT  6361.3419       :Stop Depth     
STEP.FT  0.25            :Step           
NULL.    -999.25         :Null Value     
WELL.    UNKNOWN         :Well Name      
CTRY.    UNKNOWN         :Country        
CNTY.    UNKNOWN         :County         
STAT.    UNKNOWN         :State          
API .    UNKNOWN         :API number     
UWI .    UNKNOWN         :Unique well ID 
LOC .    UNKNOWN         :Well Location  
FLD .    UNKNOWN         :Field          
COMP.    UNKNOWN         :Company        
SRVC.    UNKNOWN         :Service Company
DATE.    22-Apr-2024     :Date           
~PARAMETER INFORMATION SECTION
#MNEM.UNITS  VALUE   :DESCRIPTION OF PARAMETER
~CURVE INFORMATION SECTION
#MNEM                          .UNITS     API CODES   :DESCRIPTION OF MNEMONIC                                                                    
DEPTH                          .FT                    :Gamma Ray (Longhorn Wireline) Simulated Depth                                              
ECGR^{(DOI)}                   .API                   :Gamma Ray (Longhorn Wireline) Simulated Environmentally-Corrected Gamma Ray (DOI Corrected)
Th^{(DOI)}                     .PPM                   :Gamma Ray (Longhorn Wireline) Simulated Thorium Concentration (DOI Corrected)              
U^{(DOI)}                      .PPM                   :Gamma Ray (Longhorn Wireline) Simulated Uranium Concentration (DOI Corrected)              
K^{(DOI)}                      .FRACTION              :Gamma Ray (Longhorn Wireline) Simulated Potassium Concentration (DOI Corrected)            
ECGR                           .API                   :Gamma Ray (Longhorn Wireline) Simulated Environmentally-Corrected Gamma Ray                
Th                             .PPM                   :Gamma Ray (Longhorn Wireline) Simulated Thorium Concentration                              
U                              .PPM                   :Gamma Ray (Longhorn Wireline) Simulated Uranium Concentration                              
K                              .FRACTION              :Gamma Ray (Longhorn Wireline) Simulated Potassium Concentration                            
GR_Field                       .                      :                                                                                           
GR                             .API                   :Custom Log Calculation                                                                     
RHOZ                           .G/CM3                 :Custom Log Calculation                                                                     
PEFZ                           .B/E-                  :Custom Log Calculation                                                                     
NPOR                           .FRACTION              :Custom Log Calculation                                                                     
RD_V                           .CM^2/S                :Ion Diffusivity (Na, Double Layer)                                                         
RD_H                           .CM^2/S                :Ion Diffusivity (Na, Shale)                                                                
Resistivity Mud                .OHM-M                 :Resistivity Mud                                                                            
RS_H                           .OHM-M                 :Resistivity Formation (Uninvaded)                                                          
Resistivity (Perpendicular) Mud.OHM-M                 :Resistivity (Perpendicular) Mud                                                            
RS_V                           .OHM-M                 :Resistivity (Perpendicular) Formation (Uninvaded)                                          
~A DEPTH        ECGR^{(DOI)} Th^{(DOI)}   U^{(DOI)}    K^{(DOI)}    ECGR         Th           U            K            GR_Field     GR           RHOZ         PEFZ         NPOR         RD_V         RD_H         Resistivity  RS_H         Resistivity  RS_V         
# ...
 5150.34186352  33.86703267   5.64189768   2.83804870   0.00007168  33.86703267   5.64189768   2.83804870   0.00007168  34.99961115  34.99961115   2.22250969   2.43254300   0.24734923   2.07870648   2.07870648   1.00000000   0.31284803   1.00000000   0.31284803 
 5150.59186352  33.91286399   5.64476490   2.84383297   0.00007197  33.91286399   5.64476490   2.84383297   0.00007197  35.25842429  35.25842429   2.22033771   2.44657669   0.24638261   2.07870648   2.07870648   1.00000000   0.31284803   1.00000000   0.31284803 
 5150.84186352  33.91286399   5.64476490   2.84383297   0.00007197  33.91286399   5.64476490   2.84383297   0.00007197  34.72231823  34.72231823   2.21342027   2.44483486   0.24632866   2.07870648   2.07870648   1.00000000   0.31284803   1.00000000   0.31284803 
 5151.09186352  33.91286399   5.64476490   2.84383297   0.00007197  33.91286399   5.64476490   2.84383297   0.00007197  34.18621217  34.18621217   2.20650283   2.44309303   0.24627471   2.07870648   2.07870648   1.00000000   0.31284803   1.00000000   0.31284803 
 5151.34186352  33.93817746   5.64580116   2.84724878   0.00007216  33.93817746   5.64580116   2.84724878   0.00007216  33.70614005  33.70614005   2.20217947   2.44460402   0.24607146   2.07870648   2.07870648   1.00000000   0.31284803   1.00000000   0.31284803 
 5151.59186352  34.25248931   5.65866813   2.88966217   0.00007451  34.25248931   5.65866813   2.88966217   0.00007451  33.86579532  33.86579532   2.22747216   2.48325170   0.24416380   2.07870648   2.07870648   1.00000000   0.31284803   1.00000000   0.31284803 
 5151.84186352  34.56680116   5.67153510   2.93207557   0.00007685  34.56680116   5.67153510   2.93207557   0.00007685  34.02545058  34.02545058   2.25276485   2.52189938   0.24225613   2.07870648   2.07870648   1.00000000   0.31284803   1.00000000   0.31284803 
 5152.09186352  35.05866463   5.69142071   2.99856265   0.00008047  35.05866463   5.69142071   2.99856265   0.00008047  34.42032534  34.42032534   2.27771294   2.56491897   0.24016630   2.07870648   2.07870648   1.00000000   0.31284803   1.00000000   0.31284803 
 5152.34186352  37.57759671   5.79143651   3.33989390   0.00009866  37.57759671   5.79143651   3.33989390   0.00009866  37.50065030  37.50065030   2.29872672   2.65785166   0.23599674   2.23871731   2.23871731   1.00000000   0.34455561   1.00000000   0.34455561 
 5152.59186352  40.09652879   5.89145231   3.68122514   0.00011684  40.09652879   5.89145231   3.68122514   0.00011684  40.58097526  40.58097526   2.31974049   2.75078434   0.23182719   2.85451661   2.85451661   1.00000000   0.46658177   1.00000000   0.46658177 
 5152.84186352  42.45522389   5.98508939   4.00084926   0.00013387  42.45522389   5.98508939   4.00084926   0.00013387  43.45012242  43.45012242   2.33934829   2.84059428   0.22762919   3.31030508   3.31030508   1.00000000   0.55690035   1.00000000   0.55690035 
 5153.09186352  42.98452788   6.00590206   4.07264782   0.00013774  42.98452788   6.00590206   4.07264782   0.00013774  43.90829808  43.90829808   2.34290429   2.89475243   0.22310644   3.31030508   3.31030508   1.00000000   0.55690035   1.00000000   0.55690035 
 5153.34186352  43.51383188   6.02671473   4.14444639   0.00014161  43.51383188   6.02671473   4.14444639   0.00014161  44.36647373  44.36647373   2.34646029   2.94891059   0.21858369   3.31030508   3.31030508   1.00000000   0.55690035   1.00000000   0.55690035 
 5153.59186352  44.00050777   6.04585123   4.21046257   0.00014517  44.00050777   6.04585123   4.21046257   0.00014517  44.76323925  44.76323925   2.35080635   2.99908142   0.21455204   3.31030508   3.31030508   1.00000000   0.55690035   1.00000000   0.55690035 
 5153.84186352  44.00050777   6.04585123   4.21046257   0.00014517  44.00050777   6.04585123   4.21046257   0.00014517  44.45889848  44.45889848   2.36417224   3.00372984   0.21612725   3.31030508   3.31030508   1.00000000   0.55690035   1.00000000   0.55690035 
 5154.09186352  44.00050777   6.04585123   4.21046257   0.00014517  44.00050777   6.04585123   4.21046257   0.00014517  44.15455771  44.15455771   2.37753813   3.00837827   0.21770246   3.31030508   3.31030508   1.00000000   0.55690035   1.00000000   0.55690035 
 5154.34186352  44.00050777   6.04585123   4.21046257   0.00014517  44.00050777   6.04585123   4.21046257   0.00014517  43.86408372  43.86408372   2.38959009   3.01409527   0.21922212   3.31030508   3.31030508   1.00000000   0.55690035   1.00000000   0.55690035 
 5154.59186352  44.00050777   6.04585123   4.21046257   0.00014517  44.00050777   6.04585123   4.21046257   0.00014517  43.73192382  43.73192382   2.38664114   3.03201200   0.22010761   3.31030508   3.31030508   1.00000000   0.55690035   1.00000000   0.55690035 
 5154.84186352  44.00050777   6.04585123   4.21046257   0.00014517  44.00050777   6.04585123   4.21046257   0.00014517  43.59976392  43.59976392   2.38369219   3.04992873   0.22099309   3.31030508   3.31030508   1.00000000   0.55690035   1.00000000   0.55690035 
 5155.09186352  44.00050777   6.04585123   4.21046257   0.00014517  44.00050777   6.04585123   4.21046257   0.00014517  43.49814841  43.49814841   2.38002408   3.06675338   0.22167051   3.31030508   3.31030508   1.00000000   0.55690035   1.00000000   0.55690035 
 5155.34186352  44.00050777   6.04585123   4.21046257   0.00014517  44.00050777   6.04585123   4.21046257   0.00014517  43.74525167  43.74525167   2.36814545   3.07110990   0.21997245   3.31030508   3.31030508   1.00000000   0.55690035   1.00000000   0.55690035 
 5155.59186352  44.00050777   6.04585123   4.21046257   0.00014517  44.00050777   6.04585123   4.21046257   0.00014517  43.99235492  43.99235492   2.35626682   3.07546643   0.21827440   3.31030508   3.31030508   1.00000000   0.55690035   1.00000000   0.55690035 
 5155.84186352  44.00050777   6.04585123   4.21046257   0.00014517  44.00050777   6.04585123   4.21046257   0.00014517  44.18698674  44.18698674   2.34614818   3.07927125   0.21675255   3.31030508   3.31030508   1.00000000   0.55690035   1.00000000   0.55690035 
 5156.09186352  44.00050777   6.04585123   4.21046257   0.00014517  44.00050777   6.04585123   4.21046257   0.00014517  43.78256354  43.78256354   2.35612290   3.07677738   0.21724242   3.31030508   3.31030508   1.00000000   0.55690035   1.00000000   0.55690035 
 5156.34186352  44.00050777   6.04585123   4.21046257   0.00014517  44.00050777   6.04585123   4.21046257   0.00014517  43.37814034  43.37814034   2.36609763   3.07428350   0.21773229   3.31030508   3.31030508   1.00000000   0.55690035   1.00000000   0.55690035 
 5156.59186352  44.00105679   6.04586033   4.21054214   0.00014517  44.00105679   6.04586033   4.21054214   0.00014517  43.03508923  43.03508923   2.37421446   3.07247342   0.21814433   3.31030508   3.31030508   1.00000000   0.55690035   1.00000000   0.55690035 
 5156.84186352  44.00787390   6.04597334   4.21153015   0.00014523  44.00787390   6.04597334   4.21153015   0.00014523  43.39270997  43.39270997   2.36112013   3.07847010   0.21766785   3.31030508   3.31030508   1.00000000   0.55690035   1.00000000   0.55690035 
 5157.09186352  44.01469101   6.04608635   4.21251815   0.00014529  44.01469101   6.04608635   4.21251815   0.00014529  43.75033072  43.75033072   2.34802580   3.08446679   0.21719138   3.31030508   3.31030508   1.00000000   0.55690035   1.00000000   0.55690035 
 5157.34186352  44.08622753   6.04726765   4.22288575   0.00014588  44.08622753   6.04726765   4.22288575   0.00014588  44.12694615  44.12694615   2.33692392   3.09667684   0.21692874   3.31030508   3.31030508   1.00000000   0.55690035   1.00000000   0.55690035 
 5157.59186352  44.89665157   6.06064531   4.34033805   0.00015261  44.89665157   6.06064531   4.34033805   0.00015261  44.72041972  44.72041972   2.34856944   3.17982364   0.21910733   3.31030508   3.31030508   1.00000000   0.55690035   1.00000000   0.55690035 
 5157.84186352  45.70707560   6.07402298   4.45779035   0.00015934  45.70707560   6.07402298   4.45779035   0.00015934  45.31389329  45.31389329   2.36021496   3.26297044   0.22128592   3.43851056   3.43851056   1.00000000   0.59252605   1.00000000   0.59252605 
