~VERSION INFORMATION SECTION
VERS.           2.0  :CWLS Log ASCII Standard - 2.0
WRAP.           NO   :One line per depth
#               Created in UTAPWeLS
~WELL INFORMATION SECTION
#MNEM.UNIT  VALUE/NAME   :DESCRIPTION    
STRT.FT  3015.0919       :Start Depth    
STOP.FT  6361.3419       :Stop Depth     
STEP.FT  0.25            :Step           
NULL.    -999.25         :Null Value     
WELL.    UNKNOWN         :Well Name      
CTRY.    UNKNOWN         :Country        
CNTY.    UNKNOWN         :County         
STAT.    UNKNOWN         :State          
API .    UNKNOWN         :API number     
UWI .    UNKNOWN         :Unique well ID 
LOC .    UNKNOWN         :Well Location  
FLD .    UNKNOWN         :Field          
COMP.    UNKNOWN         :Company        
SRVC.    UNKNOWN         :Service Company
DATE.    22-Apr-2024     :Date           
~PARAMETER INFORMATION SECTION
#MNEM.UNITS  VALUE   :DESCRIPTION OF PARAMETER
~CURVE INFORMATION SECTION
#MNEM                          .UNITS     API CODES   :DESCRIPTION OF MNEMONIC                                                                    
DEPTH                          .FT                    :Gamma Ray (Longhorn Wireline) Simulated Depth                                              
ECGR^{(DOI)}                   .API                   :Gamma Ray (Longhorn Wireline) Simulated Environmentally-Corrected Gamma Ray (DOI Corrected)
Th^{(DOI)}                     .PPM                   :Gamma Ray (Longhorn Wireline) Simulated Thorium Concentration (DOI Corrected)              
U^{(DOI)}                      .PPM                   :Gamma Ray (Longhorn Wireline) Simulated Uranium Concentration (DOI Corrected)              
K^{(DOI)}                      .FRACTION              :Gamma Ray (Longhorn Wireline) Simulated Potassium Concentration (DOI Corrected)            
ECGR                           .API                   :Gamma Ray (Longhorn Wireline) Simulated Environmentally-Corrected Gamma Ray                
Th                             .PPM                   :Gamma Ray (Longhorn Wireline) Simulated Thorium Concentration                              
U                              .PPM                   :Gamma Ray (Longhorn Wireline) Simulated Uranium Concentration                              
K                              .FRACTION              :Gamma Ray (Longhorn Wireline) Simulated Potassium Concentration                            
GR_Field                       .                      :                                                                                           
GR                             .API                   :Custom Log Calculation                                                                     
RHOZ                           .G/CM3                 :Custom Log Calculation                                                                     
PEFZ                           .B/E-                  :Custom Log Calculation                                                                     
NPOR                           .FRACTION              :Custom Log Calculation                                                                     
RD_V                           .CM^2/S                :Ion Diffusivity (Na, Double Layer)                                                         
RD_H                           .CM^2/S                :Ion Diffusivity (Na, Shale)                                                                
Resistivity Mud                .OHM-M                 :Resistivity Mud                                                                            
RS_H                           .OHM-M                 :Resistivity Formation (Uninvaded)                                                          
Resistivity (Perpendicular) Mud.OHM-M                 :Resistivity (Perpendicular) Mud                                                            
RS_V                           .OHM-M                 :Resistivity (Perpendicular) Formation (Uninvaded)                                          
~A DEPTH        ECGR^{(DOI)} Th^{(DOI)}   U^{(DOI)}    K^{(DOI)}    ECGR         Th           U            K            GR_Field     GR           RHOZ         PEFZ         NPOR         RD_V         RD_H         Resistivity  RS_H         Resistivity  RS_V         
# ...
 5158.09186352  46.61801435   6.08899674   4.58984093   0.00016688  46.61801435   6.08899674   4.58984093   0.00016688  46.01811359  46.01811359   2.37292140   3.34791338   0.22313180   3.93190743   3.93190743   1.00000000   0.72963101   1.00000000   0.72963101 
 5158.34186352  48.67650787   6.12219271   4.88855684   0.00018370  48.67650787   6.12219271   4.88855684   0.00018370  47.98670533  47.98670533   2.39774014   3.45336249   0.22117925   4.29709882   4.29709882   1.00000000   0.83111027   1.00000000   0.83111027 
 5158.59186352  50.73500138   6.15538868   5.18727275   0.00020053  50.73500138   6.15538868   5.18727275   0.00020053  49.95529708  49.95529708   2.42255889   3.55881161   0.21922669   4.29709882   4.29709882   1.00000000   0.83111027   1.00000000   0.83111027 
 5158.84186352  52.63709520   6.18605776   5.46329478   0.00021608  52.63709520   6.18605776   5.46329478   0.00021608  51.82541237  51.82541237   2.44591301   3.65569524   0.21740227   4.29709882   4.29709882   1.00000000   0.83111027   1.00000000   0.83111027 
 5159.09186352  52.75360734   6.18787785   5.48022568   0.00021703  52.75360734   6.18787785   5.48022568   0.00021703  52.57124318  52.57124318   2.45254585   3.65478851   0.21704067   4.29709882   4.29709882   1.00000000   0.83111027   1.00000000   0.83111027 
 5159.34186352  52.87011949   6.18969794   5.49715657   0.00021799  52.87011949   6.18969794   5.49715657   0.00021799  53.31707400  53.31707400   2.45917868   3.65388179   0.21667908   4.29709882   4.29709882   1.00000000   0.83111027   1.00000000   0.83111027 
 5159.59186352  52.97724819   6.19137144   5.51272392   0.00021887  52.97724819   6.19137144   5.51272392   0.00021887  53.97616935  53.97616935   2.46515498   3.65243388   0.21622320   4.29709882   4.29709882   1.00000000   0.83111027   1.00000000   0.83111027 
 5159.84186352  52.97724819   6.19137144   5.51272392   0.00021887  52.97724819   6.19137144   5.51272392   0.00021887  53.64502464  53.64502464   2.46363575   3.64480732   0.21469103   4.29709882   4.29709882   1.00000000   0.83111027   1.00000000   0.83111027 
 5160.09186352  52.97724819   6.19137144   5.51272392   0.00021887  52.97724819   6.19137144   5.51272392   0.00021887  53.31387992  53.31387992   2.46211652   3.63718076   0.21315886   4.29709882   4.29709882   1.00000000   0.83111027   1.00000000   0.83111027 
 5160.34186352  52.97724819   6.19137144   5.51272392   0.00021887  52.97724819   6.19137144   5.51272392   0.00021887  53.04697153  53.04697153   2.45958553   3.62913751   0.21174578   4.29709882   4.29709882   1.00000000   0.83111027   1.00000000   0.83111027 
 5160.59186352  52.97724819   6.19137144   5.51272392   0.00021887  52.97724819   6.19137144   5.51272392   0.00021887  53.51343532  53.51343532   2.44550345   3.61633702   0.21169228   4.29709882   4.29709882   1.00000000   0.83111027   1.00000000   0.83111027 
 5160.84186352  52.97724819   6.19137144   5.51272392   0.00021887  52.97724819   6.19137144   5.51272392   0.00021887  53.97989911  53.97989911   2.43142137   3.60353653   0.21163878   4.29709882   4.29709882   1.00000000   0.83111027   1.00000000   0.83111027 
 5161.09186352  52.97724819   6.19137144   5.51272392   0.00021887  52.97724819   6.19137144   5.51272392   0.00021887  54.33946456  54.33946456   2.41977082   3.59195291   0.21149553   4.29709882   4.29709882   1.00000000   0.83111027   1.00000000   0.83111027 
 5161.34186352  52.97724819   6.19137144   5.51272392   0.00021887  52.97724819   6.19137144   5.51272392   0.00021887  53.47859459  53.47859459   2.43588049   3.59426194   0.21032766   4.29709882   4.29709882   1.00000000   0.83111027   1.00000000   0.83111027 
 5161.59186352  52.97724819   6.19137144   5.51272392   0.00021887  52.97724819   6.19137144   5.51272392   0.00021887  52.61772463  52.61772463   2.45199016   3.59657097   0.20915979   4.29709882   4.29709882   1.00000000   0.83111027   1.00000000   0.83111027 
 5161.84186352  52.98676393   6.19153198   5.51410106   0.00021895  52.98676393   6.19153198   5.51410106   0.00021895  51.87348206  51.87348206   2.46785799   3.59933600   0.20817543   4.29709882   4.29709882   1.00000000   0.83111027   1.00000000   0.83111027 
 5162.09186352  53.10491884   6.19352532   5.53120076   0.00021996  53.10491884   6.19352532   5.53120076   0.00021996  52.46074940  52.46074940   2.48096475   3.60730711   0.20928623   4.29709882   4.29709882   1.00000000   0.83111027   1.00000000   0.83111027 
 5162.34186352  53.22307375   6.19551866   5.54830046   0.00022097  53.22307375   6.19551866   5.54830046   0.00022097  53.04801675  53.04801675   2.49407151   3.61527822   0.21039704   4.29709882   4.29709882   1.00000000   0.83111027   1.00000000   0.83111027 
 5162.59186352  53.47771808   6.19970105   5.58521129   0.00022310  53.47771808   6.19970105   5.58521129   0.00022310  53.69410168  53.69410168   2.50767850   3.62701198   0.21127065   4.29709882   4.29709882   1.00000000   0.83111027   1.00000000   0.83111027 
 5162.84186352  55.29063275   6.22887537   5.84830142   0.00023798  55.29063275   6.22887537   5.84830142   0.00023798  55.01169436  55.01169436   2.52699646   3.68170306   0.20943628   4.61402126   4.61402126   1.00000000   0.95313677   1.00000000   0.95313677 
 5163.09186352  57.10354741   6.25804970   6.11139155   0.00025287  57.10354741   6.25804970   6.11139155   0.00025287  56.32928704  56.32928704   2.54631442   3.73639413   0.20760191   5.83369251   5.83369251   1.00000000   1.42275391   1.00000000   1.42275391 
 5163.34186352  58.83201901   6.28585714   6.36223108   0.00026705  58.83201901   6.28585714   6.36223108   0.00026705  57.65562450  57.65562450   2.56412001   3.79552489   0.20565809   6.73644132   6.73644132   1.00000000   1.77034455   1.00000000   1.77034455 
 5163.59186352  59.59642234   6.29805908   6.47320809   0.00027331  59.59642234   6.29805908   6.47320809   0.00027331  59.08179930  59.08179930   2.56465928   3.90534248   0.20246455   6.73644132   6.73644132   1.00000000   1.77034455   1.00000000   1.77034455 
 5163.84186352  60.36082567   6.31026102   6.58418511   0.00027956  60.36082567   6.31026102   6.58418511   0.00027956  60.50797409  60.50797409   2.56519855   4.01516007   0.19927102   6.73644132   6.73644132   1.00000000   1.77034455   1.00000000   1.77034455 
 5164.09186352  61.06366690   6.32148027   6.68622446   0.00028531  61.06366690   6.32148027   6.68622446   0.00028531  61.84179153  61.84179153   2.56579407   4.11465572   0.19658294   6.73644132   6.73644132   1.00000000   1.77034455   1.00000000   1.77034455 
 5164.34186352  61.06366690   6.32148027   6.68622446   0.00028531  61.06366690   6.32148027   6.68622446   0.00028531  62.12118490  62.12118490   2.56703176   4.09630795   0.19966552   6.73644132   6.73644132   1.00000000   1.77034455   1.00000000   1.77034455 
 5164.59186352  61.06366690   6.32148027   6.68622446   0.00028531  61.06366690   6.32148027   6.68622446   0.00028531  62.40057827  62.40057827   2.56826946   4.07796017   0.20274810   6.73644132   6.73644132   1.00000000   1.77034455   1.00000000   1.77034455 
 5164.84186352  61.06366690   6.32148027   6.68622446   0.00028531  61.06366690   6.32148027   6.68622446   0.00028531  62.64823983  62.64823983   2.56907640   4.06156598   0.20546337   6.73644132   6.73644132   1.00000000   1.77034455   1.00000000   1.77034455 
 5165.09186352  61.06366690   6.32148027   6.68622446   0.00028531  61.06366690   6.32148027   6.68622446   0.00028531  62.53362613  62.53362613   2.56496563   4.06747541   0.20398517   6.73644132   6.73644132   1.00000000   1.77034455   1.00000000   1.77034455 
 5165.34186352  61.06366690   6.32148027   6.68622446   0.00028531  61.06366690   6.32148027   6.68622446   0.00028531  62.41901243  62.41901243   2.56085486   4.07338483   0.20250696   6.73644132   6.73644132   1.00000000   1.77034455   1.00000000   1.77034455 
 5165.59186352  61.06366690   6.32148027   6.68622446   0.00028531  61.06366690   6.32148027   6.68622446   0.00028531  62.21071957  62.21071957   2.55773588   4.08064818   0.20106767   6.73644132   6.73644132   1.00000000   1.77034455   1.00000000   1.77034455 
