~VERSION INFORMATION SECTION
VERS.           2.0  :CWLS Log ASCII Standard - 2.0
WRAP.           NO   :One line per depth
#               Created in UTAPWeLS
~WELL INFORMATION SECTION
#MNEM.UNIT  VALUE/NAME   :DESCRIPTION    
STRT.FT  3015.0919       :Start Depth    
STOP.FT  6361.3419       :Stop Depth     
STEP.FT  0.25            :Step           
NULL.    -999.25         :Null Value     
WELL.    UNKNOWN         :Well Name      
CTRY.    UNKNOWN         :Country        
CNTY.    UNKNOWN         :County         
STAT.    UNKNOWN         :State          
API .    UNKNOWN         :API number     
UWI .    UNKNOWN         :Unique well ID 
LOC .    UNKNOWN         :Well Location  
FLD .    UNKNOWN         :Field          
COMP.    UNKNOWN         :Company        
SRVC.    UNKNOWN         :Service Company
DATE.    22-Apr-2024     :Date           
~PARAMETER INFORMATION SECTION
#MNEM.UNITS  VALUE   :DESCRIPTION OF PARAMETER
~CURVE INFORMATION SECTION
#MNEM                          .UNITS     API CODES   :DESCRIPTION OF MNEMONIC                                                                    
DEPTH                          .FT                    :Gamma Ray (Longhorn Wireline) Simulated Depth                                              
ECGR^{(DOI)}                   .API                   :Gamma Ray (Longhorn Wireline) Simulated Environmentally-Corrected Gamma Ray (DOI Corrected)
Th^{(DOI)}                     .PPM                   :Gamma Ray (Longhorn Wireline) Simulated Thorium Concentration (DOI Corrected)              
U^{(DOI)}                      .PPM                   :Gamma Ray (Longhorn Wireline) Simulated Uranium Concentration (DOI Corrected)              
K^{(DOI)}                      .FRACTION              :Gamma Ray (Longhorn Wireline) Simulated Potassium Concentration (DOI Corrected)            
ECGR                           .API                   :Gamma Ray (Longhorn Wireline) Simulated Environmentally-Corrected Gamma Ray                
Th                             .PPM                   :Gamma Ray (Longhorn Wireline) Simulated Thorium Concentration                              
U                              .PPM                   :Gamma Ray (Longhorn Wireline) Simulated Uranium Concentration                              
K                              .FRACTION              :Gamma Ray (Longhorn Wireline) Simulated Potassium Concentration                            
GR_Field                       .                      :                                                                                           
GR                             .API                   :Custom Log Calculation                                                                     
RHOZ                           .G/CM3                 :Custom Log Calculation                                                                     
PEFZ                           .B/E-                  :Custom Log Calculation                                                                     
NPOR                           .FRACTION              :Custom Log Calculation                                                                     
RD_V                           .CM^2/S                :Ion Diffusivity (Na, Double Layer)                                                         
RD_H                           .CM^2/S                :Ion Diffusivity (Na, Shale)                                                                
Resistivity Mud                .OHM-M                 :Resistivity Mud                                                                            
RS_H                           .OHM-M                 :Resistivity Formation (Uninvaded)                                                          
Resistivity (Perpendicular) Mud.OHM-M                 :Resistivity (Perpendicular) Mud                                                            
RS_V                           .OHM-M                 :Resistivity (Perpendicular) Formation (Uninvaded)                                          
~A DEPTH        ECGR^{(DOI)} Th^{(DOI)}   U^{(DOI)}    K^{(DOI)}    ECGR         Th           U            K            GR_Field     GR           RHOZ         PEFZ         NPOR         RD_V         RD_H         Resistivity  RS_H         Resistivity  RS_V         
# ...
 5127.09186352  55.49458940   6.33065093   5.58401799   0.00139899  55.49458940   6.33065093   5.58401799   0.00139899  56.09173880  56.09173880   2.30811867   3.96393301   0.28921448   4.95258209   1.28547892   1.00000000   0.32389373   1.00000000   4.13395686 
 5127.34186352  55.24842370   6.32028082   5.55284919   0.00138832  55.24842370   6.32028082   5.55284919   0.00138832  56.28431589  56.28431589   2.30435430   3.94617874   0.28937127   4.95258209   1.28547892   1.00000000   0.32389373   1.00000000   4.13395686 
 5127.59186352  53.42874399   6.24492433   5.32165310   0.00131059  53.42874399   6.24492433   5.32165310   0.00131059  54.60482604  54.60482604   2.29508803   3.86229644   0.28505116   4.95258209   1.28547892   1.00000000   0.32389373   1.00000000   4.13395686 
 5127.84186352  51.60906428   6.16956785   5.09045701   0.00123286  51.60906428   6.16956785   5.09045701   0.00123286  52.92533619  52.92533619   2.28582175   3.77841414   0.28073106   4.85206611   1.30001422   1.00000000   0.32171957   1.00000000   4.00817072 
 5128.09186352  49.86758786   6.09747209   4.86918485   0.00115848  49.86758786   6.09747209   4.86918485   0.00115848  51.28912350  51.28912350   2.27770329   3.69336620   0.27679189   4.46523189   1.35595311   1.00000000   0.31335233   1.00000000   3.52408466 
 5128.34186352  49.01894166   6.06260337   4.76121191   0.00112239  49.01894166   6.06260337   4.76121191   0.00112239  50.14699669  50.14699669   2.28268911   3.59501043   0.27720176   4.17891364   1.39735670   1.00000000   0.30715926   1.00000000   3.16578473 
 5128.59186352  48.17029546   6.02773465   4.65323897   0.00108630  48.17029546   6.02773465   4.65323897   0.00108630  49.00486989  49.00486989   2.28767494   3.49665465   0.27761163   4.17891364   1.39735670   1.00000000   0.30715926   1.00000000   3.16578473 
 5128.84186352  47.38999595   5.99567413   4.55396175   0.00105312  47.38999595   5.99567413   4.55396175   0.00105312  47.99180872  47.99180872   2.29128113   3.40570025   0.27786558   4.17891364   1.39735670   1.00000000   0.30715926   1.00000000   3.16578473 
 5129.09186352  47.38999595   5.99567413   4.55396175   0.00105312  47.38999595   5.99567413   4.55396175   0.00105312  48.45226207  48.45226207   2.27913637   3.39924581   0.27633947   4.17891364   1.39735670   1.00000000   0.30715926   1.00000000   3.16578473 
 5129.34186352  47.38999595   5.99567413   4.55396175   0.00105312  47.38999595   5.99567413   4.55396175   0.00105312  48.91271541  48.91271541   2.26699161   3.39279136   0.27481336   4.17891364   1.39735670   1.00000000   0.30715926   1.00000000   3.16578473 
 5129.59186352  47.38999595   5.99567413   4.55396175   0.00105312  47.38999595   5.99567413   4.55396175   0.00105312  49.24493177  49.24493177   2.25718476   3.38858256   0.27356737   4.17891364   1.39735670   1.00000000   0.30715926   1.00000000   3.16578473 
 5129.84186352  47.38999595   5.99567413   4.55396175   0.00105312  47.38999595   5.99567413   4.55396175   0.00105312  48.11309410  48.11309410   2.27406917   3.41001184   0.27551938   4.17891364   1.39735670   1.00000000   0.30715926   1.00000000   3.16578473 
 5130.09186352  47.38999595   5.99567413   4.55396175   0.00105312  47.38999595   5.99567413   4.55396175   0.00105312  46.98125643  46.98125643   2.29095358   3.43144112   0.27747139   4.17891364   1.39735670   1.00000000   0.30715926   1.00000000   3.16578473 
 5130.34186352  47.38999595   5.99567413   4.55396175   0.00105312  47.38999595   5.99567413   4.55396175   0.00105312  45.98006019  45.98006019   2.30489793   3.45227001   0.27896247   4.17891364   1.39735670   1.00000000   0.30715926   1.00000000   3.16578473 
 5130.59186352  47.38999595   5.99567413   4.55396175   0.00105312  47.38999595   5.99567413   4.55396175   0.00105312  46.47036907  46.47036907   2.28527618   3.46624438   0.27519121   4.17891364   1.39735670   1.00000000   0.30715926   1.00000000   3.16578473 
 5130.84186352  47.38999595   5.99567413   4.55396175   0.00105312  47.38999595   5.99567413   4.55396175   0.00105312  46.96067794  46.96067794   2.26565443   3.48021875   0.27141996   4.17891364   1.39735670   1.00000000   0.30715926   1.00000000   3.16578473 
 5131.09186352  47.38999595   5.99567413   4.55396175   0.00105312  47.38999595   5.99567413   4.55396175   0.00105312  47.41334640  47.41334640   2.24796896   3.49029071   0.26787978   4.17891364   1.39735670   1.00000000   0.30715926   1.00000000   3.16578473 
 5131.34186352  47.38999595   5.99567413   4.55396175   0.00105312  47.38999595   5.99567413   4.55396175   0.00105312  47.43628228  47.43628228   2.25238952   3.45580973   0.26697776   4.17891364   1.39735670   1.00000000   0.30715926   1.00000000   3.16578473 
 5131.59186352  47.38999595   5.99567413   4.55396175   0.00105312  47.38999595   5.99567413   4.55396175   0.00105312  47.45921817  47.45921817   2.25681008   3.42132874   0.26607574   4.17891364   1.39735670   1.00000000   0.30715926   1.00000000   3.16578473 
 5131.84186352  47.38999595   5.99567413   4.55396175   0.00105312  47.38999595   5.99567413   4.55396175   0.00105312  47.51896255  47.51896255   2.26162873   3.38912026   0.26565788   4.17891364   1.39735670   1.00000000   0.30715926   1.00000000   3.16578473 
 5132.09186352  47.38999595   5.99567413   4.55396175   0.00105312  47.38999595   5.99567413   4.55396175   0.00105312  47.99894155  47.99894155   2.27099223   3.38285644   0.27076748   4.17891364   1.39735670   1.00000000   0.30715926   1.00000000   3.16578473 
 5132.34186352  47.38999595   5.99567413   4.55396175   0.00105312  47.38999595   5.99567413   4.55396175   0.00105312  48.47892054  48.47892054   2.28035574   3.37659263   0.27587708   4.17891364   1.39735670   1.00000000   0.30715926   1.00000000   3.16578473 
 5132.59186352  47.38436853   5.99543088   4.55325293   0.00105287  47.38436853   5.99543088   4.55325293   0.00105287  48.88623438  48.88623438   2.28863079   3.37330045   0.28037406   4.17891364   1.39735670   1.00000000   0.30715926   1.00000000   3.16578473 
 5132.84186352  47.31449412   5.99241043   4.54445163   0.00104978  47.31449412   5.99241043   4.54445163   0.00104978  48.46394569  48.46394569   2.28447923   3.40393481   0.27787684   4.17891364   1.39735670   1.00000000   0.30715926   1.00000000   3.16578473 
 5133.09186352  47.24461971   5.98938999   4.53565033   0.00104668  47.24461971   5.98938999   4.53565033   0.00104668  48.04165700  48.04165700   2.28032767   3.43456917   0.27537962   4.17891364   1.39735670   1.00000000   0.30715926   1.00000000   3.16578473 
 5133.34186352  47.04940451   5.98116150   4.51093245   0.00103823  47.04940451   5.98116150   4.51093245   0.00103823  47.50235651  47.50235651   2.27522446   3.45627061   0.27269353   4.17891364   1.39735670   1.00000000   0.30715926   1.00000000   3.16578473 
 5133.59186352  45.42320051   5.91347383   4.30449844   0.00096860  45.42320051   5.91347383   4.30449844   0.00096860  45.62715740  45.62715740   2.25925648   3.37598679   0.26785124   4.17891364   1.39735670   1.00000000   0.30715926   1.00000000   3.16578473 
 5133.84186352  43.79699651   5.84578616   4.09806443   0.00089896  43.79699651   5.84578616   4.09806443   0.00089896  43.75195829  43.75195829   2.24328850   3.29570296   0.26300895   4.08188773   1.41664903   1.00000000   0.30571476   1.00000000   3.04048938 
 5134.09186352  42.21475412   5.77996027   3.89718926   0.00083124  42.21475412   5.77996027   3.89718926   0.00083124  41.95975204  41.95975204   2.22936812   3.21358644   0.25843935   3.70848496   1.49089527   1.00000000   0.30015564   1.00000000   2.55829212 
 5134.34186352  41.13441189   5.73538998   3.75977814   0.00078546  41.13441189   5.73538998   3.75977814   0.00078546  41.11505726  41.11505726   2.23882469   3.11054636   0.25698292   3.43210810   1.54584918   1.00000000   0.29604102   1.00000000   2.20139020 
 5134.59186352  40.05406966   5.69081969   3.62236702   0.00073968  40.05406966   5.69081969   3.62236702   0.00073968  40.27036249  40.27036249   2.24828127   3.00750628   0.25552650   3.43210810   1.54584918   1.00000000   0.29604102   1.00000000   2.20139020 
