~VERSION INFORMATION SECTION
VERS.           2.0  :CWLS Log ASCII Standard - 2.0
WRAP.           NO   :One line per depth
#               Created in UTAPWeLS
~WELL INFORMATION SECTION
#MNEM.UNIT  VALUE/NAME   :DESCRIPTION    
STRT.FT  3015.0919       :Start Depth    
STOP.FT  6361.3419       :Stop Depth     
STEP.FT  0.25            :Step           
NULL.    -999.25         :Null Value     
WELL.    UNKNOWN         :Well Name      
CTRY.    UNKNOWN         :Country        
CNTY.    UNKNOWN         :County         
STAT.    UNKNOWN         :State          
API .    UNKNOWN         :API number     
UWI .    UNKNOWN         :Unique well ID 
LOC .    UNKNOWN         :Well Location  
FLD .    UNKNOWN         :Field          
COMP.    UNKNOWN         :Company        
SRVC.    UNKNOWN         :Service Company
DATE.    22-Apr-2024     :Date           
~PARAMETER INFORMATION SECTION
#MNEM.UNITS  VALUE   :DESCRIPTION OF PARAMETER
~CURVE INFORMATION SECTION
#MNEM                          .UNITS     API CODES   :DESCRIPTION OF MNEMONIC                                                                    
DEPTH                          .FT                    :Gamma Ray (Longhorn Wireline) Simulated Depth                                              
ECGR^{(DOI)}                   .API                   :Gamma Ray (Longhorn Wireline) Simulated Environmentally-Corrected Gamma Ray (DOI Corrected)
Th^{(DOI)}                     .PPM                   :Gamma Ray (Longhorn Wireline) Simulated Thorium Concentration (DOI Corrected)              
U^{(DOI)}                      .PPM                   :Gamma Ray (Longhorn Wireline) Simulated Uranium Concentration (DOI Corrected)              
K^{(DOI)}                      .FRACTION              :Gamma Ray (Longhorn Wireline) Simulated Potassium Concentration (DOI Corrected)            
ECGR                           .API                   :Gamma Ray (Longhorn Wireline) Simulated Environmentally-Corrected Gamma Ray                
Th                             .PPM                   :Gamma Ray (Longhorn Wireline) Simulated Thorium Concentration                              
U                              .PPM                   :Gamma Ray (Longhorn Wireline) Simulated Uranium Concentration                              
K                              .FRACTION              :Gamma Ray (Longhorn Wireline) Simulated Potassium Concentration                            
GR_Field                       .                      :                                                                                           
GR                             .API                   :Custom Log Calculation                                                                     
RHOZ                           .G/CM3                 :Custom Log Calculation                                                                     
PEFZ                           .B/E-                  :Custom Log Calculation                                                                     
NPOR                           .FRACTION              :Custom Log Calculation                                                                     
RD_V                           .CM^2/S                :Ion Diffusivity (Na, Double Layer)                                                         
RD_H                           .CM^2/S                :Ion Diffusivity (Na, Shale)                                                                
Resistivity Mud                .OHM-M                 :Resistivity Mud                                                                            
RS_H                           .OHM-M                 :Resistivity Formation (Uninvaded)                                                          
Resistivity (Perpendicular) Mud.OHM-M                 :Resistivity (Perpendicular) Mud                                                            
RS_V                           .OHM-M                 :Resistivity (Perpendicular) Formation (Uninvaded)                                          
~A DEPTH        ECGR^{(DOI)} Th^{(DOI)}   U^{(DOI)}    K^{(DOI)}    ECGR         Th           U            K            GR_Field     GR           RHOZ         PEFZ         NPOR         RD_V         RD_H         Resistivity  RS_H         Resistivity  RS_V         
# ...
 5142.59186352  30.22374133   5.21742521   2.39751985   0.00033568  30.22374133   5.21742521   2.39751985   0.00033568  30.42688617  30.42688617   2.13960238   2.20420311   0.27212316   2.34950582   1.42812316   1.00000000   0.22892572   1.00000000   1.18977426 
 5142.84186352  29.75743054   5.19823219   2.33832124   0.00031531  29.75743054   5.19823219   2.33832124   0.00031531  30.44061667  30.44061667   2.12461623   2.10894306   0.27275249   2.34950582   1.42812316   1.00000000   0.22892572   1.00000000   1.18977426 
 5143.09186352  29.16168000   5.17384236   2.26260270   0.00028945  29.16168000   5.17384236   2.26260270   0.00028945  30.26571498  30.26571498   2.11098627   2.01336246   0.27304634   2.34950582   1.42812316   1.00000000   0.22892572   1.00000000   1.18977426 
 5143.34186352  27.08814375   5.09012151   1.99827983   0.00020078  27.08814375   5.09012151   1.99827983   0.00020078  27.93724024  27.93724024   2.11283962   1.91412224   0.26951011   2.25052284   1.44884737   1.00000000   0.22818981   1.00000000   1.06420370 
 5143.59186352  25.01460750   5.00640067   1.73395695   0.00011212  25.01460750   5.00640067   1.73395695   0.00011212  25.60876550  25.60876550   2.11469296   1.81488202   0.26597389   1.86958834   1.52860420   1.00000000   0.22535766   1.00000000   0.58094729 
 5143.84186352  23.08905759   4.92867364   1.48849254   0.00002977  23.08905759   4.92867364   1.48849254   0.00002977  23.43618714  23.43618714   2.11643879   1.72400044   0.26247483   1.58763682   1.58763682   1.00000000   0.22326143   1.00000000   0.22326143 
 5144.09186352  22.85303577   4.91937675   1.45833124   0.00001957  22.85303577   4.91937675   1.45833124   0.00001957  23.04344427  23.04344427   2.11695701   1.72854768   0.25940012   1.58763682   1.58763682   1.00000000   0.22326143   1.00000000   0.22326143 
 5144.34186352  22.61701394   4.91007986   1.42816994   0.00000938  22.61701394   4.91007986   1.42816994   0.00000938  22.65070140  22.65070140   2.11747523   1.73309492   0.25632541   1.58763682   1.58763682   1.00000000   0.22326143   1.00000000   0.22326143 
 5144.59186352  22.40000041   4.90153170   1.40043771   0.00000000  22.40000041   4.90153170   1.40043771   0.00000000  22.28168604  22.28168604   2.11847111   1.73743609   0.25355756   1.58763682   1.58763682   1.00000000   0.22326143   1.00000000   0.22326143 
 5144.84186352  22.40000041   4.90153170   1.40043771   0.00000000  22.40000041   4.90153170   1.40043771   0.00000000  22.18356260  22.18356260   2.12492024   1.73942446   0.25429319   1.58763682   1.58763682   1.00000000   0.22326143   1.00000000   0.22326143 
 5145.09186352  22.40000041   4.90153170   1.40043771   0.00000000  22.40000041   4.90153170   1.40043771   0.00000000  22.08543917  22.08543917   2.13136937   1.74141283   0.25502881   1.58763682   1.58763682   1.00000000   0.22326143   1.00000000   0.22326143 
 5145.34186352  22.40000041   4.90153170   1.40043771   0.00000000  22.40000041   4.90153170   1.40043771   0.00000000  22.00012067  22.00012067   2.13587504   1.74278965   0.25567501   1.58763682   1.58763682   1.00000000   0.22326143   1.00000000   0.22326143 
 5145.59186352  22.40000041   4.90153170   1.40043771   0.00000000  22.40000041   4.90153170   1.40043771   0.00000000  22.06099333  22.06099333   2.11819263   1.73718462   0.25530025   1.58763682   1.58763682   1.00000000   0.22326143   1.00000000   0.22326143 
 5145.84186352  22.40000041   4.90153170   1.40043771   0.00000000  22.40000041   4.90153170   1.40043771   0.00000000  22.12186598  22.12186598   2.10051022   1.73157959   0.25492550   1.58763682   1.58763682   1.00000000   0.22326143   1.00000000   0.22326143 
 5146.09186352  22.40000041   4.90153170   1.40043771   0.00000000  22.40000041   4.90153170   1.40043771   0.00000000  22.18830422  22.18830422   2.08616266   1.72605168   0.25443221   1.58763682   1.58763682   1.00000000   0.22326143   1.00000000   0.22326143 
 5146.34186352  22.40000041   4.90153170   1.40043771   0.00000000  22.40000041   4.90153170   1.40043771   0.00000000  22.31828351  22.31828351   2.10988837   1.72140434   0.25258565   1.61394565   1.61394565   1.00000000   0.22696111   1.00000000   0.22696111 
 5146.59186352  22.40000041   4.90153170   1.40043771   0.00000000  22.40000041   4.90153170   1.40043771   0.00000000  22.44826281  22.44826281   2.13361408   1.71675700   0.25073910   1.71519481   1.71519481   1.00000000   0.24119927   1.00000000   0.24119927 
 5146.84186352  22.40000041   4.90153170   1.40043771   0.00000000  22.40000041   4.90153170   1.40043771   0.00000000  22.53476037  22.53476037   2.15525870   1.71173416   0.24880517   1.79013513   1.79013513   1.00000000   0.25173775   1.00000000   0.25173775 
 5147.09186352  22.40000041   4.90153170   1.40043771   0.00000000  22.40000041   4.90153170   1.40043771   0.00000000  22.12483635  22.12483635   2.15314385   1.70242428   0.24587363   1.79013513   1.79013513   1.00000000   0.25173775   1.00000000   0.25173775 
 5147.34186352  22.40000041   4.90153170   1.40043771   0.00000000  22.40000041   4.90153170   1.40043771   0.00000000  21.71491233  21.71491233   2.15102901   1.69311441   0.24294209   1.79013513   1.79013513   1.00000000   0.25173775   1.00000000   0.25173775 
 5147.59186352  22.40214058   4.90167489   1.40070382   0.00000001  22.40214058   4.90167489   1.40070382   0.00000001  21.37607544  21.37607544   2.14863232   1.68469896   0.24025107   1.79013513   1.79013513   1.00000000   0.25173775   1.00000000   0.25173775 
 5147.84186352  22.42871456   4.90345286   1.40400811   0.00000019  22.42871456   4.90345286   1.40400811   0.00000019  21.84882504  21.84882504   2.14301798   1.68649499   0.24030603   1.79013513   1.79013513   1.00000000   0.25173775   1.00000000   0.25173775 
 5148.09186352  22.45528854   4.90523082   1.40731239   0.00000036  22.45528854   4.90523082   1.40731239   0.00000036  22.32157464  22.32157464   2.13740363   1.68829102   0.24036100   1.79013513   1.79013513   1.00000000   0.25173775   1.00000000   0.25173775 
 5148.34186352  22.60147289   4.91478787   1.42558802   0.00000128  22.60147289   4.91478787   1.42558802   0.00000128  22.87463135  22.87463135   2.13357149   1.69810232   0.24044376   1.79013513   1.79013513   1.00000000   0.25173775   1.00000000   0.25173775 
 5148.59186352  24.11322305   5.01315699   1.61478826   0.00001077  24.11322305   5.01315699   1.61478826   0.00001077  24.34453695  24.34453695   2.15008648   1.79942222   0.24084378   1.79013513   1.79013513   1.00000000   0.25173775   1.00000000   0.25173775 
 5148.84186352  25.62497322   5.11152611   1.80398851   0.00002026  25.62497322   5.11152611   1.80398851   0.00002026  25.81444256  25.81444256   2.16660146   1.90074212   0.24124380   1.82762668   1.82762668   1.00000000   0.25967727   1.00000000   0.25967727 
 5149.09186352  27.19613500   5.21360874   2.00068957   0.00003012  27.19613500   5.21360874   2.00068957   0.00003012  27.35792048  27.35792048   2.18297772   2.00481659   0.24182409   1.97191236   1.97191236   1.00000000   0.29023241   1.00000000   0.29023241 
 5149.34186352  29.44558634   5.35808770   2.28302588   0.00004414  29.44558634   5.35808770   2.28302588   0.00004414  29.74135762  29.74135762   2.19777018   2.14033940   0.24446244   2.07870648   2.07870648   1.00000000   0.31284803   1.00000000   0.31284803 
 5149.59186352  31.69503768   5.50256665   2.56536220   0.00005815  31.69503768   5.50256665   2.56536220   0.00005815  32.12479477  32.12479477   2.21256265   2.27586222   0.24710078   2.07870648   2.07870648   1.00000000   0.31284803   1.00000000   0.31284803 
 5149.84186352  33.76734126   5.63566097   2.82546688   0.00007106  33.76734126   5.63566097   2.82546688   0.00007106  34.34273039  34.34273039   2.22602234   2.40171205   0.24944235   2.07870648   2.07870648   1.00000000   0.31284803   1.00000000   0.31284803 
 5150.09186352  33.81718696   5.63877933   2.83175779   0.00007137  33.81718696   5.63877933   2.83175779   0.00007137  34.67117077  34.67117077   2.22426602   2.41712753   0.24839579   2.07870648   2.07870648   1.00000000   0.31284803   1.00000000   0.31284803 
