~VERSION INFORMATION SECTION
VERS.           2.0  :CWLS Log ASCII Standard - 2.0
WRAP.           NO   :One line per depth
#               Created in UTAPWeLS
~WELL INFORMATION SECTION
#MNEM.UNIT  VALUE/NAME   :DESCRIPTION    
STRT.FT  3015.0919       :Start Depth    
STOP.FT  6361.3419       :Stop Depth     
STEP.FT  0.25            :Step           
NULL.    -999.25         :Null Value     
WELL.    UNKNOWN         :Well Name      
CTRY.    UNKNOWN         :Country        
CNTY.    UNKNOWN         :County         
STAT.    UNKNOWN         :State          
API .    UNKNOWN         :API number     
UWI .    UNKNOWN         :Unique well ID 
LOC .    UNKNOWN         :Well Location  
FLD .    UNKNOWN         :Field          
COMP.    UNKNOWN         :Company        
SRVC.    UNKNOWN         :Service Company
DATE.    22-Apr-2024     :Date           
~PARAMETER INFORMATION SECTION
#MNEM.UNITS  VALUE   :DESCRIPTION OF PARAMETER
~CURVE INFORMATION SECTION
#MNEM                          .UNITS     API CODES   :DESCRIPTION OF MNEMONIC                                                                    
DEPTH                          .FT                    :Gamma Ray (Longhorn Wireline) Simulated Depth                                              
ECGR^{(DOI)}                   .API                   :Gamma Ray (Longhorn Wireline) Simulated Environmentally-Corrected Gamma Ray (DOI Corrected)
Th^{(DOI)}                     .PPM                   :Gamma Ray (Longhorn Wireline) Simulated Thorium Concentration (DOI Corrected)              
U^{(DOI)}                      .PPM                   :Gamma Ray (Longhorn Wireline) Simulated Uranium Concentration (DOI Corrected)              
K^{(DOI)}                      .FRACTION              :Gamma Ray (Longhorn Wireline) Simulated Potassium Concentration (DOI Corrected)            
ECGR                           .API                   :Gamma Ray (Longhorn Wireline) Simulated Environmentally-Corrected Gamma Ray                
Th                             .PPM                   :Gamma Ray (Longhorn Wireline) Simulated Thorium Concentration                              
U                              .PPM                   :Gamma Ray (Longhorn Wireline) Simulated Uranium Concentration                              
K                              .FRACTION              :Gamma Ray (Longhorn Wireline) Simulated Potassium Concentration                            
GR_Field                       .                      :                                                                                           
GR                             .API                   :Custom Log Calculation                                                                     
RHOZ                           .G/CM3                 :Custom Log Calculation                                                                     
PEFZ                           .B/E-                  :Custom Log Calculation                                                                     
NPOR                           .FRACTION              :Custom Log Calculation                                                                     
RD_V                           .CM^2/S                :Ion Diffusivity (Na, Double Layer)                                                         
RD_H                           .CM^2/S                :Ion Diffusivity (Na, Shale)                                                                
Resistivity Mud                .OHM-M                 :Resistivity Mud                                                                            
RS_H                           .OHM-M                 :Resistivity Formation (Uninvaded)                                                          
Resistivity (Perpendicular) Mud.OHM-M                 :Resistivity (Perpendicular) Mud                                                            
RS_V                           .OHM-M                 :Resistivity (Perpendicular) Formation (Uninvaded)                                          
~A DEPTH        ECGR^{(DOI)} Th^{(DOI)}   U^{(DOI)}    K^{(DOI)}    ECGR         Th           U            K            GR_Field     GR           RHOZ         PEFZ         NPOR         RD_V         RD_H         Resistivity  RS_H         Resistivity  RS_V         
# ...
 5088.59186352 -999.25000000 -999.25000000 -999.25000000 -999.25000000 -999.25000000 -999.25000000 -999.25000000 -999.25000000 -999.25000000 -999.25000000 -999.25000000 -999.25000000 -999.25000000  10.00000000   1.00000000   1.00000000   1.00000000   1.00000000  10.00000000 
 5088.84186352 -999.25000000 -999.25000000 -999.25000000 -999.25000000 -999.25000000 -999.25000000 -999.25000000 -999.25000000 -999.25000000 -999.25000000 -999.25000000 -999.25000000 -999.25000000  10.00000000   1.00000000   1.00000000   1.00000000   1.00000000  10.00000000 
 5089.09186352 -999.25000000 -999.25000000 -999.25000000 -999.25000000 -999.25000000 -999.25000000 -999.25000000 -999.25000000 -999.25000000 -999.25000000 -999.25000000 -999.25000000 -999.25000000  10.00000000   1.00000000   1.00000000   1.00000000   1.00000000  10.00000000 
 5089.34186352 -999.25000000 -999.25000000 -999.25000000 -999.25000000 -999.25000000 -999.25000000 -999.25000000 -999.25000000 -999.25000000 -999.25000000 -999.25000000 -999.25000000 -999.25000000  10.00000000   1.00000000   1.00000000   1.00000000   1.00000000  10.00000000 
 5089.59186352 -999.25000000 -999.25000000 -999.25000000 -999.25000000 -999.25000000 -999.25000000 -999.25000000 -999.25000000 -999.25000000 -999.25000000 -999.25000000 -999.25000000 -999.25000000  10.00000000   1.00000000   1.00000000   1.00000000   1.00000000  10.00000000 
 5089.84186352 -999.25000000 -999.25000000 -999.25000000 -999.25000000 -999.25000000 -999.25000000 -999.25000000 -999.25000000 -999.25000000 -999.25000000 -999.25000000 -999.25000000 -999.25000000  10.00000000   1.00000000   1.00000000   1.00000000   1.00000000  10.00000000 
 5090.09186352 -999.25000000 -999.25000000 -999.25000000 -999.25000000 -999.25000000 -999.25000000 -999.25000000 -999.25000000 -999.25000000 -999.25000000 -999.25000000 -999.25000000 -999.25000000  10.00000000   1.00000000   1.00000000   1.00000000   1.00000000  10.00000000 
 5090.34186352 -999.25000000 -999.25000000 -999.25000000 -999.25000000 -999.25000000 -999.25000000 -999.25000000 -999.25000000 -999.25000000 -999.25000000 -999.25000000 -999.25000000 -999.25000000  10.00000000   1.00000000   1.00000000   1.00000000   1.00000000  10.00000000 
 5090.59186352 105.69999175   8.55011463  11.91166115   0.00351005 105.69999175   8.55011463  11.91166115   0.00351005 103.56870304 103.56870304 -999.25000000 -999.25000000 -999.25000000  10.00000000   1.00000000   1.00000000   1.00000000   1.00000000  10.00000000 
 5090.84186352 105.69999175   8.55011463  11.91166115   0.00351005 105.69999175   8.55011463  11.91166115   0.00351005 103.49756073 103.49756073 -999.25000000 -999.25000000 -999.25000000  10.00000000   1.00000000   1.00000000   1.00000000   1.00000000  10.00000000 
 5091.09186352 105.69999175   8.55011463  11.91166115   0.00351005 105.69999175   8.55011463  11.91166115   0.00351005 103.42641842 103.42641842 -999.25000000 -999.25000000 -999.25000000  10.00000000   1.00000000   1.00000000   1.00000000   1.00000000  10.00000000 
 5091.34186352 105.69999175   8.55011463  11.91166115   0.00351005 105.69999175   8.55011463  11.91166115   0.00351005 103.52541291 103.52541291   2.58911285   6.85803754   0.34723490  10.00000000   1.00000000   1.00000000   1.00000000   1.00000000  10.00000000 
 5091.59186352 105.69999175   8.55011463  11.91166115   0.00351005 105.69999175   8.55011463  11.91166115   0.00351005 105.56682273 105.56682273   2.59141585   6.88817309   0.34576270  10.00000000   1.00000000   1.00000000   1.00000000   1.00000000  10.00000000 
 5091.84186352 105.69999175   8.55011463  11.91166115   0.00351005 105.69999175   8.55011463  11.91166115   0.00351005 107.60823255 107.60823255   2.59371885   6.91830864   0.34429050  10.00000000   1.00000000   1.00000000   1.00000000   1.00000000  10.00000000 
 5092.09186352 105.69999175   8.55011463  11.91166115   0.00351005 105.69999175   8.55011463  11.91166115   0.00351005 109.50633654 109.50633654   2.59617893   6.94481575   0.34277568  10.00000000   1.00000000   1.00000000   1.00000000   1.00000000  10.00000000 
 5092.34186352 105.69999175   8.55011463  11.91166115   0.00351005 105.69999175   8.55011463  11.91166115   0.00351005 109.76834867 109.76834867   2.60043246   6.92989777   0.34077416  10.00000000   1.00000000   1.00000000   1.00000000   1.00000000  10.00000000 
 5092.59186352 105.69999175   8.55011463  11.91166115   0.00351005 105.69999175   8.55011463  11.91166115   0.00351005 110.03036080 110.03036080   2.60468599   6.91497979   0.33877265  10.00000000   1.00000000   1.00000000   1.00000000   1.00000000  10.00000000 
 5092.84186352 105.69999175   8.55011463  11.91166115   0.00351005 105.69999175   8.55011463  11.91166115   0.00351005 110.10205881 110.10205881   2.60769464   6.89857635   0.33695366  10.00000000   1.00000000   1.00000000   1.00000000   1.00000000  10.00000000 
 5093.09186352 105.69999175   8.55011463  11.91166115   0.00351005 105.69999175   8.55011463  11.91166115   0.00351005 108.00098138 108.00098138   2.59649082   6.86521380   0.33721855  10.00000000   1.00000000   1.00000000   1.00000000   1.00000000  10.00000000 
 5093.34186352 105.69999175   8.55011463  11.91166115   0.00351005 105.69999175   8.55011463  11.91166115   0.00351005 105.89990395 105.89990395   2.58528700   6.83185126   0.33748344  10.00000000   1.00000000   1.00000000   1.00000000   1.00000000  10.00000000 
 5093.59186352 105.69999175   8.55011463  11.91166115   0.00351005 105.69999175   8.55011463  11.91166115   0.00351005 104.01243153 104.01243153   2.57441262   6.80287825   0.33768959  10.00000000   1.00000000   1.00000000   1.00000000   1.00000000  10.00000000 
 5093.84186352 105.69999175   8.55011463  11.91166115   0.00351005 105.69999175   8.55011463  11.91166115   0.00351005 104.56364144 104.56364144   2.56729938   6.82401968   0.33722519  10.00000000   1.00000000   1.00000000   1.00000000   1.00000000  10.00000000 
 5094.09186352 105.69999175   8.55011463  11.91166115   0.00351005 105.69999175   8.55011463  11.91166115   0.00351005 105.11485134 105.11485134   2.56018614   6.84516110   0.33676078  10.00000000   1.00000000   1.00000000   1.00000000   1.00000000  10.00000000 
 5094.34186352 105.69999175   8.55011463  11.91166115   0.00351005 105.69999175   8.55011463  11.91166115   0.00351005 105.73517423 105.73517423   2.55436005   6.86680018   0.33662487  10.00000000   1.00000000   1.00000000   1.00000000   1.00000000  10.00000000 
 5094.59186352 105.69999175   8.55011463  11.91166115   0.00351005 105.69999175   8.55011463  11.91166115   0.00351005 107.14454521 107.14454521   2.56322895   6.89412078   0.34023930  10.00000000   1.00000000   1.00000000   1.00000000   1.00000000  10.00000000 
 5094.84186352 105.69999175   8.55011463  11.91166115   0.00351005 105.69999175   8.55011463  11.91166115   0.00351005 108.55391619 108.55391619   2.57209785   6.92144139   0.34385373  10.00000000   1.00000000   1.00000000   1.00000000   1.00000000  10.00000000 
 5095.09186352 105.69999175   8.55011463  11.91166115   0.00351005 105.69999175   8.55011463  11.91166115   0.00351005 109.70771843 109.70771843   2.57999300   6.94574977   0.34694029  10.00000000   1.00000000   1.00000000   1.00000000   1.00000000  10.00000000 
 5095.34186352 105.69999175   8.55011463  11.91166115   0.00351005 105.69999175   8.55011463  11.91166115   0.00351005 107.94374738 107.94374738   2.57677101   6.93566816   0.34400020  10.00000000   1.00000000   1.00000000   1.00000000   1.00000000  10.00000000 
 5095.59186352 105.69999175   8.55011463  11.91166115   0.00351005 105.69999175   8.55011463  11.91166115   0.00351005 106.17977634 106.17977634   2.57354902   6.92558656   0.34106012  10.00000000   1.00000000   1.00000000   1.00000000   1.00000000  10.00000000 
 5095.84186352 105.69999175   8.55011463  11.91166115   0.00351005 105.69999175   8.55011463  11.91166115   0.00351005 104.68599975 104.68599975   2.57122686   6.92037794   0.33813115  10.00000000   1.00000000   1.00000000   1.00000000   1.00000000  10.00000000 
